<?xml version='1.0' encoding='UTF-8' standalone='yes' ?>
<gpx version="1.1" creator="Binnette" xmlns="http://www.topografix.com/GPX/1/1" xmlns:osmand="https://osmand.net" xmlns:xsi="http://www.w3.org/2001/XMLSchema-instance" xsi:schemaLocation="http://www.topografix.com/GPX/1/1 http://www.topografix.com/GPX/1/1/gpx.xsd">
  <wpt lat="48.578971" lon="-2.221481">
    <time>2024-08-20T09:54:49Z</time>
    <name>Sdm94 b9999</name>
    <desc>Devant le café le barouff</desc>
    <type>BoiteLire Bretagne</type>
    <extensions>
      <osmand:address>7 bd de l arguenon, 22380 Saint cast le guildo, France</osmand:address>
      <osmand:color>#ff5020</osmand:color>
      <osmand:background>square</osmand:background>
      <osmand:icon>public_bookcase</osmand:icon>
    </extensions>
  </wpt>
  <wpt lat="48.675537" lon="-1.911482">
    <time>2017-04-11T12:18:51Z</time>
    <name>Vival de st coulomb b998</name>
    <desc></desc>
    <type>BoiteLire Bretagne</type>
    <extensions>
      <osmand:address>5 place de l’église, 35350 St coulomb , France</osmand:address>
      <osmand:color>#ff5020</osmand:color>
      <osmand:background>square</osmand:background>
      <osmand:icon>public_bookcase</osmand:icon>
    </extensions>
  </wpt>
  <wpt lat="48.104589" lon="-1.673816">
    <time>2024-01-19T09:37:20Z</time>
    <name>Maison de la consommation et de l environnement b9970</name>
    <desc>Vous pouvez profiter d une boîte à livres installée dans le hall de la mce à côté de la machine à café.</desc>
    <type>BoiteLire Bretagne</type>
    <extensions>
      <osmand:address>48 boulevard magenta, 35000 Rennes, France</osmand:address>
      <osmand:color>#ff5020</osmand:color>
      <osmand:background>square</osmand:background>
      <osmand:icon>public_bookcase</osmand:icon>
    </extensions>
  </wpt>
  <wpt lat="48.288607" lon="-1.245595">
    <time>2023-11-29T09:32:29Z</time>
    <name>Fred b9928</name>
    <desc></desc>
    <type>BoiteLire Bretagne</type>
    <extensions>
      <osmand:address>Rue de fougères, 35133 Billé, France</osmand:address>
      <osmand:color>#ff5020</osmand:color>
      <osmand:background>square</osmand:background>
      <osmand:icon>public_bookcase</osmand:icon>
    </extensions>
  </wpt>
  <wpt lat="48.285426" lon="-1.116413">
    <time>2023-11-29T09:32:04Z</time>
    <name>Fred b9927</name>
    <desc></desc>
    <type>BoiteLire Bretagne</type>
    <extensions>
      <osmand:address>Rue de normandie, 35133 Luitré-dompierre, France</osmand:address>
      <osmand:color>#ff5020</osmand:color>
      <osmand:background>square</osmand:background>
      <osmand:icon>public_bookcase</osmand:icon>
    </extensions>
  </wpt>
  <wpt lat="48.347688" lon="-1.099632">
    <time>2023-11-29T09:29:03Z</time>
    <name>Fred b9922</name>
    <desc></desc>
    <type>BoiteLire Bretagne</type>
    <extensions>
      <osmand:address>15 rue du relais, 35133 La chapelle-janson, France</osmand:address>
      <osmand:color>#ff5020</osmand:color>
      <osmand:background>square</osmand:background>
      <osmand:icon>public_bookcase</osmand:icon>
    </extensions>
  </wpt>
  <wpt lat="48.117631" lon="-1.652183">
    <time>2023-11-27T10:01:31Z</time>
    <name>Champollion b9919</name>
    <desc>Sur la droite lorsqu on se dirige vers le boulevard de vitré peu avant que la rue lavoisier débouche sur le boulevard</desc>
    <type>BoiteLire Bretagne</type>
    <extensions>
      <osmand:address>Rue lavoisier, 35700 Rennes, France</osmand:address>
      <osmand:color>#ff5020</osmand:color>
      <osmand:background>square</osmand:background>
      <osmand:icon>public_bookcase</osmand:icon>
    </extensions>
  </wpt>
  <wpt lat="48.608539" lon="-4.298833">
    <time>2023-11-24T09:29:22Z</time>
    <name>Plouider b9916</name>
    <desc>Boîte situé sous le parvis de la mairie.</desc>
    <type>BoiteLire Bretagne</type>
    <extensions>
      <osmand:address>Place saint-didier, 29260 Plouider, France</osmand:address>
      <osmand:color>#ff5020</osmand:color>
      <osmand:background>square</osmand:background>
      <osmand:icon>public_bookcase</osmand:icon>
    </extensions>
  </wpt>
  <wpt lat="48.0894" lon="-1.696324">
    <time>2023-10-30T07:56:30Z</time>
    <name>Ville sjdll b9904</name>
    <desc></desc>
    <type>BoiteLire Bretagne</type>
    <extensions>
      <osmand:address>Proche de ecole olympe de gouges, 35136 Saint jacques de la lande, France</osmand:address>
      <osmand:color>#ff5020</osmand:color>
      <osmand:background>square</osmand:background>
      <osmand:icon>public_bookcase</osmand:icon>
    </extensions>
  </wpt>
  <wpt lat="48.066037" lon="-1.717494">
    <time>2023-10-30T07:56:22Z</time>
    <name>Ville sjdell b9903</name>
    <desc></desc>
    <type>BoiteLire Bretagne</type>
    <extensions>
      <osmand:address>Parc rue du manoir, 35136 Saint jacques de la lande, France</osmand:address>
      <osmand:color>#ff5020</osmand:color>
      <osmand:background>square</osmand:background>
      <osmand:icon>public_bookcase</osmand:icon>
    </extensions>
  </wpt>
  <wpt lat="48.062516" lon="-1.722734">
    <time>2023-10-30T07:55:58Z</time>
    <name>Ville de sjdll b9902</name>
    <desc></desc>
    <type>BoiteLire Bretagne</type>
    <extensions>
      <osmand:address>Square du pas hubert, 35136 Saint jacques de la lande, France</osmand:address>
      <osmand:color>#ff5020</osmand:color>
      <osmand:background>square</osmand:background>
      <osmand:icon>public_bookcase</osmand:icon>
    </extensions>
  </wpt>
  <wpt lat="48.095671" lon="-1.692142">
    <time>2023-10-30T07:55:49Z</time>
    <name>Ville de sjdll b9901</name>
    <desc></desc>
    <type>BoiteLire Bretagne</type>
    <extensions>
      <osmand:address>Rue joseph boussin angle rue honoré commerec, 35136 Saint jacques de la lande, France</osmand:address>
      <osmand:color>#ff5020</osmand:color>
      <osmand:background>square</osmand:background>
      <osmand:icon>public_bookcase</osmand:icon>
    </extensions>
  </wpt>
  <wpt lat="48.544362" lon="-1.812536">
    <time>2023-10-27T08:22:23Z</time>
    <name>Gandon b9899</name>
    <desc>Dans une cabine téléphonique . très proche de la machine à pain.</desc>
    <type>BoiteLire Bretagne</type>
    <extensions>
      <osmand:address>Bourg, 35111 Lillemer, France</osmand:address>
      <osmand:color>#ff5020</osmand:color>
      <osmand:background>square</osmand:background>
      <osmand:icon>public_bookcase</osmand:icon>
    </extensions>
  </wpt>
  <wpt lat="48.384041" lon="-4.498432">
    <time>2023-10-06T09:29:52Z</time>
    <name>Blondy myriam b9861</name>
    <desc>Boite à lire de la librairie solidaire sapristi ! "</desc>
    <type>BoiteLire Bretagne</type>
    <extensions>
      <osmand:address>10 rue de la porte, 29200 Brest, France</osmand:address>
      <osmand:color>#ff5020</osmand:color>
      <osmand:background>square</osmand:background>
      <osmand:icon>public_bookcase</osmand:icon>
    </extensions>
  </wpt>
  <wpt lat="47.866535" lon="-4.222593">
    <time>2023-10-04T08:30:51Z</time>
    <name>Emilie b9842</name>
    <desc></desc>
    <type>BoiteLire Bretagne</type>
    <extensions>
      <osmand:address>Jardin des douves, 29120 Pont-l abbé, France</osmand:address>
      <osmand:color>#ff5020</osmand:color>
      <osmand:background>square</osmand:background>
      <osmand:icon>public_bookcase</osmand:icon>
    </extensions>
  </wpt>
  <wpt lat="48.463852" lon="-4.264125">
    <time>2023-09-15T09:12:57Z</time>
    <name>Martineau b9825</name>
    <desc>Se trouve près des portes du magasin e.leclerc</desc>
    <type>BoiteLire Bretagne</type>
    <extensions>
      <osmand:address>Rte de quinquis leck, 29800 Landerneau, France</osmand:address>
      <osmand:color>#ff5020</osmand:color>
      <osmand:background>square</osmand:background>
      <osmand:icon>public_bookcase</osmand:icon>
    </extensions>
  </wpt>
  <wpt lat="47.539232" lon="-2.879769">
    <time>2023-08-17T12:02:32Z</time>
    <name>Bocquet b9774</name>
    <desc></desc>
    <type>BoiteLire Bretagne</type>
    <extensions>
      <osmand:address>Résidence tor-lann, 56640 Arzon, France</osmand:address>
      <osmand:color>#ff5020</osmand:color>
      <osmand:background>square</osmand:background>
      <osmand:icon>public_bookcase</osmand:icon>
    </extensions>
  </wpt>
  <wpt lat="48.665486" lon="-2.983003">
    <time>2023-08-17T12:00:39Z</time>
    <name>Clem b9771</name>
    <desc>A côté des toilettes publiques sur la place de l église de pludual</desc>
    <type>BoiteLire Bretagne</type>
    <extensions>
      <osmand:address>Pl. de l Église, 22290 Pludual, France</osmand:address>
      <osmand:color>#ff5020</osmand:color>
      <osmand:background>square</osmand:background>
      <osmand:icon>public_bookcase</osmand:icon>
    </extensions>
  </wpt>
  <wpt lat="48.604641" lon="-3.01591">
    <time>2023-08-04T07:53:24Z</time>
    <name>Erwan lariven b9748</name>
    <desc>Sur le parking de la salle des fêtes</desc>
    <type>BoiteLire Bretagne</type>
    <extensions>
      <osmand:address>Mairie, 22290 Goudelin, France</osmand:address>
      <osmand:color>#ff5020</osmand:color>
      <osmand:background>square</osmand:background>
      <osmand:icon>public_bookcase</osmand:icon>
    </extensions>
  </wpt>
  <wpt lat="48.11349" lon="-2.066012">
    <time>2023-08-02T08:59:25Z</time>
    <name>Philippe caulier b9740</name>
    <desc>Sous l arrêt de bus</desc>
    <type>BoiteLire Bretagne</type>
    <extensions>
      <osmand:address>Place de l Église, 35750 St malon sur mel, France</osmand:address>
      <osmand:color>#ff5020</osmand:color>
      <osmand:background>square</osmand:background>
      <osmand:icon>public_bookcase</osmand:icon>
    </extensions>
  </wpt>
  <wpt lat="48.69674" lon="-3.161949">
    <time>2023-07-31T07:57:26Z</time>
    <name>Céline b9738</name>
    <desc>Dans le jardin de la passerelle, près de l entrée accédant aux barques.</desc>
    <type>BoiteLire Bretagne</type>
    <extensions>
      <osmand:address>La passerelle, 22260 Pontrieux, France</osmand:address>
      <osmand:color>#ff5020</osmand:color>
      <osmand:background>square</osmand:background>
      <osmand:icon>public_bookcase</osmand:icon>
    </extensions>
  </wpt>
  <wpt lat="47.819167" lon="-3.79258">
    <time>2023-07-25T08:01:39Z</time>
    <name>Soniat57 b9711</name>
    <desc>A kerdruc, sur la droite, en forme de petite maison bleue</desc>
    <type>BoiteLire Bretagne</type>
    <extensions>
      <osmand:address>Rue parc lan, 29920 Nevez, France</osmand:address>
      <osmand:color>#ff5020</osmand:color>
      <osmand:background>square</osmand:background>
      <osmand:icon>public_bookcase</osmand:icon>
    </extensions>
  </wpt>
  <wpt lat="47.772605" lon="-3.609907">
    <time>2023-07-18T07:34:27Z</time>
    <name>Soniat57 b9695</name>
    <desc>A doëlan, rive droite, en descendant la rue vers le port, sur la droite</desc>
    <type>BoiteLire Bretagne</type>
    <extensions>
      <osmand:address>Place de la coopérative, doëlan, 29360 Clohars-carnoËt, France</osmand:address>
      <osmand:color>#ff5020</osmand:color>
      <osmand:background>square</osmand:background>
      <osmand:icon>public_bookcase</osmand:icon>
    </extensions>
  </wpt>
  <wpt lat="48.406066" lon="-2.084162">
    <time>2023-07-07T08:19:43Z</time>
    <name>Baverel b9679</name>
    <desc>La boîte se trouvee derrière la poste</desc>
    <type>BoiteLire Bretagne</type>
    <extensions>
      <osmand:address>30 rue des granits, 22100 Le hinglé, France</osmand:address>
      <osmand:color>#ff5020</osmand:color>
      <osmand:background>square</osmand:background>
      <osmand:icon>public_bookcase</osmand:icon>
    </extensions>
  </wpt>
  <wpt lat="48.195399" lon="-2.186354">
    <time>2023-07-03T08:23:34Z</time>
    <name>Ophélie b9666</name>
    <desc></desc>
    <type>BoiteLire Bretagne</type>
    <extensions>
      <osmand:address>Rue suzanne valandon, 35290 Saint méen-le-grand, France</osmand:address>
      <osmand:color>#ff5020</osmand:color>
      <osmand:background>square</osmand:background>
      <osmand:icon>public_bookcase</osmand:icon>
    </extensions>
  </wpt>
  <wpt lat="48.388549" lon="-4.527924">
    <time>2023-06-30T07:52:34Z</time>
    <name>Marthe fouan b9655</name>
    <desc>Dans la galerie de carrefour, en face du marchand de crêpes</desc>
    <type>BoiteLire Bretagne</type>
    <extensions>
      <osmand:address>126 boulevard de plymouth, 29200 Brest, France</osmand:address>
      <osmand:color>#ff5020</osmand:color>
      <osmand:background>square</osmand:background>
      <osmand:icon>public_bookcase</osmand:icon>
    </extensions>
  </wpt>
  <wpt lat="47.758014" lon="-2.375882">
    <time>2023-06-23T07:55:47Z</time>
    <name>Bohec b9648</name>
    <desc>A côté de la pharmacie</desc>
    <type>BoiteLire Bretagne</type>
    <extensions>
      <osmand:address>Rue pasteur, 56140 Pleucadeuc, France</osmand:address>
      <osmand:color>#ff5020</osmand:color>
      <osmand:background>square</osmand:background>
      <osmand:icon>public_bookcase</osmand:icon>
    </extensions>
  </wpt>
  <wpt lat="48.506419" lon="-2.751012">
    <time>2023-03-27T08:12:44Z</time>
    <name>Samantha b9505</name>
    <desc>Elle se situe au croisement de la place sainte-thérèse.</desc>
    <type>BoiteLire Bretagne</type>
    <extensions>
      <osmand:address>2 rue abbé duchesne, 22000 Saint-brieuc, France</osmand:address>
      <osmand:color>#ff5020</osmand:color>
      <osmand:background>square</osmand:background>
      <osmand:icon>public_bookcase</osmand:icon>
    </extensions>
  </wpt>
  <wpt lat="48.015936" lon="-4.207467">
    <time>2023-03-08T11:31:53Z</time>
    <name>Audrey b9473</name>
    <desc>Boite à lire situé à coté de l agence immobilière et à coté d'un joli banc.</desc>
    <type>BoiteLire Bretagne</type>
    <extensions>
      <osmand:address>22 rue laennec, 29710 Ploneis, France</osmand:address>
      <osmand:color>#ff5020</osmand:color>
      <osmand:background>square</osmand:background>
      <osmand:icon>public_bookcase</osmand:icon>
    </extensions>
  </wpt>
  <wpt lat="48.043657" lon="-4.206361">
    <time>2023-03-08T11:31:45Z</time>
    <name>Audrey b9472</name>
    <desc>à coté du porche en face de l église, boite rouge encastrée dans le mur</desc>
    <type>BoiteLire Bretagne</type>
    <extensions>
      <osmand:address>Rue de bretagne, 29710 Guengat, France</osmand:address>
      <osmand:color>#ff5020</osmand:color>
      <osmand:background>square</osmand:background>
      <osmand:icon>public_bookcase</osmand:icon>
    </extensions>
  </wpt>
  <wpt lat="48.088534" lon="-3.561418">
    <time>2023-02-20T08:22:23Z</time>
    <name>Aurelie b9443</name>
    <desc>Rond point face restaurant la chenaie</desc>
    <type>BoiteLire Bretagne</type>
    <extensions>
      <osmand:address>Rue de la mairie, 81630 Saint-urcisse, France</osmand:address>
      <osmand:color>#ff5020</osmand:color>
      <osmand:background>square</osmand:background>
      <osmand:icon>public_bookcase</osmand:icon>
    </extensions>
  </wpt>
  <wpt lat="48.705141" lon="-3.999067">
    <time>2023-02-08T12:07:37Z</time>
    <name>Cd b9432</name>
    <desc>Boîte en haut des marches près de la statue</desc>
    <type>BoiteLire Bretagne</type>
    <extensions>
      <osmand:address>Square lejeune, 29680 Roscoff, France</osmand:address>
      <osmand:color>#ff5020</osmand:color>
      <osmand:background>square</osmand:background>
      <osmand:icon>public_bookcase</osmand:icon>
    </extensions>
  </wpt>
  <wpt lat="48.576093" lon="-4.32143">
    <time>2023-01-30T08:15:23Z</time>
    <name>Bihan eva b9409</name>
    <desc>Juste en face du lycée le cleusmeur</desc>
    <type>BoiteLire Bretagne</type>
    <extensions>
      <osmand:address>Rue chanoine calvez, 29260 Lesneven, France</osmand:address>
      <osmand:color>#ff5020</osmand:color>
      <osmand:background>square</osmand:background>
      <osmand:icon>public_bookcase</osmand:icon>
    </extensions>
  </wpt>
  <wpt lat="48.536361" lon="-4.31227">
    <time>2023-01-25T08:02:04Z</time>
    <name>Oriane c b9400</name>
    <desc>Créée sous l initiative des bénévoles de la bibliothèque auguste le breton, la boîte à livre est située sur le chemin derrière le cabinet médical.</desc>
    <type>BoiteLire Bretagne</type>
    <extensions>
      <osmand:address>Place alain poher, 29260 Ploudaniel, France</osmand:address>
      <osmand:color>#ff5020</osmand:color>
      <osmand:background>square</osmand:background>
      <osmand:icon>public_bookcase</osmand:icon>
    </extensions>
  </wpt>
  <wpt lat="48.347535" lon="-2.757329">
    <time>2023-01-25T08:01:21Z</time>
    <name>Médiathèque b9396</name>
    <desc></desc>
    <type>BoiteLire Bretagne</type>
    <extensions>
      <osmand:address>9 rue de montifault, 22150 Ploeuc sur lie, France</osmand:address>
      <osmand:color>#ff5020</osmand:color>
      <osmand:background>square</osmand:background>
      <osmand:icon>public_bookcase</osmand:icon>
    </extensions>
  </wpt>
  <wpt lat="48.332612" lon="-2.828864">
    <time>2023-01-25T08:01:12Z</time>
    <name>Médiathèque b9395</name>
    <desc></desc>
    <type>BoiteLire Bretagne</type>
    <extensions>
      <osmand:address>2 d44e, 22150 Ploeuc sur lie, France</osmand:address>
      <osmand:color>#ff5020</osmand:color>
      <osmand:background>square</osmand:background>
      <osmand:icon>public_bookcase</osmand:icon>
    </extensions>
  </wpt>
  <wpt lat="48.21285" lon="-2.796265">
    <time>2023-01-09T09:57:23Z</time>
    <name>Samantha b9370</name>
    <desc>Elle se situe devant la salle men-glaz qui est une salle polyvalente de la commune.</desc>
    <type>BoiteLire Bretagne</type>
    <extensions>
      <osmand:address>13 place de la mairie, 22600 Trévé, France</osmand:address>
      <osmand:color>#ff5020</osmand:color>
      <osmand:background>square</osmand:background>
      <osmand:icon>public_bookcase</osmand:icon>
    </extensions>
  </wpt>
  <wpt lat="48.155757" lon="-1.58161">
    <time>2023-01-03T21:08:45Z</time>
    <name>Association nature environnement b9356</name>
    <desc>Boîte à lire abritée située devant le aneth café", alimentée par les habitants et la ressourcerie.</desc>
    <type>BoiteLire Bretagne</type>
    <extensions>
      <osmand:address>3 allée du marché, 35235 Thorigné-fouillard, France</osmand:address>
      <osmand:color>#ff5020</osmand:color>
      <osmand:background>square</osmand:background>
      <osmand:icon>public_bookcase</osmand:icon>
    </extensions>
  </wpt>
  <wpt lat="48.411428" lon="-1.365536">
    <time>2023-01-03T16:05:28Z</time>
    <name>Chantal b9355</name>
    <desc></desc>
    <type>BoiteLire Bretagne</type>
    <extensions>
      <osmand:address>Square karlstadt, 35460 Saint brice en coglès, maen roch, France</osmand:address>
      <osmand:color>#ff5020</osmand:color>
      <osmand:background>square</osmand:background>
      <osmand:icon>public_bookcase</osmand:icon>
    </extensions>
  </wpt>
  <wpt lat="47.530127" lon="-3.146651">
    <time>2022-12-05T08:02:43Z</time>
    <name>Loisirs et culture b9313</name>
    <desc>Une ancienne timonerie de bateau de pêche rénovée et transformée en boîte à livres solidaire et publique .cette rénovation a été conduite bénévolement par l atelier bateau et bois" de l association loisirs et culture de saint pierre quiberon.</desc>
    <type>BoiteLire Bretagne</type>
    <extensions>
      <osmand:address>Port de portivy, 56510 Saint pierre quiberon, France</osmand:address>
      <osmand:color>#ff5020</osmand:color>
      <osmand:background>square</osmand:background>
      <osmand:icon>public_bookcase</osmand:icon>
    </extensions>
  </wpt>
  <wpt lat="47.53099" lon="-3.14498">
    <time>2022-12-05T08:02:21Z</time>
    <name>Loisirs et culture b9312</name>
    <desc>Une ancienne timonerie de bateau de pêche rénovée et transformée en boîte à livres solidaire conduite par l atelier bateau et bois de l asssociation loisirs et culture saint pierre quiberon.</desc>
    <type>BoiteLire Bretagne</type>
    <extensions>
      <osmand:address>Promenade de tiviec - portivy, 56510 Saint pierre quiberon, France</osmand:address>
      <osmand:color>#ff5020</osmand:color>
      <osmand:background>square</osmand:background>
      <osmand:icon>public_bookcase</osmand:icon>
    </extensions>
  </wpt>
  <wpt lat="47.656139" lon="-2.870167">
    <time>2022-09-08T09:23:02Z</time>
    <name>Cécile hamard b9157</name>
    <desc>Dans le hall de l espace culturel le triskell</desc>
    <type>BoiteLire Bretagne</type>
    <extensions>
      <osmand:address>3 rue des deux moulins, 56880 Ploeren, France</osmand:address>
      <osmand:color>#ff5020</osmand:color>
      <osmand:background>square</osmand:background>
      <osmand:icon>public_bookcase</osmand:icon>
    </extensions>
  </wpt>
  <wpt lat="48.388757" lon="-4.489011">
    <time>2022-09-01T11:11:03Z</time>
    <name>Claudia merour b9148</name>
    <desc>Bourg de guipavas à côté du terrain de pétanque qui se trouve en face de la boucherie</desc>
    <type>BoiteLire Bretagne</type>
    <extensions>
      <osmand:address>Claudia.merour@laposte.net, 29490 Guipavas, France</osmand:address>
      <osmand:color>#ff5020</osmand:color>
      <osmand:background>square</osmand:background>
      <osmand:icon>public_bookcase</osmand:icon>
    </extensions>
  </wpt>
  <wpt lat="47.997542" lon="-4.097899">
    <time>2022-08-30T09:34:30Z</time>
    <name>Isam b9146</name>
    <desc>Au pied de la chapelle à cuzon à quimper. boite jaune.</desc>
    <type>BoiteLire Bretagne</type>
    <extensions>
      <osmand:address>Rue de la chapelle, 29000 Quimper, France</osmand:address>
      <osmand:color>#ff5020</osmand:color>
      <osmand:background>square</osmand:background>
      <osmand:icon>public_bookcase</osmand:icon>
    </extensions>
  </wpt>
  <wpt lat="48.021557" lon="-4.005549">
    <time>2022-08-30T09:34:00Z</time>
    <name>Isam b9143</name>
    <desc>Au croisement de chemin de guilly et route de coray. dans deux congélateurs rouges.</desc>
    <type>BoiteLire Bretagne</type>
    <extensions>
      <osmand:address>Chemin de guilly, 29500 Ergue gaberic, France</osmand:address>
      <osmand:color>#ff5020</osmand:color>
      <osmand:background>square</osmand:background>
      <osmand:icon>public_bookcase</osmand:icon>
    </extensions>
  </wpt>
  <wpt lat="47.698181" lon="-2.804625">
    <time>2022-08-30T09:32:29Z</time>
    <name>Bohec hugues b9142</name>
    <desc>Sur la place de la mairie de plescop</desc>
    <type>BoiteLire Bretagne</type>
    <extensions>
      <osmand:address>2 place marianne, 56890 Plescop, France</osmand:address>
      <osmand:color>#ff5020</osmand:color>
      <osmand:background>square</osmand:background>
      <osmand:icon>public_bookcase</osmand:icon>
    </extensions>
  </wpt>
  <wpt lat="47.69947" lon="-2.808593">
    <time>2022-08-30T09:32:11Z</time>
    <name>Bohec b9141</name>
    <desc>En face de la crèche municipale</desc>
    <type>BoiteLire Bretagne</type>
    <extensions>
      <osmand:address>12 rue sainte anne, 56890 Plescop, France</osmand:address>
      <osmand:color>#ff5020</osmand:color>
      <osmand:background>square</osmand:background>
      <osmand:icon>public_bookcase</osmand:icon>
    </extensions>
  </wpt>
  <wpt lat="48.191464" lon="-2.850449">
    <time>2022-08-22T17:24:46Z</time>
    <name>Samantha b9122</name>
    <desc>Elle se situe près de la route, en face de l épicerie.</desc>
    <type>BoiteLire Bretagne</type>
    <extensions>
      <osmand:address>Place du champ de foire, 22600 Saint-caradec, France</osmand:address>
      <osmand:color>#ff5020</osmand:color>
      <osmand:background>square</osmand:background>
      <osmand:icon>public_bookcase</osmand:icon>
    </extensions>
  </wpt>
  <wpt lat="48.545893" lon="-1.957739">
    <time>2022-08-22T17:24:15Z</time>
    <name>Zibou b9120</name>
    <desc>Boite à lire sur les bords de rance au bout du parking près de la plag. a proximité du camping de vigneux</desc>
    <type>BoiteLire Bretagne</type>
    <extensions>
      <osmand:address>Rue de vigneux, 35430 La ville-es-nonais, France</osmand:address>
      <osmand:color>#ff5020</osmand:color>
      <osmand:background>square</osmand:background>
      <osmand:icon>public_bookcase</osmand:icon>
    </extensions>
  </wpt>
  <wpt lat="48.103426" lon="-1.672417">
    <time>2017-03-27T10:27:43Z</time>
    <name>Anouk b912</name>
    <desc>Bibliothèque de la gare routière</desc>
    <type>BoiteLire Bretagne</type>
    <extensions>
      <osmand:address>Gare routiere, 35000 Rennes, France</osmand:address>
      <osmand:color>#ff5020</osmand:color>
      <osmand:background>square</osmand:background>
      <osmand:icon>public_bookcase</osmand:icon>
    </extensions>
  </wpt>
  <wpt lat="47.653577" lon="-2.092454">
    <time>2022-08-17T17:03:21Z</time>
    <name>Le costevec b9044</name>
    <desc>Boite à livres dans un frigo bleu canard recyclé, situé sur le trottoir gauche entre la gare et le lycée beaumont.</desc>
    <type>BoiteLire Bretagne</type>
    <extensions>
      <osmand:address>35 rue de codilo, 35600 Redon, France</osmand:address>
      <osmand:color>#ff5020</osmand:color>
      <osmand:background>square</osmand:background>
      <osmand:icon>public_bookcase</osmand:icon>
    </extensions>
  </wpt>
  <wpt lat="48.026561" lon="-3.702284">
    <time>2022-08-17T17:00:32Z</time>
    <name>Aurore b9036</name>
    <desc>Une jolie boite dans un vieux tronc, place de la mairie</desc>
    <type>BoiteLire Bretagne</type>
    <extensions>
      <osmand:address>2 place de la liberation, 29390 Scaer, France</osmand:address>
      <osmand:color>#ff5020</osmand:color>
      <osmand:background>square</osmand:background>
      <osmand:icon>public_bookcase</osmand:icon>
    </extensions>
  </wpt>
  <wpt lat="48.119782" lon="-1.670889">
    <time>2022-08-16T09:54:48Z</time>
    <name>Julupon b9005</name>
    <desc>Proche de la faculté de droit, grande boite à livres blanche</desc>
    <type>BoiteLire Bretagne</type>
    <extensions>
      <osmand:address>Avenue jules ferry, 35700 Rennes, France</osmand:address>
      <osmand:color>#ff5020</osmand:color>
      <osmand:background>square</osmand:background>
      <osmand:icon>public_bookcase</osmand:icon>
    </extensions>
  </wpt>
  <wpt lat="48.227756" lon="-1.181129">
    <time>2022-07-21T11:10:14Z</time>
    <name>Cholet b8979</name>
    <desc>La boite à lire se situe dans la maison du garde-barrière sur la voie verte près du camping.</desc>
    <type>BoiteLire Bretagne</type>
    <extensions>
      <osmand:address>Rue des rouxières, 35210 Châtillon-en-vendelais, France</osmand:address>
      <osmand:color>#ff5020</osmand:color>
      <osmand:background>square</osmand:background>
      <osmand:icon>public_bookcase</osmand:icon>
    </extensions>
  </wpt>
  <wpt lat="48.056213" lon="-1.152438">
    <time>2022-07-08T15:17:55Z</time>
    <name>Eugénie b8966</name>
    <desc>Très jolie cabane à livres pour enfants et adultes</desc>
    <type>BoiteLire Bretagne</type>
    <extensions>
      <osmand:address>Jardin du hill, 35370 Argentré du plessis, France</osmand:address>
      <osmand:color>#ff5020</osmand:color>
      <osmand:background>square</osmand:background>
      <osmand:icon>public_bookcase</osmand:icon>
    </extensions>
  </wpt>
  <wpt lat="48.502525" lon="-4.423448">
    <time>2022-07-04T10:19:55Z</time>
    <name>Association autour des mots et de l evenementiel b8955</name>
    <desc>Une sélection est faite chaque semaine.</desc>
    <type>BoiteLire Bretagne</type>
    <extensions>
      <osmand:address>16 rue pierre jestin - espace louis coz, 29860 Plabennec, France</osmand:address>
      <osmand:color>#ff5020</osmand:color>
      <osmand:background>square</osmand:background>
      <osmand:icon>public_bookcase</osmand:icon>
    </extensions>
  </wpt>
  <wpt lat="47.983047" lon="-4.108823">
    <time>2022-07-04T10:16:43Z</time>
    <name>Catsparrow b8945</name>
    <desc>À l intérieur du centre commercial carrefour</desc>
    <type>BoiteLire Bretagne</type>
    <extensions>
      <osmand:address>11 rue du poher, 29000 Quimper, France</osmand:address>
      <osmand:color>#ff5020</osmand:color>
      <osmand:background>square</osmand:background>
      <osmand:icon>public_bookcase</osmand:icon>
    </extensions>
  </wpt>
  <wpt lat="47.972255" lon="-2.848978">
    <time>2022-07-04T10:14:35Z</time>
    <name>Mairie d evellys b8939</name>
    <desc></desc>
    <type>BoiteLire Bretagne</type>
    <extensions>
      <osmand:address>Plan d eau naizin, 56500 Naizin, France</osmand:address>
      <osmand:color>#ff5020</osmand:color>
      <osmand:background>square</osmand:background>
      <osmand:icon>public_bookcase</osmand:icon>
    </extensions>
  </wpt>
  <wpt lat="48.072404" lon="-1.708119">
    <time></time>
    <name>Gervaisot b89</name>
    <desc>La boite se situe dans la campagne le long d'un chemin piétonnier avec un banc devant. autour il y a des bacs incroyables avec des plantes aromatiques comestibles à disposition. elle est plus spécialisée dans les magazines</desc>
    <type>BoiteLire Bretagne</type>
    <extensions>
      <osmand:address>La basse teillais, 35136 Saint jacques de la lande, France</osmand:address>
      <osmand:color>#ff5020</osmand:color>
      <osmand:background>square</osmand:background>
      <osmand:icon>public_bookcase</osmand:icon>
    </extensions>
  </wpt>
  <wpt lat="48.797303" lon="-3.022023">
    <time></time>
    <name>Fanny b88</name>
    <desc>Cette boite à lire tourne depuis février 2016 et est régulièrement garnie et l'été en plus quelques fines herbes à emporter !</desc>
    <type>BoiteLire Bretagne</type>
    <extensions>
      <osmand:address>14 rue de toul broc'h, 22620 Ploubazlanec, France</osmand:address>
      <osmand:color>#ff5020</osmand:color>
      <osmand:background>square</osmand:background>
      <osmand:icon>public_bookcase</osmand:icon>
    </extensions>
  </wpt>
  <wpt lat="48.449505" lon="-2.047982">
    <time>2022-05-05T09:33:18Z</time>
    <name>Anouk b8797</name>
    <desc>Près de l aire de jeux</desc>
    <type>BoiteLire Bretagne</type>
    <extensions>
      <osmand:address>Jardin du val cocherel, 22100 Dinan, France</osmand:address>
      <osmand:color>#ff5020</osmand:color>
      <osmand:background>square</osmand:background>
      <osmand:icon>public_bookcase</osmand:icon>
    </extensions>
  </wpt>
  <wpt lat="48.577031" lon="-4.030152">
    <time>2022-04-20T09:24:16Z</time>
    <name>Jean-françois b8783</name>
    <desc>Petite boite en bois sur la rampe d accès au plan d'eau</desc>
    <type>BoiteLire Bretagne</type>
    <extensions>
      <osmand:address>Entrée plan d eau, chemin d'accès poussettes., 29420 Plouvorn, France</osmand:address>
      <osmand:color>#ff5020</osmand:color>
      <osmand:background>square</osmand:background>
      <osmand:icon>public_bookcase</osmand:icon>
    </extensions>
  </wpt>
  <wpt lat="48.53055" lon="-4.116986">
    <time>2022-04-20T09:23:03Z</time>
    <name>Jean-françois b8782</name>
    <desc>Armoire en bois sous le porche d entrée de la maire</desc>
    <type>BoiteLire Bretagne</type>
    <extensions>
      <osmand:address>Entrée du porche mairie-bibliothèque, 29400 Bodilis, France</osmand:address>
      <osmand:color>#ff5020</osmand:color>
      <osmand:background>square</osmand:background>
      <osmand:icon>public_bookcase</osmand:icon>
    </extensions>
  </wpt>
  <wpt lat="47.56573" lon="-2.724501">
    <time>2022-04-20T09:22:49Z</time>
    <name>Marie agnÈs b8781</name>
    <desc>Très grande boîte sur le bord de la route après la maison numéro 90 en direction des marais.</desc>
    <type>BoiteLire Bretagne</type>
    <extensions>
      <osmand:address>90 route de tascon, 56450 Saint-armel, France</osmand:address>
      <osmand:color>#ff5020</osmand:color>
      <osmand:background>square</osmand:background>
      <osmand:icon>public_bookcase</osmand:icon>
    </extensions>
  </wpt>
  <wpt lat="48.121552" lon="-1.697034">
    <time>2022-04-14T09:39:57Z</time>
    <name>Champollion b8777</name>
    <desc>Adossée à la station de métro pontchaillou face à l arrêt de la navette</desc>
    <type>BoiteLire Bretagne</type>
    <extensions>
      <osmand:address>Rue abbé huet, 35000 Rennes, France</osmand:address>
      <osmand:color>#ff5020</osmand:color>
      <osmand:background>square</osmand:background>
      <osmand:icon>public_bookcase</osmand:icon>
    </extensions>
  </wpt>
  <wpt lat="47.572313" lon="-2.710594">
    <time>2022-04-13T09:15:51Z</time>
    <name>Marie agnÈs b8749</name>
    <desc>Boîte bleue en forme de maison située à gauche de la mairie sur la petite place.</desc>
    <type>BoiteLire Bretagne</type>
    <extensions>
      <osmand:address>30 rus de la mairie, 56450 Saint-armel, France</osmand:address>
      <osmand:color>#ff5020</osmand:color>
      <osmand:background>square</osmand:background>
      <osmand:icon>public_bookcase</osmand:icon>
    </extensions>
  </wpt>
  <wpt lat="48.189144" lon="-3.344572">
    <time>2022-03-22T11:52:50Z</time>
    <name>Ivan b8687</name>
    <desc>Dans un très bel abri-bus en bois.</desc>
    <type>BoiteLire Bretagne</type>
    <extensions>
      <osmand:address>Cimetiere de saint michel en glomel, 22110 Glomel, France</osmand:address>
      <osmand:color>#ff5020</osmand:color>
      <osmand:background>square</osmand:background>
      <osmand:icon>public_bookcase</osmand:icon>
    </extensions>
  </wpt>
  <wpt lat="47.481606" lon="-3.120615">
    <time>2017-03-02T08:49:46Z</time>
    <name>Annie91 b866</name>
    <desc>Près de l office de tourisme, une jolie boite à lire décorée découverte pendant des vacances...</desc>
    <type>BoiteLire Bretagne</type>
    <extensions>
      <osmand:address>14 rue de verdun, 56170 Quiberon, France</osmand:address>
      <osmand:color>#ff5020</osmand:color>
      <osmand:background>square</osmand:background>
      <osmand:icon>public_bookcase</osmand:icon>
    </extensions>
  </wpt>
  <wpt lat="48.521431" lon="-2.732066">
    <time>2022-03-07T09:25:51Z</time>
    <name>Tardivel b8621</name>
    <desc>Elle est dans le parc</desc>
    <type>BoiteLire Bretagne</type>
    <extensions>
      <osmand:address>Rue jules verne, 22000 Saint brieuc, France</osmand:address>
      <osmand:color>#ff5020</osmand:color>
      <osmand:background>square</osmand:background>
      <osmand:icon>public_bookcase</osmand:icon>
    </extensions>
  </wpt>
  <wpt lat="47.795017" lon="-3.487062">
    <time>2022-03-07T09:25:42Z</time>
    <name>M j j b8620</name>
    <desc>Situé devant l'entrée principale de l'église</desc>
    <type>BoiteLire Bretagne</type>
    <extensions>
      <osmand:address>Parvis de l'église, 56520 Guidel, France</osmand:address>
      <osmand:color>#ff5020</osmand:color>
      <osmand:background>square</osmand:background>
      <osmand:icon>public_bookcase</osmand:icon>
    </extensions>
  </wpt>
  <wpt lat="47.519953" lon="-3.129368">
    <time></time>
    <name>Eléo b86</name>
    <desc>Jolie boîte près du restaurant le petit st pierre.</desc>
    <type>BoiteLire Bretagne</type>
    <extensions>
      <osmand:address>38 rue de l'église, 56510 Saintt pierre quiberon, France</osmand:address>
      <osmand:color>#ff5020</osmand:color>
      <osmand:background>square</osmand:background>
      <osmand:icon>public_bookcase</osmand:icon>
    </extensions>
  </wpt>
  <wpt lat="48.104768" lon="-1.679274">
    <time>2017-02-28T09:39:44Z</time>
    <name>François rocher b854</name>
    <desc>Devant nature et découvertes</desc>
    <type>BoiteLire Bretagne</type>
    <extensions>
      <osmand:address>40 place du colombier, 35000 Rennes, France</osmand:address>
      <osmand:color>#ff5020</osmand:color>
      <osmand:background>square</osmand:background>
      <osmand:icon>public_bookcase</osmand:icon>
    </extensions>
  </wpt>
  <wpt lat="48.557198" lon="-4.700161">
    <time>2022-02-08T11:19:26Z</time>
    <name>Mercier b8495</name>
    <desc>Deux boîtes placées sur le port de l abéric, à portsall.</desc>
    <type>BoiteLire Bretagne</type>
    <extensions>
      <osmand:address>Port de portsall, 29830 Lampaul-ploudalmézeau, France</osmand:address>
      <osmand:color>#ff5020</osmand:color>
      <osmand:background>square</osmand:background>
      <osmand:icon>public_bookcase</osmand:icon>
    </extensions>
  </wpt>
  <wpt lat="48.085186" lon="-1.617714">
    <time>2017-02-24T12:23:53Z</time>
    <name>Nicole p. b849</name>
    <desc>La boite est située du côté de l'avenue des meliettes !</desc>
    <type>BoiteLire Bretagne</type>
    <extensions>
      <osmand:address>5 rue de la boucaudais, 35135 Chantepie, France</osmand:address>
      <osmand:color>#ff5020</osmand:color>
      <osmand:background>square</osmand:background>
      <osmand:icon>public_bookcase</osmand:icon>
    </extensions>
  </wpt>
  <wpt lat="48.326412" lon="-4.245217">
    <time>2022-02-01T09:32:40Z</time>
    <name>Aurélie b8467</name>
    <desc>Installation fin 2021</desc>
    <type>BoiteLire Bretagne</type>
    <extensions>
      <osmand:address>Place de l église, bords de rive, 29460 Hopital-camfrout, France</osmand:address>
      <osmand:color>#ff5020</osmand:color>
      <osmand:background>square</osmand:background>
      <osmand:icon>public_bookcase</osmand:icon>
    </extensions>
  </wpt>
  <wpt lat="48.297193" lon="-4.224546">
    <time>2022-02-01T09:32:30Z</time>
    <name>Aurélie b8466</name>
    <desc>Située sous le porche, à proximité de l aire de jeux</desc>
    <type>BoiteLire Bretagne</type>
    <extensions>
      <osmand:address>Place de la chapelle lanvoy, 29460 Hanvec, France</osmand:address>
      <osmand:color>#ff5020</osmand:color>
      <osmand:background>square</osmand:background>
      <osmand:icon>public_bookcase</osmand:icon>
    </extensions>
  </wpt>
  <wpt lat="48.321279" lon="-4.299201">
    <time>2022-02-01T09:32:21Z</time>
    <name>Aurélie b8465</name>
    <desc>Près de la mairie, en forme de ruche</desc>
    <type>BoiteLire Bretagne</type>
    <extensions>
      <osmand:address>21 rue ar mor, 29460 Logonna-daoulas, France</osmand:address>
      <osmand:color>#ff5020</osmand:color>
      <osmand:background>square</osmand:background>
      <osmand:icon>public_bookcase</osmand:icon>
    </extensions>
  </wpt>
  <wpt lat="47.955394" lon="-4.360218">
    <time>2022-02-01T09:29:26Z</time>
    <name>Anne penel b8463</name>
    <desc>Boite communale sur la place principale</desc>
    <type>BoiteLire Bretagne</type>
    <extensions>
      <osmand:address>Parking rue de pont l abbé, 29710 Pouldreuzic, France</osmand:address>
      <osmand:color>#ff5020</osmand:color>
      <osmand:background>square</osmand:background>
      <osmand:icon>public_bookcase</osmand:icon>
    </extensions>
  </wpt>
  <wpt lat="47.545034" lon="-2.154699">
    <time>2022-01-17T17:14:12Z</time>
    <name>Goubaud b8446</name>
    <desc>Etagère située dans le sas d entrée de la médiathèque.</desc>
    <type>BoiteLire Bretagne</type>
    <extensions>
      <osmand:address>2 place du calvaire, 56130 Saint-dolay, France</osmand:address>
      <osmand:color>#ff5020</osmand:color>
      <osmand:background>square</osmand:background>
      <osmand:icon>public_bookcase</osmand:icon>
    </extensions>
  </wpt>
  <wpt lat="48.296501" lon="-4.182862">
    <time>2022-01-17T14:01:06Z</time>
    <name>Kathy b8440</name>
    <desc>Se situe dans une cabine téléphonique.</desc>
    <type>BoiteLire Bretagne</type>
    <extensions>
      <osmand:address>Quai quélen, 29590 Le faou, France</osmand:address>
      <osmand:color>#ff5020</osmand:color>
      <osmand:background>square</osmand:background>
      <osmand:icon>public_bookcase</osmand:icon>
    </extensions>
  </wpt>
  <wpt lat="48.090059" lon="-3.561236">
    <time>2022-01-10T09:33:58Z</time>
    <name>Boncorps b8428</name>
    <desc>Ancienne cabine telephonique à côté des toilettes publiques</desc>
    <type>BoiteLire Bretagne</type>
    <extensions>
      <osmand:address>Place de l eglise, 017 Saint xandre, France</osmand:address>
      <osmand:color>#ff5020</osmand:color>
      <osmand:background>square</osmand:background>
      <osmand:icon>public_bookcase</osmand:icon>
    </extensions>
  </wpt>
  <wpt lat="48.66528" lon="-4.065301">
    <time>2021-12-10T09:36:25Z</time>
    <name>Bibliza b8373</name>
    <desc>Frigo à livres</desc>
    <type>BoiteLire Bretagne</type>
    <extensions>
      <osmand:address>87 rue des lavoirs, 29250 Sibiril, France</osmand:address>
      <osmand:color>#ff5020</osmand:color>
      <osmand:background>square</osmand:background>
      <osmand:icon>public_bookcase</osmand:icon>
    </extensions>
  </wpt>
  <wpt lat="48.109902" lon="-1.398359">
    <time>2021-12-06T09:36:36Z</time>
    <name>Jml b8367</name>
    <desc>Rond point au bord de la vilaine</desc>
    <type>BoiteLire Bretagne</type>
    <extensions>
      <osmand:address>Rue de paris, 35220 Chateaubourg, France</osmand:address>
      <osmand:color>#ff5020</osmand:color>
      <osmand:background>square</osmand:background>
      <osmand:icon>public_bookcase</osmand:icon>
    </extensions>
  </wpt>
  <wpt lat="47.877186" lon="-3.562306">
    <time>2021-12-03T15:41:54Z</time>
    <name>Sonia le theof b8361</name>
    <desc></desc>
    <type>BoiteLire Bretagne</type>
    <extensions>
      <osmand:address>5 rue de kerglanchard, QUIMPERLE 29300, France</osmand:address>
      <osmand:color>#ff5020</osmand:color>
      <osmand:background>square</osmand:background>
      <osmand:icon>public_bookcase</osmand:icon>
    </extensions>
  </wpt>
  <wpt lat="47.992468" lon="-3.43162">
    <time>2021-12-03T15:41:32Z</time>
    <name>S le t-of b8359</name>
    <desc>Devant l école primaire,</desc>
    <type>BoiteLire Bretagne</type>
    <extensions>
      <osmand:address>Rue joseph le gallo, 56320 Meslan, France</osmand:address>
      <osmand:color>#ff5020</osmand:color>
      <osmand:background>square</osmand:background>
      <osmand:icon>public_bookcase</osmand:icon>
    </extensions>
  </wpt>
  <wpt lat="47.936875" lon="-3.477895">
    <time>2021-12-03T15:41:23Z</time>
    <name>S le t-of b8358</name>
    <desc>Derrière l église</desc>
    <type>BoiteLire Bretagne</type>
    <extensions>
      <osmand:address>Place de la mairie, 29310 Locunolé, France</osmand:address>
      <osmand:color>#ff5020</osmand:color>
      <osmand:background>square</osmand:background>
      <osmand:icon>public_bookcase</osmand:icon>
    </extensions>
  </wpt>
  <wpt lat="47.837001" lon="-4.176542">
    <time>2021-12-02T17:28:00Z</time>
    <name>Marie b8356</name>
    <desc>Au bureau du port</desc>
    <type>BoiteLire Bretagne</type>
    <extensions>
      <osmand:address>Port de plaisance, 29750 Loctudy, France</osmand:address>
      <osmand:color>#ff5020</osmand:color>
      <osmand:background>square</osmand:background>
      <osmand:icon>public_bookcase</osmand:icon>
    </extensions>
  </wpt>
  <wpt lat="47.803978" lon="-4.313324">
    <time>2021-11-30T10:19:09Z</time>
    <name>Jml b8340</name>
    <desc>A l entrée du manoir du ster</desc>
    <type>BoiteLire Bretagne</type>
    <extensions>
      <osmand:address>96 hent maner ar ster, 29760 Penmarc h, France</osmand:address>
      <osmand:color>#ff5020</osmand:color>
      <osmand:background>square</osmand:background>
      <osmand:icon>public_bookcase</osmand:icon>
    </extensions>
  </wpt>
  <wpt lat="48.574904" lon="-3.834238">
    <time>2021-11-24T15:30:11Z</time>
    <name>Jean-françois b8331</name>
    <desc>A côté de l entrée principale boîte blanche</desc>
    <type>BoiteLire Bretagne</type>
    <extensions>
      <osmand:address>École gambetta morlaix, 29800 Morlaix, France</osmand:address>
      <osmand:color>#ff5020</osmand:color>
      <osmand:background>square</osmand:background>
      <osmand:icon>public_bookcase</osmand:icon>
    </extensions>
  </wpt>
  <wpt lat="48.044938" lon="-1.603441">
    <time>2017-02-23T12:57:48Z</time>
    <name>Julie b833</name>
    <desc></desc>
    <type>BoiteLire Bretagne</type>
    <extensions>
      <osmand:address>Place de la poste, 35770 Vern sur seiche, France</osmand:address>
      <osmand:color>#ff5020</osmand:color>
      <osmand:background>square</osmand:background>
      <osmand:icon>public_bookcase</osmand:icon>
    </extensions>
  </wpt>
  <wpt lat="47.645969" lon="-2.087241">
    <time>2017-02-23T12:08:06Z</time>
    <name>Laetitia b825</name>
    <desc>La boite se situé juste devant le café du ciné manivel avec banc et espace public.</desc>
    <type>BoiteLire Bretagne</type>
    <extensions>
      <osmand:address>Place garnier, 35600 Redon, France</osmand:address>
      <osmand:color>#ff5020</osmand:color>
      <osmand:background>square</osmand:background>
      <osmand:icon>public_bookcase</osmand:icon>
    </extensions>
  </wpt>
  <wpt lat="47.646757" lon="-2.085612">
    <time>2017-02-23T12:06:14Z</time>
    <name>Laetitia b824</name>
    <desc>La boite se trouve juste auprès de la vilaine avec un banc pour se poser.</desc>
    <type>BoiteLire Bretagne</type>
    <extensions>
      <osmand:address>Quai duguay trouin, 35600 Redon , France</osmand:address>
      <osmand:color>#ff5020</osmand:color>
      <osmand:background>square</osmand:background>
      <osmand:icon>public_bookcase</osmand:icon>
    </extensions>
  </wpt>
  <wpt lat="48.628245" lon="-3.991707">
    <time>2021-10-18T17:27:42Z</time>
    <name>Jean-françois b8227</name>
    <desc>A côté de la boîte aux lettres de la poste</desc>
    <type>BoiteLire Bretagne</type>
    <extensions>
      <osmand:address>Poste de plouénan, 29420 Plouénan, France</osmand:address>
      <osmand:color>#ff5020</osmand:color>
      <osmand:background>square</osmand:background>
      <osmand:icon>public_bookcase</osmand:icon>
    </extensions>
  </wpt>
  <wpt lat="47.929778" lon="-1.939955">
    <time>2021-10-18T15:38:36Z</time>
    <name>Charlotte marcadé b8211</name>
    <desc>Boîte à lire installée sous le porche</desc>
    <type>BoiteLire Bretagne</type>
    <extensions>
      <osmand:address>37 rue de la mairie, 35330 La chapelle-bouëxic, France</osmand:address>
      <osmand:color>#ff5020</osmand:color>
      <osmand:background>square</osmand:background>
      <osmand:icon>public_bookcase</osmand:icon>
    </extensions>
  </wpt>
  <wpt lat="48.783819" lon="-3.255522">
    <time>2021-09-28T09:23:43Z</time>
    <name>Alice perron b8163</name>
    <desc>Située sur le mur de la mairie, à côté de la porte d entrée</desc>
    <type>BoiteLire Bretagne</type>
    <extensions>
      <osmand:address>Mairie plouguiel, 22220 Plouguiel, France</osmand:address>
      <osmand:color>#ff5020</osmand:color>
      <osmand:background>square</osmand:background>
      <osmand:icon>public_bookcase</osmand:icon>
    </extensions>
  </wpt>
  <wpt lat="48.605053" lon="-3.830908">
    <time>2021-09-27T11:43:40Z</time>
    <name>Guengant ghislain b8155</name>
    <desc>Cette cabane est mise à disposition par l association des parents d'élèves de l'école publique emile cloarec</desc>
    <type>BoiteLire Bretagne</type>
    <extensions>
      <osmand:address>Salle sociologie culturelle ploujean, 29600 29600, France</osmand:address>
      <osmand:color>#ff5020</osmand:color>
      <osmand:background>square</osmand:background>
      <osmand:icon>public_bookcase</osmand:icon>
    </extensions>
  </wpt>
  <wpt lat="48.366404" lon="-4.614048">
    <time>2021-09-27T11:38:02Z</time>
    <name>Mille colette b8146</name>
    <desc>Placée entre les arbres place du marché,face à la mer,dos ala boulangerie</desc>
    <type>BoiteLire Bretagne</type>
    <extensions>
      <osmand:address>Centre de vie, 29280 Plougonvelin, France</osmand:address>
      <osmand:color>#ff5020</osmand:color>
      <osmand:background>square</osmand:background>
      <osmand:icon>public_bookcase</osmand:icon>
    </extensions>
  </wpt>
  <wpt lat="48.468057" lon="-4.760841">
    <time>2021-09-27T10:25:19Z</time>
    <name>Mille colette b8144</name>
    <desc>2 cabine plage peintes bleu/blanc placées sur parking du bourg,derrier la salle des fetes</desc>
    <type>BoiteLire Bretagne</type>
    <extensions>
      <osmand:address>Parking place marché, 29810 Lampaul plouarzel, France</osmand:address>
      <osmand:color>#ff5020</osmand:color>
      <osmand:background>square</osmand:background>
      <osmand:icon>public_bookcase</osmand:icon>
    </extensions>
  </wpt>
  <wpt lat="48.532524" lon="-4.726839">
    <time>2021-09-27T10:25:05Z</time>
    <name>Mille colette b8143</name>
    <desc>Placée face à la mairie ,c est une cabine telephonique anglaise rouge</desc>
    <type>BoiteLire Bretagne</type>
    <extensions>
      <osmand:address>Mairie, 29840 Landunvez, France</osmand:address>
      <osmand:color>#ff5020</osmand:color>
      <osmand:background>square</osmand:background>
      <osmand:icon>public_bookcase</osmand:icon>
    </extensions>
  </wpt>
  <wpt lat="48.133337" lon="-1.533786">
    <time>2017-02-17T16:39:14Z</time>
    <name>Charlotte b811</name>
    <desc>Boite à lire construite sur la place de la mairie</desc>
    <type>BoiteLire Bretagne</type>
    <extensions>
      <osmand:address>Place de la mairie, 35690 Acigné, France</osmand:address>
      <osmand:color>#ff5020</osmand:color>
      <osmand:background>square</osmand:background>
      <osmand:icon>public_bookcase</osmand:icon>
    </extensions>
  </wpt>
  <wpt lat="47.558285" lon="-2.907953">
    <time>2021-09-09T15:05:59Z</time>
    <name>Boite à lire 49 b8109</name>
    <desc>La boite à lire les amis du monteno se trouve à l angle de la rue des pêcheurs et de la rue du port douar</desc>
    <type>BoiteLire Bretagne</type>
    <extensions>
      <osmand:address>Rue du port douar, 56640 Arzon, France</osmand:address>
      <osmand:color>#ff5020</osmand:color>
      <osmand:background>square</osmand:background>
      <osmand:icon>public_bookcase</osmand:icon>
    </extensions>
  </wpt>
  <wpt lat="48.120228" lon="-1.699591">
    <time>2017-02-17T15:04:49Z</time>
    <name>Françoise b810</name>
    <desc>La boite se situe à l'accueil de l'etablissement français du sang villejean.</desc>
    <type>BoiteLire Bretagne</type>
    <extensions>
      <osmand:address>Rue pierre jean gineste, 35000 Rennes, France</osmand:address>
      <osmand:color>#ff5020</osmand:color>
      <osmand:background>square</osmand:background>
      <osmand:icon>public_bookcase</osmand:icon>
    </extensions>
  </wpt>
  <wpt lat="48.563712" lon="-3.156444">
    <time>2021-08-27T15:07:53Z</time>
    <name>Bruno b8025</name>
    <desc>Cabane à dons dans laquelle on peut trouver des livres, des vêtements, des chaussures, des sacs, des petits objets, plein de choses que partagent les personnes</desc>
    <type>BoiteLire Bretagne</type>
    <extensions>
      <osmand:address>Place saint-sauveur, 22200 Guingamp, France</osmand:address>
      <osmand:color>#ff5020</osmand:color>
      <osmand:background>square</osmand:background>
      <osmand:icon>public_bookcase</osmand:icon>
    </extensions>
  </wpt>
  <wpt lat="48.481028" lon="-2.168672">
    <time>2021-08-12T12:19:03Z</time>
    <name>Bastide b7983</name>
    <desc></desc>
    <type>BoiteLire Bretagne</type>
    <extensions>
      <osmand:address>Place de l eglise, 22130 Corseul, France</osmand:address>
      <osmand:color>#ff5020</osmand:color>
      <osmand:background>square</osmand:background>
      <osmand:icon>public_bookcase</osmand:icon>
    </extensions>
  </wpt>
  <wpt lat="47.527614" lon="-2.766355">
    <time>2021-08-10T09:23:19Z</time>
    <name>Mouton1712 b7973</name>
    <desc>Dans les jardins lesage</desc>
    <type>BoiteLire Bretagne</type>
    <extensions>
      <osmand:address>Rue saint-vincent, 56370 Sarzeau, France</osmand:address>
      <osmand:color>#ff5020</osmand:color>
      <osmand:background>square</osmand:background>
      <osmand:icon>public_bookcase</osmand:icon>
    </extensions>
  </wpt>
  <wpt lat="47.52945" lon="-2.773265">
    <time>2021-08-10T09:23:07Z</time>
    <name>Mouton1712 b7972</name>
    <desc>Sur le domaine de la pépiterre, devant l?entrée de la boutique</desc>
    <type>BoiteLire Bretagne</type>
    <extensions>
      <osmand:address>Rue du bindo, 56370 Sarzeau, France</osmand:address>
      <osmand:color>#ff5020</osmand:color>
      <osmand:background>square</osmand:background>
      <osmand:icon>public_bookcase</osmand:icon>
    </extensions>
  </wpt>
  <wpt lat="48.515383" lon="-1.899541">
    <time>2021-08-10T09:22:42Z</time>
    <name>Anouk b7970</name>
    <desc>Dans l ancienne cabine téléphonique sur le parking près de la mairie</desc>
    <type>BoiteLire Bretagne</type>
    <extensions>
      <osmand:address>1 place de la mairie, 35540 Plerguer, France</osmand:address>
      <osmand:color>#ff5020</osmand:color>
      <osmand:background>square</osmand:background>
      <osmand:icon>public_bookcase</osmand:icon>
    </extensions>
  </wpt>
  <wpt lat="47.651938" lon="-2.744024">
    <time>2021-08-06T10:10:03Z</time>
    <name>Didier b7932</name>
    <desc></desc>
    <type>BoiteLire Bretagne</type>
    <extensions>
      <osmand:address>3 l allée jaqueline auriol, 56000 Vannes, France</osmand:address>
      <osmand:color>#ff5020</osmand:color>
      <osmand:background>square</osmand:background>
      <osmand:icon>public_bookcase</osmand:icon>
    </extensions>
  </wpt>
  <wpt lat="48.689021" lon="-3.964615">
    <time>2021-08-04T12:21:04Z</time>
    <name>Lauren deniel b7922</name>
    <desc>Plage sainte- anne promenade de penharth</desc>
    <type>BoiteLire Bretagne</type>
    <extensions>
      <osmand:address>Plage sainte- anne promenade de penharth, 29250 Saint pol de leon, France</osmand:address>
      <osmand:color>#ff5020</osmand:color>
      <osmand:background>square</osmand:background>
      <osmand:icon>public_bookcase</osmand:icon>
    </extensions>
  </wpt>
  <wpt lat="48.576774" lon="-3.00292">
    <time>2021-08-04T09:09:07Z</time>
    <name>Céline b7917</name>
    <desc></desc>
    <type>BoiteLire Bretagne</type>
    <extensions>
      <osmand:address>Près de l église, 22170 Saint jean kerdaniel, France</osmand:address>
      <osmand:color>#ff5020</osmand:color>
      <osmand:background>square</osmand:background>
      <osmand:icon>public_bookcase</osmand:icon>
    </extensions>
  </wpt>
  <wpt lat="48.466122" lon="-4.264195">
    <time>2021-08-02T12:58:18Z</time>
    <name>Aurélie b7906</name>
    <desc>À droite de l entrée due l'hypermarché</desc>
    <type>BoiteLire Bretagne</type>
    <extensions>
      <osmand:address>E. leclerc, 29800 Landerneau, France</osmand:address>
      <osmand:color>#ff5020</osmand:color>
      <osmand:background>square</osmand:background>
      <osmand:icon>public_bookcase</osmand:icon>
    </extensions>
  </wpt>
  <wpt lat="48.593864" lon="-4.137754">
    <time>2021-07-30T11:18:16Z</time>
    <name>Sophie b7882</name>
    <desc>Sous le porche de la mairie.</desc>
    <type>BoiteLire Bretagne</type>
    <extensions>
      <osmand:address>1 route de plouescat, 29440 Saint-vougay, France</osmand:address>
      <osmand:color>#ff5020</osmand:color>
      <osmand:background>square</osmand:background>
      <osmand:icon>public_bookcase</osmand:icon>
    </extensions>
  </wpt>
  <wpt lat="48.177403" lon="-2.754686">
    <time>2021-07-28T17:05:21Z</time>
    <name>Samantha b7873</name>
    <desc>Elle se trouve près de la poste.</desc>
    <type>BoiteLire Bretagne</type>
    <extensions>
      <osmand:address>3 avenue des combattants, 22600 Loudéac, France</osmand:address>
      <osmand:color>#ff5020</osmand:color>
      <osmand:background>square</osmand:background>
      <osmand:icon>public_bookcase</osmand:icon>
    </extensions>
  </wpt>
  <wpt lat="48.235912" lon="-2.733439">
    <time>2021-07-28T17:05:09Z</time>
    <name>Samantha b7872</name>
    <desc>C est une cabine à livre située près de la mairie et trouvable via google maps.</desc>
    <type>BoiteLire Bretagne</type>
    <extensions>
      <osmand:address>Place de la mairie, 22600 La motte, France</osmand:address>
      <osmand:color>#ff5020</osmand:color>
      <osmand:background>square</osmand:background>
      <osmand:icon>public_bookcase</osmand:icon>
    </extensions>
  </wpt>
  <wpt lat="48.726508" lon="-3.985767">
    <time>2021-07-28T17:04:36Z</time>
    <name>Jean-françois b7870</name>
    <desc>Petite boite en bois</desc>
    <type>BoiteLire Bretagne</type>
    <extensions>
      <osmand:address>Derrière l église notre dame de croaz batz, 29680 Roscoff, France</osmand:address>
      <osmand:color>#ff5020</osmand:color>
      <osmand:background>square</osmand:background>
      <osmand:icon>public_bookcase</osmand:icon>
    </extensions>
  </wpt>
  <wpt lat="48.617226" lon="-4.21186">
    <time>2021-07-27T10:09:45Z</time>
    <name>Sophie b7861</name>
    <desc>Dans le hall d entrée de la bibliothèque.</desc>
    <type>BoiteLire Bretagne</type>
    <extensions>
      <osmand:address>7 place de la mairie, 29430 Plounevez-lochrist, France</osmand:address>
      <osmand:color>#ff5020</osmand:color>
      <osmand:background>square</osmand:background>
      <osmand:icon>public_bookcase</osmand:icon>
    </extensions>
  </wpt>
  <wpt lat="48.069979" lon="-2.993195">
    <time>2021-07-26T15:22:46Z</time>
    <name>Mel b7860</name>
    <desc>Poser sur le muret d une maison</desc>
    <type>BoiteLire Bretagne</type>
    <extensions>
      <osmand:address>21 rue prad morgard, 56300 Pontivy, France</osmand:address>
      <osmand:color>#ff5020</osmand:color>
      <osmand:background>square</osmand:background>
      <osmand:icon>public_bookcase</osmand:icon>
    </extensions>
  </wpt>
  <wpt lat="47.864631" lon="-2.941529">
    <time>2021-07-26T15:21:31Z</time>
    <name>Emmanuelle b7855</name>
    <desc>La chapelle neuve</desc>
    <type>BoiteLire Bretagne</type>
    <extensions>
      <osmand:address>Manu.cap@laposte.net, 56500 La chapelle neuve, France</osmand:address>
      <osmand:color>#ff5020</osmand:color>
      <osmand:background>square</osmand:background>
      <osmand:icon>public_bookcase</osmand:icon>
    </extensions>
  </wpt>
  <wpt lat="48.595539" lon="-4.115109">
    <time>2021-07-26T15:18:53Z</time>
    <name>Sophie b7842</name>
    <desc>Sur le parking entre l église et la mairie.</desc>
    <type>BoiteLire Bretagne</type>
    <extensions>
      <osmand:address>Rue de la mairie, 29440 Plouzevede, France</osmand:address>
      <osmand:color>#ff5020</osmand:color>
      <osmand:background>square</osmand:background>
      <osmand:icon>public_bookcase</osmand:icon>
    </extensions>
  </wpt>
  <wpt lat="48.682235" lon="-3.98636">
    <time>2021-07-26T15:18:46Z</time>
    <name>Sophie b7841</name>
    <desc>Adossée au cinéma le majestic.</desc>
    <type>BoiteLire Bretagne</type>
    <extensions>
      <osmand:address>Place michel colombe, 29250 Saint-pol de leon, France</osmand:address>
      <osmand:color>#ff5020</osmand:color>
      <osmand:background>square</osmand:background>
      <osmand:icon>public_bookcase</osmand:icon>
    </extensions>
  </wpt>
  <wpt lat="48.118406" lon="-1.680947">
    <time>2017-01-23T10:25:45Z</time>
    <name>Victor b781</name>
    <desc>La boite est proche du carrefour contact.</desc>
    <type>BoiteLire Bretagne</type>
    <extensions>
      <osmand:address>square de la rance, 35000 Rennes, France</osmand:address>
      <osmand:color>#ff5020</osmand:color>
      <osmand:background>square</osmand:background>
      <osmand:icon>public_bookcase</osmand:icon>
    </extensions>
  </wpt>
  <wpt lat="47.58308" lon="-2.632668">
    <time>2021-07-23T15:30:04Z</time>
    <name>Cathy p b7807</name>
    <desc>A l entrée de l'aire de camping car allee du petit train</desc>
    <type>BoiteLire Bretagne</type>
    <extensions>
      <osmand:address>Aire de lann floren, 56450 Surzur, France</osmand:address>
      <osmand:color>#ff5020</osmand:color>
      <osmand:background>square</osmand:background>
      <osmand:icon>public_bookcase</osmand:icon>
    </extensions>
  </wpt>
  <wpt lat="48.10601" lon="-4.187756">
    <time>2021-07-23T15:29:53Z</time>
    <name>Erwan b7806</name>
    <desc>Sur le bord de la départementale entre kergoat et locronan</desc>
    <type>BoiteLire Bretagne</type>
    <extensions>
      <osmand:address>Bourland, 29180 Locronan, France</osmand:address>
      <osmand:color>#ff5020</osmand:color>
      <osmand:background>square</osmand:background>
      <osmand:icon>public_bookcase</osmand:icon>
    </extensions>
  </wpt>
  <wpt lat="47.557086" lon="-2.907324">
    <time>2021-07-20T18:27:20Z</time>
    <name>Cathy p b7777</name>
    <desc>A l angle de la rue du port douar a monteno</desc>
    <type>BoiteLire Bretagne</type>
    <extensions>
      <osmand:address>Rue des pêcheurs, 56640 Monteno arzon, France</osmand:address>
      <osmand:color>#ff5020</osmand:color>
      <osmand:background>square</osmand:background>
      <osmand:icon>public_bookcase</osmand:icon>
    </extensions>
  </wpt>
  <wpt lat="48.487458" lon="-3.998834">
    <time>2021-07-13T10:27:59Z</time>
    <name>Jean françois b7756</name>
    <desc>Sous les arbres de la place de la mairie de guimiliau</desc>
    <type>BoiteLire Bretagne</type>
    <extensions>
      <osmand:address>Place de la mairie, 29074 Guimiliau, France</osmand:address>
      <osmand:color>#ff5020</osmand:color>
      <osmand:background>square</osmand:background>
      <osmand:icon>public_bookcase</osmand:icon>
    </extensions>
  </wpt>
  <wpt lat="48.001368" lon="-1.775519">
    <time>2017-01-16T10:34:56Z</time>
    <name>Médiathèque de guichen b771</name>
    <desc>Le livre voyageur : n hésitez pas à prendre un livre, le lire, et / ou déposer un livre. echangeons des livres librement et gratuitement dans la boîte à livres.</desc>
    <type>BoiteLire Bretagne</type>
    <extensions>
      <osmand:address>81 rue de redon, 35580 Guichen, France</osmand:address>
      <osmand:color>#ff5020</osmand:color>
      <osmand:background>square</osmand:background>
      <osmand:icon>public_bookcase</osmand:icon>
    </extensions>
  </wpt>
  <wpt lat="47.995548" lon="-3.393336">
    <time>2021-06-17T15:25:35Z</time>
    <name>Chauvin fabrice b7642</name>
    <desc></desc>
    <type>BoiteLire Bretagne</type>
    <extensions>
      <osmand:address>Place de la mairie, 56240 Berné, France</osmand:address>
      <osmand:color>#ff5020</osmand:color>
      <osmand:background>square</osmand:background>
      <osmand:icon>public_bookcase</osmand:icon>
    </extensions>
  </wpt>
  <wpt lat="48.727129" lon="-3.986069">
    <time>2021-06-17T15:25:17Z</time>
    <name>David martin b7641</name>
    <desc></desc>
    <type>BoiteLire Bretagne</type>
    <extensions>
      <osmand:address>Place lacaze -dthiers, 29680 Roscoff, France</osmand:address>
      <osmand:color>#ff5020</osmand:color>
      <osmand:background>square</osmand:background>
      <osmand:icon>public_bookcase</osmand:icon>
    </extensions>
  </wpt>
  <wpt lat="48.749184" lon="-2.983702">
    <time>2021-06-07T10:34:25Z</time>
    <name>Gwendoline b7600</name>
    <desc></desc>
    <type>BoiteLire Bretagne</type>
    <extensions>
      <osmand:address>Place de l eglise, 22470 Plouezec, France</osmand:address>
      <osmand:color>#ff5020</osmand:color>
      <osmand:background>square</osmand:background>
      <osmand:icon>public_bookcase</osmand:icon>
    </extensions>
  </wpt>
  <wpt lat="48.845831" lon="-3.000633">
    <time>2021-06-04T10:10:11Z</time>
    <name>Barranger catherine b7595</name>
    <desc></desc>
    <type>BoiteLire Bretagne</type>
    <extensions>
      <osmand:address>Place du bourg, 22870 Ile de bréhat, France</osmand:address>
      <osmand:color>#ff5020</osmand:color>
      <osmand:background>square</osmand:background>
      <osmand:icon>public_bookcase</osmand:icon>
    </extensions>
  </wpt>
  <wpt lat="48.65182" lon="-2.837661">
    <time>2017-01-13T10:15:04Z</time>
    <name>Isabelle b759</name>
    <desc>Une fresque et un décor sublime pour y déposer des livres !</desc>
    <type>BoiteLire Bretagne</type>
    <extensions>
      <osmand:address>Parc de la duchesse anne, 22410 Saint-quay-portrieux, France</osmand:address>
      <osmand:color>#ff5020</osmand:color>
      <osmand:background>square</osmand:background>
      <osmand:icon>public_bookcase</osmand:icon>
    </extensions>
  </wpt>
  <wpt lat="48.730631" lon="-3.46034">
    <time>2021-05-28T13:59:48Z</time>
    <name>Mag b7563</name>
    <desc></desc>
    <type>BoiteLire Bretagne</type>
    <extensions>
      <osmand:address>Pont sainte anne, 22300 Lannion, France</osmand:address>
      <osmand:color>#ff5020</osmand:color>
      <osmand:background>square</osmand:background>
      <osmand:icon>public_bookcase</osmand:icon>
    </extensions>
  </wpt>
  <wpt lat="48.612303" lon="-3.473275">
    <time>2021-05-25T12:32:48Z</time>
    <name>Amélie b7544</name>
    <desc>Boite à livre sous l abri bus, en face de l'église, place du marché.</desc>
    <type>BoiteLire Bretagne</type>
    <extensions>
      <osmand:address>Place de l église, 22420 Le vieux marché, France</osmand:address>
      <osmand:color>#ff5020</osmand:color>
      <osmand:background>square</osmand:background>
      <osmand:icon>public_bookcase</osmand:icon>
    </extensions>
  </wpt>
  <wpt lat="47.761472" lon="-3.385567">
    <time>2021-05-25T12:32:12Z</time>
    <name>Melann couëdel b7543</name>
    <desc>La boîte à lire se situe à proximité du square pour enfants.</desc>
    <type>BoiteLire Bretagne</type>
    <extensions>
      <osmand:address>Place de la liberté, 56100 Lorient, France</osmand:address>
      <osmand:color>#ff5020</osmand:color>
      <osmand:background>square</osmand:background>
      <osmand:icon>public_bookcase</osmand:icon>
    </extensions>
  </wpt>
  <wpt lat="47.656537" lon="-2.866126">
    <time>2021-04-27T09:32:13Z</time>
    <name>cécile hamard b7429</name>
    <desc>Bibliothèque de rue avec des livres en libre service dans le petit parc de la place de la mairie</desc>
    <type>BoiteLire Bretagne</type>
    <extensions>
      <osmand:address>Place de la mairie, 56880 Ploeren, France</osmand:address>
      <osmand:color>#ff5020</osmand:color>
      <osmand:background>square</osmand:background>
      <osmand:icon>public_bookcase</osmand:icon>
    </extensions>
  </wpt>
  <wpt lat="48.402246" lon="-1.325636">
    <time>2021-04-23T15:32:05Z</time>
    <name>béa b7412</name>
    <desc>Aire de jeux après la pharmacie</desc>
    <type>BoiteLire Bretagne</type>
    <extensions>
      <osmand:address>aire de jeux des charmilles, 35460 st etienne en cogles, France</osmand:address>
      <osmand:color>#ff5020</osmand:color>
      <osmand:background>square</osmand:background>
      <osmand:icon>public_bookcase</osmand:icon>
    </extensions>
  </wpt>
  <wpt lat="48.209666" lon="-1.630318">
    <time></time>
    <name>Biblothèque de chevaigné b740</name>
    <desc>La bibliothèque de chevaigné a choisi de déposer de petites boites à livres dans divers lieux de rencontre de chevaigné: cécilia coiffure et le club de l amitié sont les deux premiers points.</desc>
    <type>BoiteLire Bretagne</type>
    <extensions>
      <osmand:address>18 rue d'lle et rance, 35250 Chevaigné, France</osmand:address>
      <osmand:color>#ff5020</osmand:color>
      <osmand:background>square</osmand:background>
      <osmand:icon>public_bookcase</osmand:icon>
    </extensions>
  </wpt>
  <wpt lat="48.411044" lon="-1.362836">
    <time>2021-04-22T10:46:12Z</time>
    <name>béa b7394</name>
    <desc>Sur le mur de l aire</desc>
    <type>BoiteLire Bretagne</type>
    <extensions>
      <osmand:address>aire des campings cars, 35460 St brice en cogles, France</osmand:address>
      <osmand:color>#ff5020</osmand:color>
      <osmand:background>square</osmand:background>
      <osmand:icon>public_bookcase</osmand:icon>
    </extensions>
  </wpt>
  <wpt lat="48.402809" lon="-1.325402">
    <time>2021-04-22T10:45:34Z</time>
    <name>béa b7393</name>
    <desc>Entre la crêperie et la boucherie</desc>
    <type>BoiteLire Bretagne</type>
    <extensions>
      <osmand:address>Place de l église, 35460 St brice en cogles, France</osmand:address>
      <osmand:color>#ff5020</osmand:color>
      <osmand:background>square</osmand:background>
      <osmand:icon>public_bookcase</osmand:icon>
    </extensions>
  </wpt>
  <wpt lat="48.674341" lon="-1.852627">
    <time>2021-04-19T10:42:45Z</time>
    <name>Laulau b7388</name>
    <desc>Entre la mairie de cancale et la salle omnisports</desc>
    <type>BoiteLire Bretagne</type>
    <extensions>
      <osmand:address>Rue du port, 35260 Cancale, France</osmand:address>
      <osmand:color>#ff5020</osmand:color>
      <osmand:background>square</osmand:background>
      <osmand:icon>public_bookcase</osmand:icon>
    </extensions>
  </wpt>
  <wpt lat="48.130352" lon="-1.21164">
    <time>2021-04-19T10:41:13Z</time>
    <name>nayik b7385</name>
    <desc>La boite à livres se situe tout au fond de la rue , sur le terre-plein central.</desc>
    <type>BoiteLire Bretagne</type>
    <extensions>
      <osmand:address>Rue de la ville en pierre, 35500 Vitré, France</osmand:address>
      <osmand:color>#ff5020</osmand:color>
      <osmand:background>square</osmand:background>
      <osmand:icon>public_bookcase</osmand:icon>
    </extensions>
  </wpt>
  <wpt lat="48.15149" lon="-1.237311">
    <time>2021-04-19T10:38:34Z</time>
    <name>Nayik b7383</name>
    <desc>Cabane à livres adossée à la bibliothèque sur la place communale</desc>
    <type>BoiteLire Bretagne</type>
    <extensions>
      <osmand:address>Rue abbée pierre leroy, 35500 Montreuil sous pérouse, France</osmand:address>
      <osmand:color>#ff5020</osmand:color>
      <osmand:background>square</osmand:background>
      <osmand:icon>public_bookcase</osmand:icon>
    </extensions>
  </wpt>
  <wpt lat="48.577734" lon="-2.139694">
    <time>2021-03-09T14:22:01Z</time>
    <name>Collet b7308</name>
    <desc>Dans une ancienne cabine téléphonique</desc>
    <type>BoiteLire Bretagne</type>
    <extensions>
      <osmand:address>Rue ernest rouxel, 22650 22650 beaussais-sur-mer, France</osmand:address>
      <osmand:color>#ff5020</osmand:color>
      <osmand:background>square</osmand:background>
      <osmand:icon>public_bookcase</osmand:icon>
    </extensions>
  </wpt>
  <wpt lat="47.955164" lon="-4.171965">
    <time>2021-03-01T09:01:38Z</time>
    <name>Marco b7271</name>
    <desc>Parking de l espace salvador allende</desc>
    <type>BoiteLire Bretagne</type>
    <extensions>
      <osmand:address>Pluguffan, 29700 Pluguffan, France</osmand:address>
      <osmand:color>#ff5020</osmand:color>
      <osmand:background>square</osmand:background>
      <osmand:icon>public_bookcase</osmand:icon>
    </extensions>
  </wpt>
  <wpt lat="48.02214" lon="-4.50121">
    <time>2021-02-25T15:42:53Z</time>
    <name>Marco b7267</name>
    <desc>Installée à l entrée du parking de l'office du tourisme</desc>
    <type>BoiteLire Bretagne</type>
    <extensions>
      <osmand:address>Nutellafrites@gmail.com, 29780 Plouhinec, France</osmand:address>
      <osmand:color>#ff5020</osmand:color>
      <osmand:background>square</osmand:background>
      <osmand:icon>public_bookcase</osmand:icon>
    </extensions>
  </wpt>
  <wpt lat="48.024744" lon="-4.562468">
    <time>2021-02-25T15:42:31Z</time>
    <name>Marco b7265</name>
    <desc></desc>
    <type>BoiteLire Bretagne</type>
    <extensions>
      <osmand:address>Nutellafrites@gmail.com, 29770 Audierne, France</osmand:address>
      <osmand:color>#ff5020</osmand:color>
      <osmand:background>square</osmand:background>
      <osmand:icon>public_bookcase</osmand:icon>
    </extensions>
  </wpt>
  <wpt lat="47.988036" lon="-4.425302">
    <time>2021-02-25T15:41:54Z</time>
    <name>Marco b7262</name>
    <desc>A côté de l entrée de l'école publique georges le bail ancienne cabine téléphonique anglaise rouge fermée par la commune cause covid pourtant pas plus dangereux que d'aller chercher une boîte de conserve dans une grande surface je relance la mairie pour une réouverture rapidement</desc>
    <type>BoiteLire Bretagne</type>
    <extensions>
      <osmand:address>Nutellafrites@gmail.com, 29710 Plozevet, France</osmand:address>
      <osmand:color>#ff5020</osmand:color>
      <osmand:background>square</osmand:background>
      <osmand:icon>public_bookcase</osmand:icon>
    </extensions>
  </wpt>
  <wpt lat="48.079739" lon="-1.306428">
    <time>2021-02-22T15:16:25Z</time>
    <name>Laura b7252</name>
    <desc>Sur la place devant le bar en face l église de cornille</desc>
    <type>BoiteLire Bretagne</type>
    <extensions>
      <osmand:address>Place de l église, 35500 Cornillé, France</osmand:address>
      <osmand:color>#ff5020</osmand:color>
      <osmand:background>square</osmand:background>
      <osmand:icon>public_bookcase</osmand:icon>
    </extensions>
  </wpt>
  <wpt lat="47.841491" lon="-4.282737">
    <time>2021-02-08T12:58:24Z</time>
    <name>Marco b7197</name>
    <desc>Sur le parking de la mairie</desc>
    <type>BoiteLire Bretagne</type>
    <extensions>
      <osmand:address>Place de la mairie, 29120 Tremeoc, France</osmand:address>
      <osmand:color>#ff5020</osmand:color>
      <osmand:background>square</osmand:background>
      <osmand:icon>public_bookcase</osmand:icon>
    </extensions>
  </wpt>
  <wpt lat="48.694426" lon="-4.052261">
    <time>2021-02-05T10:10:19Z</time>
    <name>Jeanney b7189</name>
    <desc>à l entrée de la rue menant à la plage du dossen!</desc>
    <type>BoiteLire Bretagne</type>
    <extensions>
      <osmand:address>87 chemin de la forêt, 29250 Santec, France</osmand:address>
      <osmand:color>#ff5020</osmand:color>
      <osmand:background>square</osmand:background>
      <osmand:icon>public_bookcase</osmand:icon>
    </extensions>
  </wpt>
  <wpt lat="48.639603" lon="-1.904399">
    <time>2021-02-05T10:09:58Z</time>
    <name>Lucie b7187</name>
    <desc>A côté de l arrêt de bus la main d'argent"</desc>
    <type>BoiteLire Bretagne</type>
    <extensions>
      <osmand:address>Rue de la main d argent, 35350 Saint-méloir-des-ondes, France</osmand:address>
      <osmand:color>#ff5020</osmand:color>
      <osmand:background>square</osmand:background>
      <osmand:icon>public_bookcase</osmand:icon>
    </extensions>
  </wpt>
  <wpt lat="48.637112" lon="-1.905601">
    <time>2021-02-05T10:09:31Z</time>
    <name>Lucie b7186</name>
    <desc>Sur la place, côté habitations</desc>
    <type>BoiteLire Bretagne</type>
    <extensions>
      <osmand:address>Place du marché au cadran, 35350 Saint-méloir-des-ondes, France</osmand:address>
      <osmand:color>#ff5020</osmand:color>
      <osmand:background>square</osmand:background>
      <osmand:icon>public_bookcase</osmand:icon>
    </extensions>
  </wpt>
  <wpt lat="47.920394" lon="-2.818">
    <time>2021-01-25T09:17:04Z</time>
    <name>Nonoldkm b7143</name>
    <desc>à l entrée du plan d'eau</desc>
    <type>BoiteLire Bretagne</type>
    <extensions>
      <osmand:address>Résidence des ajoncs, 56500 Moréac, France</osmand:address>
      <osmand:color>#ff5020</osmand:color>
      <osmand:background>square</osmand:background>
      <osmand:icon>public_bookcase</osmand:icon>
    </extensions>
  </wpt>
  <wpt lat="48.812297" lon="-3.295555">
    <time>2021-01-06T11:15:16Z</time>
    <name>Renoult b7095</name>
    <desc></desc>
    <type>BoiteLire Bretagne</type>
    <extensions>
      <osmand:address>Eglise, 22710 Penvenan, France</osmand:address>
      <osmand:color>#ff5020</osmand:color>
      <osmand:background>square</osmand:background>
      <osmand:icon>public_bookcase</osmand:icon>
    </extensions>
  </wpt>
  <wpt lat="48.070092" lon="-1.28329">
    <time>2020-12-07T15:40:37Z</time>
    <name>Laura b7016</name>
    <desc>Sur le parking de la fleuriste</desc>
    <type>BoiteLire Bretagne</type>
    <extensions>
      <osmand:address>Les 4 chemins, 35370 Torce, France</osmand:address>
      <osmand:color>#ff5020</osmand:color>
      <osmand:background>square</osmand:background>
      <osmand:icon>public_bookcase</osmand:icon>
    </extensions>
  </wpt>
  <wpt lat="48.605057" lon="-2.033157">
    <time>2021-01-05T09:26:02Z</time>
    <name>Vincent b7012</name>
    <desc>Cette boite à lire est situé sur le parking juste en face de la pharmacie de la richardais.</desc>
    <type>BoiteLire Bretagne</type>
    <extensions>
      <osmand:address>48.60508092185661, -2.0331326430120935, 35780 La richardais, France</osmand:address>
      <osmand:color>#ff5020</osmand:color>
      <osmand:background>square</osmand:background>
      <osmand:icon>public_bookcase</osmand:icon>
    </extensions>
  </wpt>
  <wpt lat="48.115669" lon="-4.123177">
    <time>2020-12-01T15:56:41Z</time>
    <name>Torillec b7011</name>
    <desc>2 boites a livres sur la commune. une troisieme en projet</desc>
    <type>BoiteLire Bretagne</type>
    <extensions>
      <osmand:address>8 rue de la gare du nord route de quimper, 29180 Quemeneven, France</osmand:address>
      <osmand:color>#ff5020</osmand:color>
      <osmand:background>square</osmand:background>
      <osmand:icon>public_bookcase</osmand:icon>
    </extensions>
  </wpt>
  <wpt lat="47.916953" lon="-4.363549">
    <time>2020-11-30T15:45:53Z</time>
    <name>Yoc h b7009</name>
    <desc>Derrière l église il y a un jardin public, devant ce jardin un petit parking, et dans l'angle à droite une ancienne cabine téléphonique bien équipée de livres...</desc>
    <type>BoiteLire Bretagne</type>
    <extensions>
      <osmand:address>Ancienne cabine téléphonique, entrée du jardin public derrière l église, 29720 Plovan, France</osmand:address>
      <osmand:color>#ff5020</osmand:color>
      <osmand:background>square</osmand:background>
      <osmand:icon>public_bookcase</osmand:icon>
    </extensions>
  </wpt>
  <wpt lat="48.057138" lon="-1.524504">
    <time>2020-11-30T15:41:48Z</time>
    <name>Nicolas b6996</name>
    <desc>Située devant le cabinet de kinésithérapie et d orthophonie</desc>
    <type>BoiteLire Bretagne</type>
    <extensions>
      <osmand:address>28, avenue charles de gaulle, 35410 Domloup, France</osmand:address>
      <osmand:color>#ff5020</osmand:color>
      <osmand:background>square</osmand:background>
      <osmand:icon>public_bookcase</osmand:icon>
    </extensions>
  </wpt>
  <wpt lat="48.521822" lon="-2.731597">
    <time>2020-11-30T15:40:19Z</time>
    <name>Noemie b6994</name>
    <desc>La boîte aux livres se situe en face du parking du super u cesson dans le petit square.</desc>
    <type>BoiteLire Bretagne</type>
    <extensions>
      <osmand:address>Rue champlain, 22000 St brieuc, France</osmand:address>
      <osmand:color>#ff5020</osmand:color>
      <osmand:background>square</osmand:background>
      <osmand:icon>public_bookcase</osmand:icon>
    </extensions>
  </wpt>
  <wpt lat="48.185101" lon="-2.19348">
    <time>2020-11-30T15:39:51Z</time>
    <name>Christian dahm b6992</name>
    <desc>Parking office de tourisme 5 rue de gaël</desc>
    <type>BoiteLire Bretagne</type>
    <extensions>
      <osmand:address>5 rue de gaël, 35290 Saint méen le grand, France</osmand:address>
      <osmand:color>#ff5020</osmand:color>
      <osmand:background>square</osmand:background>
      <osmand:icon>public_bookcase</osmand:icon>
    </extensions>
  </wpt>
  <wpt lat="47.336421" lon="-3.181043">
    <time>2020-11-30T15:39:23Z</time>
    <name>Marie dufeutrel b6991</name>
    <desc>à l entée du parking d'intermarché, rue de belle Île, au port de lomener. 562700 ploemeur</desc>
    <type>BoiteLire Bretagne</type>
    <extensions>
      <osmand:address>Rue de belle Île, LA ROBINE S 04000, France</osmand:address>
      <osmand:color>#ff5020</osmand:color>
      <osmand:background>square</osmand:background>
      <osmand:icon>public_bookcase</osmand:icon>
    </extensions>
  </wpt>
  <wpt lat="48.387017" lon="-4.39391">
    <time>2020-11-16T08:15:14Z</time>
    <name>Stéphane b6938</name>
    <desc>Ancienne cabine téléphonique</desc>
    <type>BoiteLire Bretagne</type>
    <extensions>
      <osmand:address>Centre nautique chemin du bord de mer, 29470 Plougastel daoulas, France</osmand:address>
      <osmand:color>#ff5020</osmand:color>
      <osmand:background>square</osmand:background>
      <osmand:icon>public_bookcase</osmand:icon>
    </extensions>
  </wpt>
  <wpt lat="47.997289" lon="-4.100075">
    <time>2020-11-12T16:01:17Z</time>
    <name>Sarah b6918</name>
    <desc>Se trouve sur le trottoir, devant le rempart.</desc>
    <type>BoiteLire Bretagne</type>
    <extensions>
      <osmand:address>Place alexandre massé, 29000 Quimper, France</osmand:address>
      <osmand:color>#ff5020</osmand:color>
      <osmand:background>square</osmand:background>
      <osmand:icon>public_bookcase</osmand:icon>
    </extensions>
  </wpt>
  <wpt lat="47.820842" lon="-1.822182">
    <time>2020-10-27T08:16:10Z</time>
    <name>Manon b6846</name>
    <desc>A côté du parc de jeux</desc>
    <type>BoiteLire Bretagne</type>
    <extensions>
      <osmand:address>Square de la liberté, 35480 Guipry-messac, France</osmand:address>
      <osmand:color>#ff5020</osmand:color>
      <osmand:background>square</osmand:background>
      <osmand:icon>public_bookcase</osmand:icon>
    </extensions>
  </wpt>
  <wpt lat="48.118944" lon="-1.701694">
    <time>2020-10-26T08:46:24Z</time>
    <name>Déborah b6831</name>
    <desc>Juste à l entrée sortie du batiment ereve là ou il y a l'épicerie gratuite, le sse</desc>
    <type>BoiteLire Bretagne</type>
    <extensions>
      <osmand:address>Batiment ereve - campus de villejean, 35000 Rennes, France</osmand:address>
      <osmand:color>#ff5020</osmand:color>
      <osmand:background>square</osmand:background>
      <osmand:icon>public_bookcase</osmand:icon>
    </extensions>
  </wpt>
  <wpt lat="48.576485" lon="-3.00329">
    <time>2020-10-26T08:42:15Z</time>
    <name>Céline b6813</name>
    <desc></desc>
    <type>BoiteLire Bretagne</type>
    <extensions>
      <osmand:address>Devant l église, 22170 Bringolo, France</osmand:address>
      <osmand:color>#ff5020</osmand:color>
      <osmand:background>square</osmand:background>
      <osmand:icon>public_bookcase</osmand:icon>
    </extensions>
  </wpt>
  <wpt lat="48.229246" lon="-3.970118">
    <time>2020-10-12T08:39:28Z</time>
    <name>Babette b6801</name>
    <desc>Sur parking, ds frigo avec sticker, entouré de panneaux bois</desc>
    <type>BoiteLire Bretagne</type>
    <extensions>
      <osmand:address>Parking du college, 29190 Pleyben, France</osmand:address>
      <osmand:color>#ff5020</osmand:color>
      <osmand:background>square</osmand:background>
      <osmand:icon>public_bookcase</osmand:icon>
    </extensions>
  </wpt>
  <wpt lat="48.229931" lon="-3.970322">
    <time>2020-10-12T08:38:27Z</time>
    <name>Babette b6796</name>
    <desc>Sur le parking du collège louis hemon</desc>
    <type>BoiteLire Bretagne</type>
    <extensions>
      <osmand:address>6 place cloarec, 29190 Pleyben, France</osmand:address>
      <osmand:color>#ff5020</osmand:color>
      <osmand:background>square</osmand:background>
      <osmand:icon>public_bookcase</osmand:icon>
    </extensions>
  </wpt>
  <wpt lat="48.100539" lon="-1.805967">
    <time>2020-10-08T10:17:02Z</time>
    <name>Perrine b6784</name>
    <desc>Sur le parking devant l école de musique</desc>
    <type>BoiteLire Bretagne</type>
    <extensions>
      <osmand:address>Avenue de la bouvardière, 35650 Le rheu, France</osmand:address>
      <osmand:color>#ff5020</osmand:color>
      <osmand:background>square</osmand:background>
      <osmand:icon>public_bookcase</osmand:icon>
    </extensions>
  </wpt>
  <wpt lat="48.229822" lon="-4.358187">
    <time>2023-11-16T12:56:54Z</time>
    <name>Kergroach b6758</name>
    <desc></desc>
    <type>BoiteLire Bretagne</type>
    <extensions>
      <osmand:address>Chemin des aubépines, 29560 Telgruc sur mer, France</osmand:address>
      <osmand:color>#ff5020</osmand:color>
      <osmand:background>square</osmand:background>
      <osmand:icon>public_bookcase</osmand:icon>
    </extensions>
  </wpt>
  <wpt lat="48.420418" lon="-2.658484">
    <time>2020-09-22T15:39:02Z</time>
    <name>Salomon christophe b6752</name>
    <desc>Les jours d ouverture de la crêperie. bien achalandée. gérée par la bibliothèque municipale et quess-don.</desc>
    <type>BoiteLire Bretagne</type>
    <extensions>
      <osmand:address>1 rue de tournebride, 22120 Quessoy, France</osmand:address>
      <osmand:color>#ff5020</osmand:color>
      <osmand:background>square</osmand:background>
      <osmand:icon>public_bookcase</osmand:icon>
    </extensions>
  </wpt>
  <wpt lat="47.886312" lon="-4.159527">
    <time>2020-09-14T10:34:23Z</time>
    <name>Ericv b6724</name>
    <desc>Devant l entrée de l'école maternelle publique.</desc>
    <type>BoiteLire Bretagne</type>
    <extensions>
      <osmand:address>7-9 rue poul ar venelle dero, 29120 Combrit, France</osmand:address>
      <osmand:color>#ff5020</osmand:color>
      <osmand:background>square</osmand:background>
      <osmand:icon>public_bookcase</osmand:icon>
    </extensions>
  </wpt>
  <wpt lat="47.369974" lon="-3.221315">
    <time>2020-09-10T09:15:07Z</time>
    <name>Simon lauden b6708</name>
    <desc>Devant le vival</desc>
    <type>BoiteLire Bretagne</type>
    <extensions>
      <osmand:address>Rue du chemin neuf, 56360 Sauzon, France</osmand:address>
      <osmand:color>#ff5020</osmand:color>
      <osmand:background>square</osmand:background>
      <osmand:icon>public_bookcase</osmand:icon>
    </extensions>
  </wpt>
  <wpt lat="48.403207" lon="-2.320137">
    <time>2020-09-08T08:40:22Z</time>
    <name>Pwin b6707</name>
    <desc>En face la station en arrivant a droite côté lac</desc>
    <type>BoiteLire Bretagne</type>
    <extensions>
      <osmand:address>Station sport nautique de jugon les lacs, 22270 Jugon les lacs, France</osmand:address>
      <osmand:color>#ff5020</osmand:color>
      <osmand:background>square</osmand:background>
      <osmand:icon>public_bookcase</osmand:icon>
    </extensions>
  </wpt>
  <wpt lat="47.839452" lon="-4.169199">
    <time>2020-09-02T15:58:54Z</time>
    <name>Vbo b6669</name>
    <desc>Vers l entrée de la maison de la pointe</desc>
    <type>BoiteLire Bretagne</type>
    <extensions>
      <osmand:address>Parc de la pointe, 29980 Ile-tudy, France</osmand:address>
      <osmand:color>#ff5020</osmand:color>
      <osmand:background>square</osmand:background>
      <osmand:icon>public_bookcase</osmand:icon>
    </extensions>
  </wpt>
  <wpt lat="47.986887" lon="-4.114055">
    <time>2020-09-02T15:58:35Z</time>
    <name>Vbo b6668</name>
    <desc>Dans le jardin public, au niveau du calvaire à peu près au niveau du 23 rue commandant avril</desc>
    <type>BoiteLire Bretagne</type>
    <extensions>
      <osmand:address>23 rue commandant avril, 29000 Quimper, France</osmand:address>
      <osmand:color>#ff5020</osmand:color>
      <osmand:background>square</osmand:background>
      <osmand:icon>public_bookcase</osmand:icon>
    </extensions>
  </wpt>
  <wpt lat="47.855448" lon="-3.852671">
    <time>2020-09-02T15:56:40Z</time>
    <name>Vbo b6665</name>
    <desc></desc>
    <type>BoiteLire Bretagne</type>
    <extensions>
      <osmand:address>Plage de donc, 29910 Tregunc, France</osmand:address>
      <osmand:color>#ff5020</osmand:color>
      <osmand:background>square</osmand:background>
      <osmand:icon>public_bookcase</osmand:icon>
    </extensions>
  </wpt>
  <wpt lat="47.855018" lon="-3.852057">
    <time>2020-09-02T15:56:16Z</time>
    <name>Vbo b6664</name>
    <desc>Place de la mairie</desc>
    <type>BoiteLire Bretagne</type>
    <extensions>
      <osmand:address>Place de la mairie, 29910 Tregunc, France</osmand:address>
      <osmand:color>#ff5020</osmand:color>
      <osmand:background>square</osmand:background>
      <osmand:icon>public_bookcase</osmand:icon>
    </extensions>
  </wpt>
  <wpt lat="47.856224" lon="-3.74641">
    <time>2020-09-01T10:06:06Z</time>
    <name>Aurélien samson b6658</name>
    <desc></desc>
    <type>BoiteLire Bretagne</type>
    <extensions>
      <osmand:address>Promenade xavier grall, 29930 Pont-aven, France</osmand:address>
      <osmand:color>#ff5020</osmand:color>
      <osmand:background>square</osmand:background>
      <osmand:icon>public_bookcase</osmand:icon>
    </extensions>
  </wpt>
  <wpt lat="47.9576" lon="-3.827302">
    <time></time>
    <name>Mael b664</name>
    <desc>Un grand bac à lire dans l'espace culturel. accessible aux heures d'ouverture.</desc>
    <type>BoiteLire Bretagne</type>
    <extensions>
      <osmand:address>17 rue alsace lorraine, 29140 Rosporden, France</osmand:address>
      <osmand:color>#ff5020</osmand:color>
      <osmand:background>square</osmand:background>
      <osmand:icon>public_bookcase</osmand:icon>
    </extensions>
  </wpt>
  <wpt lat="48.675481" lon="-3.191802">
    <time>2020-08-28T10:04:22Z</time>
    <name>Céline b6615</name>
    <desc></desc>
    <type>BoiteLire Bretagne</type>
    <extensions>
      <osmand:address>Devant l église, 22260 Plouec du trieux, France</osmand:address>
      <osmand:color>#ff5020</osmand:color>
      <osmand:background>square</osmand:background>
      <osmand:icon>public_bookcase</osmand:icon>
    </extensions>
  </wpt>
  <wpt lat="48.673267" lon="-3.922743">
    <time>2020-08-28T09:54:26Z</time>
    <name>Markowicz b6593</name>
    <desc>Située dans un arrêt de bus</desc>
    <type>BoiteLire Bretagne</type>
    <extensions>
      <osmand:address>Rue du port, 29660 Carantec, France</osmand:address>
      <osmand:color>#ff5020</osmand:color>
      <osmand:background>square</osmand:background>
      <osmand:icon>public_bookcase</osmand:icon>
    </extensions>
  </wpt>
  <wpt lat="48.469737" lon="-2.513118">
    <time>2020-08-28T09:50:35Z</time>
    <name>Elu b6585</name>
    <desc></desc>
    <type>BoiteLire Bretagne</type>
    <extensions>
      <osmand:address>47 rue du val, 22400 Lamballe, France</osmand:address>
      <osmand:color>#ff5020</osmand:color>
      <osmand:background>square</osmand:background>
      <osmand:icon>public_bookcase</osmand:icon>
    </extensions>
  </wpt>
  <wpt lat="48.469676" lon="-2.515569">
    <time>2020-08-28T09:50:11Z</time>
    <name>X b6584</name>
    <desc>En forme de machine à laver</desc>
    <type>BoiteLire Bretagne</type>
    <extensions>
      <osmand:address>15, rue du dr calmette, 22400 Lamballe, France</osmand:address>
      <osmand:color>#ff5020</osmand:color>
      <osmand:background>square</osmand:background>
      <osmand:icon>public_bookcase</osmand:icon>
    </extensions>
  </wpt>
  <wpt lat="48.532441" lon="-2.0567">
    <time></time>
    <name>Vadis sylvie b658</name>
    <desc>Une petite boîte certes mais pleine de lecture gratuite !!</desc>
    <type>BoiteLire Bretagne</type>
    <extensions>
      <osmand:address>2 place du dr louis jourdan, 22490 Pleslin-trigavou, France</osmand:address>
      <osmand:color>#ff5020</osmand:color>
      <osmand:background>square</osmand:background>
      <osmand:icon>public_bookcase</osmand:icon>
    </extensions>
  </wpt>
  <wpt lat="47.91215" lon="-2.282556">
    <time>2020-08-21T16:52:25Z</time>
    <name>Vincent b6552</name>
    <desc>Dans l ancienne gare en brique le long de la voie verte</desc>
    <type>BoiteLire Bretagne</type>
    <extensions>
      <osmand:address>Residence de l oyon, 56800 Augan, France</osmand:address>
      <osmand:color>#ff5020</osmand:color>
      <osmand:background>square</osmand:background>
      <osmand:icon>public_bookcase</osmand:icon>
    </extensions>
  </wpt>
  <wpt lat="47.919549" lon="-2.27743">
    <time>2020-08-19T17:13:21Z</time>
    <name>Sandré b6532</name>
    <desc>Au niveau de l arrêt de bus le long du parking, non loin de timbre fm.</desc>
    <type>BoiteLire Bretagne</type>
    <extensions>
      <osmand:address>Rue de trévinio, 56800 Augan, France</osmand:address>
      <osmand:color>#ff5020</osmand:color>
      <osmand:background>square</osmand:background>
      <osmand:icon>public_bookcase</osmand:icon>
    </extensions>
  </wpt>
  <wpt lat="47.967593" lon="-1.800653">
    <time>2020-08-19T17:07:48Z</time>
    <name>Sandré b6531</name>
    <desc>Suivre le chemin près du 29 rue jacques blouet, jusqu aux étangs . la cabine téléphone près du grand étang est une boîte à lire.</desc>
    <type>BoiteLire Bretagne</type>
    <extensions>
      <osmand:address>29 rue jacques blouet, 35580 Guichen, France</osmand:address>
      <osmand:color>#ff5020</osmand:color>
      <osmand:background>square</osmand:background>
      <osmand:icon>public_bookcase</osmand:icon>
    </extensions>
  </wpt>
  <wpt lat="47.508394" lon="-2.712572">
    <time>2020-08-06T14:31:45Z</time>
    <name>Luc b6483</name>
    <desc>Se trouve dans le virage, au niveau des aires de pique nique</desc>
    <type>BoiteLire Bretagne</type>
    <extensions>
      <osmand:address>17 rue du blein raz, 56370 Sarzeau, France</osmand:address>
      <osmand:color>#ff5020</osmand:color>
      <osmand:background>square</osmand:background>
      <osmand:icon>public_bookcase</osmand:icon>
    </extensions>
  </wpt>
  <wpt lat="48.12457" lon="-1.655348">
    <time>2020-08-05T15:48:40Z</time>
    <name>Gaby b6453</name>
    <desc>La boite à livre est dans le parc de maurepas, au niveau des jeux pour enfants.</desc>
    <type>BoiteLire Bretagne</type>
    <extensions>
      <osmand:address>Rue courteline, 35700 Rennes, France</osmand:address>
      <osmand:color>#ff5020</osmand:color>
      <osmand:background>square</osmand:background>
      <osmand:icon>public_bookcase</osmand:icon>
    </extensions>
  </wpt>
  <wpt lat="48.111431" lon="-1.671228">
    <time>2020-08-05T12:26:19Z</time>
    <name>Thélau b6452</name>
    <desc></desc>
    <type>BoiteLire Bretagne</type>
    <extensions>
      <osmand:address>Rue de viarmes, 35000 Rennes, France</osmand:address>
      <osmand:color>#ff5020</osmand:color>
      <osmand:background>square</osmand:background>
      <osmand:icon>public_bookcase</osmand:icon>
    </extensions>
  </wpt>
  <wpt lat="48.636448" lon="-2.020773">
    <time>2020-07-28T17:28:12Z</time>
    <name>Laulau b6410</name>
    <desc>Au bout du petit parc, en contrebas du parking.</desc>
    <type>BoiteLire Bretagne</type>
    <extensions>
      <osmand:address>Place monseigneur duchesne, 35400 Saint malo, France</osmand:address>
      <osmand:color>#ff5020</osmand:color>
      <osmand:background>square</osmand:background>
      <osmand:icon>public_bookcase</osmand:icon>
    </extensions>
  </wpt>
  <wpt lat="48.632658" lon="-2.05792">
    <time>2020-07-28T17:28:01Z</time>
    <name>Laulau b6409</name>
    <desc>Sur la place du marché, juste à coté du manège.</desc>
    <type>BoiteLire Bretagne</type>
    <extensions>
      <osmand:address>Place rochaïd, 35800 Dinard, France</osmand:address>
      <osmand:color>#ff5020</osmand:color>
      <osmand:background>square</osmand:background>
      <osmand:icon>public_bookcase</osmand:icon>
    </extensions>
  </wpt>
  <wpt lat="48.649406" lon="-2.027133">
    <time>2020-07-28T17:27:50Z</time>
    <name>Laulau b6408</name>
    <desc>Au bout du parc, boite à lire en forme de phare. a coté des jeux pour enfants.</desc>
    <type>BoiteLire Bretagne</type>
    <extensions>
      <osmand:address>Place des frères lamennais, 35400 Saint malo, France</osmand:address>
      <osmand:color>#ff5020</osmand:color>
      <osmand:background>square</osmand:background>
      <osmand:icon>public_bookcase</osmand:icon>
    </extensions>
  </wpt>
  <wpt lat="48.638081" lon="-2.018848">
    <time>2020-07-28T17:24:33Z</time>
    <name>Mickael b6399</name>
    <desc>Dans le jardin public</desc>
    <type>BoiteLire Bretagne</type>
    <extensions>
      <osmand:address>Digue des bas sablons, 35400 Saint-malo, France</osmand:address>
      <osmand:color>#ff5020</osmand:color>
      <osmand:background>square</osmand:background>
      <osmand:icon>public_bookcase</osmand:icon>
    </extensions>
  </wpt>
  <wpt lat="48.636583" lon="-2.108733">
    <time>2020-07-20T15:56:48Z</time>
    <name>Du plessix gwenola b6375</name>
    <desc>Cabane vagabonde créée par la médiathèque municipale de saint-lunaire</desc>
    <type>BoiteLire Bretagne</type>
    <extensions>
      <osmand:address>157 boulevard du gnal de gaulle, 35800 Saint-lunaire, France</osmand:address>
      <osmand:color>#ff5020</osmand:color>
      <osmand:background>square</osmand:background>
      <osmand:icon>public_bookcase</osmand:icon>
    </extensions>
  </wpt>
  <wpt lat="48.157562" lon="-4.138376">
    <time>2020-07-20T15:55:24Z</time>
    <name>Marie taleb b6371</name>
    <desc>Boîte à lire sur l esplanade de la bibliothèque jeanne laurent à cast, dans une ancienne cabine téléphonique, il y a de quoi se garer et c'est au centre du village.</desc>
    <type>BoiteLire Bretagne</type>
    <extensions>
      <osmand:address>Place saint hubert, 0Cast 29150, France</osmand:address>
      <osmand:color>#ff5020</osmand:color>
      <osmand:background>square</osmand:background>
      <osmand:icon>public_bookcase</osmand:icon>
    </extensions>
  </wpt>
  <wpt lat="47.731176" lon="-2.587191">
    <time></time>
    <name>Vanessa b637</name>
    <desc>En majorité des livres à destination de la jeunesse.</desc>
    <type>BoiteLire Bretagne</type>
    <extensions>
      <osmand:address>Chemin des écoliers, 56250 Elven, France</osmand:address>
      <osmand:color>#ff5020</osmand:color>
      <osmand:background>square</osmand:background>
      <osmand:icon>public_bookcase</osmand:icon>
    </extensions>
  </wpt>
  <wpt lat="48.580361" lon="-2.05915">
    <time>2020-07-10T14:52:34Z</time>
    <name>Médiathèque pleurtuit b6343</name>
    <desc></desc>
    <type>BoiteLire Bretagne</type>
    <extensions>
      <osmand:address>11 rue de dinard, 35730 Pleurtuit, France</osmand:address>
      <osmand:color>#ff5020</osmand:color>
      <osmand:background>square</osmand:background>
      <osmand:icon>public_bookcase</osmand:icon>
    </extensions>
  </wpt>
  <wpt lat="48.581825" lon="-2.056372">
    <time>2020-07-10T14:52:21Z</time>
    <name>Médiathèque pleurtuit b6342</name>
    <desc></desc>
    <type>BoiteLire Bretagne</type>
    <extensions>
      <osmand:address>Rue jean boyer, 35730 Pleurtuit, France</osmand:address>
      <osmand:color>#ff5020</osmand:color>
      <osmand:background>square</osmand:background>
      <osmand:icon>public_bookcase</osmand:icon>
    </extensions>
  </wpt>
  <wpt lat="47.657055" lon="-2.755017">
    <time></time>
    <name>Stephanie b631</name>
    <desc>Boîte à lire située dans le jardin des remparts au niveau des jeux pour enfants côté porte prison.</desc>
    <type>BoiteLire Bretagne</type>
    <extensions>
      <osmand:address>Rue francis decker, 56000 Vannes, France</osmand:address>
      <osmand:color>#ff5020</osmand:color>
      <osmand:background>square</osmand:background>
      <osmand:icon>public_bookcase</osmand:icon>
    </extensions>
  </wpt>
  <wpt lat="47.823133" lon="-1.813123">
    <time>2020-05-25T10:33:20Z</time>
    <name>Gerard severine b6195</name>
    <desc>La boite est sur le parking de la gare</desc>
    <type>BoiteLire Bretagne</type>
    <extensions>
      <osmand:address>Place de la gare, 35480 Guipry messac, France</osmand:address>
      <osmand:color>#ff5020</osmand:color>
      <osmand:background>square</osmand:background>
      <osmand:icon>public_bookcase</osmand:icon>
    </extensions>
  </wpt>