<?xml version='1.0' encoding='UTF-8'?>
<gpx version="1.1" creator="JOSM GPX export" xmlns="http://www.topografix.com/GPX/1/1"
    xmlns:xsi="http://www.w3.org/2001/XMLSchema-instance"
    xsi:schemaLocation="http://www.topografix.com/GPX/1/1 http://www.topografix.com/GPX/1/1/gpx.xsd">
  <metadata>
    <bounds minlat="48.949185" minlon="1.3862991" maxlat="51.0698034" maxlon="4.1362396"/>
  </metadata>
  <wpt lat="49.9074981" lon="2.4999757">
    <name>14 rue jean jaures</name>
    <cmt>Amenity::entertainment:public_bookcase</cmt>
    <desc>Cette boite à lire est dans une salle de la mairie de Fouilloy . Ouverte le mardi matin de 10h30 à 12h et le vendredi après-midi de 14h à 15h30.</desc>
    <type>Boite à livre</type>
  </wpt>
  <wpt lat="49.9035794" lon="2.2142203">
    <name>Rue d?ailly</name>
    <cmt>Amenity::entertainment:public_bookcase</cmt>
    <desc>Elle se situe près du banc dans la rue</desc>
    <type>Boite à livre</type>
  </wpt>
  <wpt lat="49.6848044" lon="2.8289594">
    <name>rue de champien</name>
    <cmt>Amenity::entertainment:public_bookcase</cmt>
    <desc>rue de champienPetite boite à lire  fait maison&quot;&quot;</desc>
    <type>Boite à livre</type>
  </wpt>
  <wpt lat="49.7546302" lon="2.8157547">
    <name>3 Rue de l&apos;École</name>
    <cmt>Amenity::entertainment:public_bookcase</cmt>
    <desc>Sur la gauche de la Mairie, à côté du point Le Relai</desc>
    <type>Boite à livre</type>
  </wpt>
  <wpt lat="49.8341197" lon="2.3157318">
    <name>Rue de l Église</name>
    <cmt>Amenity::entertainment:public_bookcase</cmt>
    <type>Boite à livre</type>
  </wpt>
  <wpt lat="49.807696" lon="2.279531">
    <name>Rue du Quai</name>
    <cmt>Amenity::entertainment:public_bookcase</cmt>
    <type>Boite à livre</type>
  </wpt>
  <wpt lat="49.8142353" lon="2.2607818">
    <name>28 rue de Paris</name>
    <cmt>Amenity::entertainment:public_bookcase</cmt>
    <type>Boite à livre</type>
  </wpt>
  <wpt lat="49.817405" lon="2.3177964">
    <name>Rue des Verts Cerisiers</name>
    <cmt>Amenity::entertainment:public_bookcase</cmt>
    <desc>Boîte à lire installée par un habitant du village devant son habitation</desc>
    <type>Boite à livre</type>
  </wpt>
  <wpt lat="50.1547057" lon="2.3434327">
    <name>Parc du Musée Lombard</name>
    <cmt>Amenity::entertainment:public_bookcase</cmt>
    <type>Boite à livre</type>
  </wpt>
  <wpt lat="50.21566" lon="1.626816">
    <name>rue du général lecler</name>
    <cmt>Amenity::entertainment:public_bookcase</cmt>
    <desc>dans la cabine téléphonique en face de la mairie</desc>
    <type>Boite à livre</type>
  </wpt>
  <wpt lat="49.62695" lon="2.64132">
    <cmt>Amenity::entertainment:public_bookcase</cmt>
    <desc>Fabriquée par G. LEROY, Compagnon et offerte gracieusement à la commune.</desc>
    <type>Boite à livre</type>
  </wpt>
  <wpt lat="49.9918502" lon="1.875652">
    <name>34 rue de la Réublique</name>
    <cmt>Amenity::entertainment:public_bookcase</cmt>
    <desc>Une boite à livres en forme de maisonnette pour abriter des mots et des images pour le bonheur de tous, enfants et plus grands. Elle se trouve dans l Abribus dans le centre du village.</desc>
    <type>Boite à livre</type>
  </wpt>
  <wpt lat="49.8543082" lon="2.2327009">
    <name>rue Jean Catelas</name>
    <cmt>Amenity::entertainment:public_bookcase</cmt>
    <type>Boite à livre</type>
  </wpt>
  <wpt lat="49.8392959" lon="2.1631653">
    <name>1 Rue de Revelles</name>
    <cmt>Amenity::entertainment:public_bookcase</cmt>
    <desc>Boîte près du petit plan d eauFerme d antan</desc>
    <type>Boite à livre</type>
  </wpt>
  <wpt lat="49.8607459" lon="2.3396362">
    <name>Rue Jean Catelas</name>
    <cmt>Amenity::entertainment:public_bookcase</cmt>
    <desc>Site Multiactivité</desc>
    <type>Boite à livre</type>
  </wpt>
  <wpt lat="49.8816465" lon="2.2433604">
    <name>1 Rue de l&apos;Église,</name>
    <cmt>Amenity::entertainment:public_bookcase</cmt>
    <type>Boite à livre</type>
  </wpt>
  <wpt lat="49.8810224" lon="2.243275">
    <name>2 rue du château</name>
    <cmt>Amenity::entertainment:public_bookcase</cmt>
    <desc>Devant la Mairie de Pont de Metz.</desc>
    <type>Boite à livre</type>
  </wpt>
  <wpt lat="49.8878248" lon="2.3444346">
    <name>Place du général Leclerc</name>
    <cmt>Amenity::entertainment:public_bookcase</cmt>
    <desc>Boite à lire située juste en face du bar tabac Le Reinitas, sous le préau.</desc>
    <type>Boite à livre</type>
  </wpt>
  <wpt lat="50.0697743" lon="1.3862991">
    <name>Esplanade Ml Leclerc</name>
    <cmt>Amenity::entertainment:public_bookcase</cmt>
    <desc>3 boites à lire sur l&apos;Esplanade en bord de mer, une autre sur la place du marché à l&apos;entrée d&apos;une aire de jeux. Peut être d&apos;autres.</desc>
    <type>Boite à livre</type>
  </wpt>
  <wpt lat="49.9996" lon="2.318428">
    <name>Place du 8 Mai 1945</name>
    <cmt>Amenity::entertainment:public_bookcase</cmt>
    <type>Boite à livre</type>
  </wpt>
  <wpt lat="49.940928" lon="2.362462">
    <name>13 Grand Rue</name>
    <cmt>Amenity::entertainment:public_bookcase</cmt>
    <type>Boite à livre</type>
  </wpt>
  <wpt lat="49.7872944" lon="2.2543986">
    <name>Rue de Seux</name>
    <cmt>Amenity::entertainment:public_bookcase</cmt>
    <type>Boite à livre</type>
  </wpt>
  <wpt lat="49.9042252" lon="2.3299461">
    <name>rue Laennec</name>
    <cmt>Amenity::entertainment:public_bookcase</cmt>
    <type>Boite à livre</type>
  </wpt>
  <wpt lat="49.90082" lon="2.3214462">
    <name>Place de la mairie</name>
    <cmt>Amenity::entertainment:public_bookcase</cmt>
    <type>Boite à livre</type>
  </wpt>
  <wpt lat="50.0852406" lon="1.5438734">
    <name>112 Rue henri Barbusse</name>
    <cmt>Amenity::entertainment:public_bookcase</cmt>
    <desc>L association Cap horizon est fier d&apos;avoir créé sa boite à lire afin de pérenniser le contact et l&apos;échange intergénérationnel.</desc>
    <type>Boite à livre</type>
  </wpt>
  <wpt lat="50.3241947" lon="1.546363">
    <name>Boulevard maritime</name>
    <cmt>Amenity::entertainment:public_bookcase</cmt>
    <desc>Elle se trouve sur l héliport devant le centre de secours.</desc>
    <type>Boite à livre</type>
  </wpt>
  <wpt lat="50.3148459" lon="1.6941466">
    <name>29 Route de Montreuil</name>
    <cmt>Amenity::entertainment:public_bookcase</cmt>
    <desc>Petite boîte à lire de couleur rouge, à proximité du camping</desc>
    <type>Boite à livre</type>
  </wpt>
  <wpt lat="50.3185543" lon="1.5893998">
    <name>avenue de la plage</name>
    <cmt>Amenity::entertainment:public_bookcase</cmt>
    <desc>Installée par la médiathèque  elle permet à tous de lire à la plage et ailleurs</desc>
    <type>Boite à livre</type>
  </wpt>
  <wpt lat="49.9404726" lon="2.440513">
    <name>Rue de l&apos;Église</name>
    <cmt>Amenity::entertainment:public_bookcase</cmt>
    <desc>Ancienne cabine téléphonique réhabilitée.</desc>
    <type>Boite à livre</type>
  </wpt>
  <wpt lat="50.105954441321984" lon="1.833912134170532">
    <name>Place Max Lejeune</name>
    <cmt>Amenity::entertainment:public_bookcase</cmt>
    <desc>Sous le porche de la mairie d Abbeville.</desc>
    <type>Boite à livre</type>
  </wpt>
  <wpt lat="49.8763048" lon="2.3251327">
    <name>10, rue Condorcet</name>
    <cmt>Amenity::entertainment:public_bookcase</cmt>
    <desc>La ville d Amiens a installé une nouvelle boite à lire devant l&apos;association ACIP. Des bénévoles de cette association veille sur cette dernière.</desc>
    <type>Boite à livre</type>
  </wpt>
  <wpt lat="49.9150685" lon="2.2521289">
    <name>Avenue de Bourgogne</name>
    <cmt>Amenity::entertainment:public_bookcase</cmt>
    <desc>Une nouvelle Boîte à lire installée par Amiens Métropole devant le Diapason  école de musique d&apos;Etouvie.</desc>
    <type>Boite à livre</type>
  </wpt>
  <wpt lat="49.8842368" lon="2.3237698">
    <name>45 Chaussée Jules ferry</name>
    <cmt>Amenity::entertainment:public_bookcase</cmt>
    <desc>La cabine anglaise de la Chaussée Jules Ferry s&apos;est refaite une beauté ! Transformée en Boîte à lire  elle fait le bonheur de ses nouveaux usagers !</desc>
    <type>Boite à livre</type>
  </wpt>
  <wpt lat="49.8891762" lon="2.2815147">
    <name>169 avenue du Général Foy</name>
    <cmt>Amenity::entertainment:public_bookcase</cmt>
    <type>Boite à livre</type>
  </wpt>
  <wpt lat="49.8747598" lon="2.2723808">
    <name>Avenue Paul Claudel</name>
    <cmt>Amenity::entertainment:public_bookcase</cmt>
    <desc>Elle se situe dans la Résidence du Bailly ouest</desc>
    <type>Boite à livre</type>
  </wpt>
  <wpt lat="49.8910679" lon="2.3067847">
    <name>place Alphonse Fiquet</name>
    <cmt>Amenity::entertainment:public_bookcase</cmt>
    <desc>Sur le parvis de la gare, face à la Tour Perret.</desc>
    <type>Boite à livre</type>
  </wpt>
  <wpt lat="49.9150685" lon="2.2521289">
    <name>Avenue de Bourgogne:</name>
    <cmt>Amenity::entertainment:public_bookcase</cmt>
    <desc>merci d’ajouter la photo « Boîte à lire »)-          Les Coursives Etouvie - Avenue de Bourgogne: Une nouvelle boîte à lire installée par Amiens Métropole devant le Diapason Ecole de musique d&apos;Etouvie</desc>
    <type>Boite à livre</type>
  </wpt>
  <wpt lat="49.8836404" lon="2.3073546">
    <name>173 Rue Wulfran Warmé</name>
    <cmt>Amenity::entertainment:public_bookcase</cmt>
    <desc>au milieu du parc Jean Rostand près de l’aire de jeux</desc>
    <type>Boite à livre</type>
  </wpt>
  <wpt lat="49.8879532" lon="2.3034379">
    <name>Place du Maréchal Joffre</name>
    <cmt>Amenity::entertainment:public_bookcase</cmt>
    <desc>Boîte à lire installée dans le petit parc de la Place du maréchal Joffre</desc>
    <type>Boite à livre</type>
  </wpt>
  <wpt lat="49.893243" lon="2.297608">
    <name>Place Gambetta</name>
    <cmt>Amenity::entertainment:public_bookcase</cmt>
    <type>Boite à livre</type>
  </wpt>
  <wpt lat="49.9109012" lon="2.3119545">
    <name>35 rue Léo LAGRANGE</name>
    <cmt>Amenity::entertainment:public_bookcase</cmt>
    <desc>Devant l&apos;entrée de la piscine le nautilus</desc>
    <type>Boite à livre</type>
  </wpt>
  <wpt lat="49.8838658" lon="2.306193">
    <name>Parc Jean Rostand</name>
    <cmt>Amenity::entertainment:public_bookcase</cmt>
    <desc>La boite a lire est au milieu du parc Jean Rostand  près de l aire de jeux.</desc>
    <type>Boite à livre</type>
  </wpt>
  <wpt lat="49.910756" lon="2.312432">
    <name>35 rue léo lagrange</name>
    <cmt>Amenity::entertainment:public_bookcase</cmt>
    <desc>Devant l&apos;entrée de la piscine Le Nautilus.</desc>
    <type>Boite à livre</type>
  </wpt>
  <wpt lat="49.893243" lon="2.297608">
    <name>Place Gambetta</name>
    <cmt>Amenity::entertainment:public_bookcase</cmt>
    <desc>Boite à lire mise en place par Amiens Métropole Place Gambetta à côté du magasin de chaussure Jeff</desc>
    <type>Boite à livre</type>
  </wpt>
  <wpt lat="49.8879383" lon="2.30347">
    <name>Place du Maréchal Joffre</name>
    <cmt>Amenity::entertainment:public_bookcase</cmt>
    <desc>Boîte à lire rouge  installée dans le petit parc de la place du Maréchal Joffre</desc>
    <type>Boite à livre</type>
  </wpt>
  <wpt lat="49.8842368" lon="2.3237698">
    <name>45, Chaussée Jules Ferry</name>
    <cmt>Amenity::entertainment:public_bookcase</cmt>
    <desc>ancienne cabine téléphonique anglaise réhabilitée en Boîte à lire</desc>
    <type>Boite à livre</type>
  </wpt>
  <wpt lat="50.7707207" lon="1.612239">
    <name>3 rue Georges Romain</name>
    <cmt>Amenity::entertainment:public_bookcase</cmt>
    <desc>Dans le cabinet de médecins &quot;&quot;La rivière&quot;&quot;.</desc>
    <type>Boite à livre</type>
  </wpt>
  <wpt lat="50.5633902" lon="2.5744578">
    <name>Rue de l&apos;égalité</name>
    <cmt>Amenity::entertainment:public_bookcase</cmt>
    <desc>Située dans la rue près de l&apos;église</desc>
    <type>Boite à livre</type>
  </wpt>
  <wpt lat="50.8214912" lon="2.1924519">
    <name>Rue de Bleue Maison</name>
    <cmt>Amenity::entertainment:public_bookcase</cmt>
    <desc>La boite se situe face au Carrefour Market</desc>
    <type>Boite à livre</type>
  </wpt>
  <wpt lat="50.8062278" lon="2.0521434">
    <name>89 rue Saint Gilles</name>
    <cmt>Amenity::entertainment:public_bookcase</cmt>
    <desc>A côté de la bibliothèque</desc>
    <type>Boite à livre</type>
  </wpt>
  <wpt lat="50.4626377" lon="2.8500697">
    <name>Parc des faitelles</name>
    <cmt>Amenity::entertainment:public_bookcase</cmt>
    <desc>À côté de la buvette.</desc>
    <type>Boite à livre</type>
  </wpt>
  <wpt lat="50.45198" lon="2.847159">
    <name>Rue de la justice</name>
    <cmt>Amenity::entertainment:public_bookcase</cmt>
    <desc>Sous un kiosque près de l école primaire</desc>
    <type>Boite à livre</type>
  </wpt>
  <wpt lat="50.6614602" lon="2.7980195">
    <name>3280 rue de la Lys</name>
    <cmt>Amenity::entertainment:public_bookcase</cmt>
    <desc>La boîte à lire se situe devant la grille d&apos;entrée de l&apos;école maternelle Jacques Prévert.</desc>
    <type>Boite à livre</type>
  </wpt>
  <wpt lat="50.6580207" lon="2.769562">
    <name>1071 Rue de la Lys</name>
    <cmt>Amenity::entertainment:public_bookcase</cmt>
    <desc>La boîte à lire se situe à l&apos;entrée de l&apos;aire de jeux pour enfants au fond du parking de la mairie de Sailly sur la Lys.</desc>
    <type>Boite à livre</type>
  </wpt>
  <wpt lat="50.9048426" lon="1.9319716">
    <name>389 Route D Andres</name>
    <cmt>Amenity::entertainment:public_bookcase</cmt>
    <desc>Vieille cabine téléphonique transformée en Cabine à livres juste à côté de la poste aux Attaques.</desc>
    <type>Boite à livre</type>
  </wpt>
  <wpt lat="50.4805063" lon="2.544547">
    <name>place du general leclerc</name>
    <cmt>Amenity::entertainment:public_bookcase</cmt>
    <type>Boite à livre</type>
  </wpt>
  <wpt lat="50.4944068" lon="2.5811131">
    <name>Gare de bethune</name>
    <cmt>Amenity::entertainment:public_bookcase</cmt>
    <desc>Plusieurs a bruay la buissiereGare de bethune</desc>
    <type>Boite à livre</type>
  </wpt>
  <wpt lat="50.5683826" lon="1.9050171">
    <name>Place des republique</name>
    <cmt>Amenity::entertainment:public_bookcase</cmt>
    <desc>Devant office du tourisme</desc>
    <type>Boite à livre</type>
  </wpt>
  <wpt lat="50.8247583" lon="1.9601472">
    <name>rue de la mairie</name>
    <cmt>Amenity::entertainment:public_bookcase</cmt>
    <type>Boite à livre</type>
  </wpt>
  <wpt lat="50.72263" lon="2.2933005">
    <name>rue du Maréchal Leclerc</name>
    <cmt>Amenity::entertainment:public_bookcase</cmt>
    <desc>Coin de rue</desc>
    <type>Boite à livre</type>
  </wpt>
  <wpt lat="50.709432" lon="2.229335">
    <name>Place Jean Jaurès</name>
    <cmt>Amenity::entertainment:public_bookcase</cmt>
    <desc>Elle se situe derrière la mairie  face à la place.</desc>
    <type>Boite à livre</type>
  </wpt>
  <wpt lat="50.4823656" lon="2.4068386">
    <name>Rue de pressy</name>
    <cmt>Amenity::entertainment:public_bookcase</cmt>
    <desc>Ancienne cabine téléphonique la boîte à livre est rouge</desc>
    <type>Boite à livre</type>
  </wpt>
  <wpt lat="50.52735" lon="1.5845339">
    <name>2 rue des dunes le Töôk Tøõk</name>
    <cmt>Amenity::entertainment:public_bookcase</cmt>
    <desc>Aux heures d?ouverture du restaurant</desc>
    <type>Boite à livre</type>
  </wpt>
  <wpt lat="50.7505213" lon="2.2467966">
    <name>9 Allées du Parc</name>
    <cmt>Amenity::entertainment:public_bookcase</cmt>
    <desc>La boîte se situe à l intérieur du jardin public, à côté des jeux pour enfants.</desc>
    <type>Boite à livre</type>
  </wpt>
  <wpt lat="50.7747091" lon="2.2984438">
    <name>Rue du Romelaere</name>
    <cmt>Amenity::entertainment:public_bookcase</cmt>
    <desc>Sur le bord du parking en face de l&apos;Eglise.</desc>
    <type>Boite à livre</type>
  </wpt>
  <wpt lat="50.4943662" lon="2.8516008">
    <name>2 rue jules guesdes</name>
    <cmt>Amenity::entertainment:public_bookcase</cmt>
    <desc>Les commerces de proximité VIVAL installent des boites à livres devant tous leurs commerces. Félicitations, très belle réalisation.</desc>
    <type>Boite à livre</type>
  </wpt>
  <wpt lat="50.52936105325702" lon="2.632083892822266">
    <name>75-155 Rue Béranger</name>
    <cmt>Amenity::entertainment:public_bookcase</cmt>
    <desc>La boite se trouve à l&apos;entrée du parc, à l&apos;opposé du kiosque à musique.</desc>
    <type>Boite à livre</type>
  </wpt>
  <wpt lat="50.52166731299652" lon="2.64072060585022">
    <name>Place François Miterrand</name>
    <cmt>Amenity::entertainment:public_bookcase</cmt>
    <desc>À côté de la Gare de Béthune.</desc>
    <type>Boite à livre</type>
  </wpt>
  <wpt lat="50.5382911" lon="2.6383624">
    <name>Place pasteur</name>
    <cmt>Amenity::entertainment:public_bookcase</cmt>
    <desc>Boite bleue intégrée au mur de l école primaire Pasteur</desc>
    <type>Boite à livre</type>
  </wpt>
  <wpt lat="50.2340566" lon="2.1060887">
    <name>Jardin Public, rue du cheval</name>
    <cmt>Amenity::entertainment:public_bookcase</cmt>
    <desc>Réalisée par les enfants du Conseil Municipal des Jeunes de la commune, avec l appui technique du CPIE Val d&apos;Authie et des matériaux de récupération durant l&apos;année 2018, elle sera implantée et inaugurée le 12 Janvier 2019. D&apos;autres sont déjà en construction !</desc>
    <type>Boite à livre</type>
  </wpt>
  <wpt lat="50.8752621" lon="2.0244828">
    <name>Place de la Mairie</name>
    <cmt>Amenity::entertainment:public_bookcase</cmt>
    <desc>Boîte à livres offerte par le Lions Club Calais Duc de Guise, inaugurée le 09 septembre 2018</desc>
    <type>Boite à livre</type>
  </wpt>
  <wpt lat="50.7121895" lon="1.6731496">
    <name>4 rue d?Echinghen</name>
    <cmt>Amenity::entertainment:public_bookcase</cmt>
    <desc>Situe juste devant le magasin Vival ?Contient de nombreux livres</desc>
    <type>Boite à livre</type>
  </wpt>
  <wpt lat="50.892001" lon="1.775583">
    <name>Rue Hubert Level</name>
    <cmt>Amenity::entertainment:public_bookcase</cmt>
    <type>Boite à livre</type>
  </wpt>
  <wpt lat="50.4342557" lon="2.8397082">
    <name>21 rue marcel sembat</name>
    <cmt>Amenity::entertainment:public_bookcase</cmt>
    <desc>Accessible aux heures d ouverture 9h-12h / 14h-17h</desc>
    <type>Boite à livre</type>
  </wpt>
  <wpt lat="50.4307564" lon="2.8316374">
    <name>25 rue victor picard</name>
    <cmt>Amenity::entertainment:public_bookcase</cmt>
    <type>Boite à livre</type>
  </wpt>
  <wpt lat="50.4383139" lon="2.8409012">
    <name>6 rue Lavoisier</name>
    <cmt>Amenity::entertainment:public_bookcase</cmt>
    <desc>Horaires d&apos;accès aux boîtes à lire du lundi au vendredi de 9h à 12h et de 14h à 17h.</desc>
    <type>Boite à livre</type>
  </wpt>
  <wpt lat="50.278457" lon="2.292931">
    <name>Place Louis Ducatel</name>
    <cmt>Amenity::entertainment:public_bookcase</cmt>
    <desc>Une boite qui ressemble à un nichoir à oiseaux remplie de livres</desc>
    <type>Boite à livre</type>
  </wpt>
  <wpt lat="50.2784069" lon="2.293331">
    <name>8 Place Jean Jaurès</name>
    <cmt>Amenity::entertainment:public_bookcase</cmt>
    <desc>La boite se trouve face à la poste  près de la mairie et près de la résidence des bords de canche.  Il y a trois boite à lire à Frévent...une initiative bien sympathique de la médiathèque municipale.</desc>
    <type>Boite à livre</type>
  </wpt>
  <wpt lat="50.5396042" lon="2.6274053">
    <name>Rue de Sain-Venant</name>
    <cmt>Amenity::entertainment:public_bookcase</cmt>
    <desc>À côté de l arrêt de bus Liberté</desc>
    <type>Boite à livre</type>
  </wpt>
  <wpt lat="50.9151022" lon="1.7688993">
    <name>1057 Route d&apos;Escalles</name>
    <cmt>Amenity::entertainment:public_bookcase</cmt>
    <desc>Ancienne cabine téléphonique transformée en boite à lire près de la mairie.</desc>
    <type>Boite à livre</type>
  </wpt>
  <wpt lat="50.7045398" lon="1.5937512">
    <name>Place Léon Blum</name>
    <cmt>Amenity::entertainment:public_bookcase</cmt>
    <desc>Au phénix</desc>
    <type>Boite à livre</type>
  </wpt>
  <wpt lat="50.4455389" lon="2.8486636">
    <name>85 rue georges devouges</name>
    <cmt>Amenity::entertainment:public_bookcase</cmt>
    <desc>Parking ecole maternelle</desc>
    <type>Boite à livre</type>
  </wpt>
  <wpt lat="50.4382364" lon="2.8682628">
    <name>Mairie</name>
    <cmt>Amenity::entertainment:public_bookcase</cmt>
    <desc>disposer devant la mairie depuis le 14 novembre 2017</desc>
    <type>Boite à livre</type>
  </wpt>
  <wpt lat="50.2711508" lon="2.7681783">
    <name>place de rouen</name>
    <cmt>Amenity::entertainment:public_bookcase</cmt>
    <desc>au pied d un immeuble</desc>
    <type>Boite à livre</type>
  </wpt>
  <wpt lat="50.2710182" lon="2.770711">
    <name>residence des soir paisible</name>
    <cmt>Amenity::entertainment:public_bookcase</cmt>
    <type>Boite à livre</type>
  </wpt>
  <wpt lat="50.292117" lon="2.780925">
    <name>Place du marché</name>
    <cmt>Amenity::entertainment:public_bookcase</cmt>
    <desc>Une ancienne cabine de téléphone anglaise, sur la place du marché de Tilloy les Mofflaines</desc>
    <type>Boite à livre</type>
  </wpt>
  <wpt lat="50.4136781" lon="2.8509137">
    <name>Ecole Juliot Curie</name>
    <cmt>Amenity::entertainment:public_bookcase</cmt>
    <type>Boite à livre</type>
  </wpt>
  <wpt lat="50.4002598" lon="2.834069">
    <name>Centre culturel Fernand Léger</name>
    <cmt>Amenity::entertainment:public_bookcase</cmt>
    <type>Boite à livre</type>
  </wpt>
  <wpt lat="50.413364" lon="2.8333141">
    <name>Place duclos</name>
    <cmt>Amenity::entertainment:public_bookcase</cmt>
    <type>Boite à livre</type>
  </wpt>
  <wpt lat="50.72442822747396" lon="1.604985594749451">
    <name>2 Rue Monsigny</name>
    <cmt>Amenity::entertainment:public_bookcase</cmt>
    <desc>A l&apos;angle de la rue Thiers et de la Rue Monsigny</desc>
    <type>Boite à livre</type>
  </wpt>
  <wpt lat="50.7216475" lon="1.6157322">
    <name>Rue Porte Gayole</name>
    <cmt>Amenity::entertainment:public_bookcase</cmt>
    <desc>Devant le Lycée Technique Branly</desc>
    <type>Boite à livre</type>
  </wpt>
  <wpt lat="50.7197715" lon="1.6076263">
    <name>Boulevard Daunou</name>
    <cmt>Amenity::entertainment:public_bookcase</cmt>
    <desc>Gare routière, près du Centre Commercial Liane</desc>
    <type>Boite à livre</type>
  </wpt>
  <wpt lat="50.71924572182331" lon="1.605076789855957">
    <name>Promenade de la Liane, Rive Droite</name>
    <cmt>Amenity::entertainment:public_bookcase</cmt>
    <desc>A proximité d&apos;un parc de jeux</desc>
    <type>Boite à livre</type>
  </wpt>
  <wpt lat="50.72637746198989" lon="1.616020202636719">
    <name>Remparts, Porte Neuve</name>
    <cmt>Amenity::entertainment:public_bookcase</cmt>
    <desc>Dans la Vieille Ville, près de la Cathédrale</desc>
    <type>Boite à livre</type>
  </wpt>
  <wpt lat="50.7290738" lon="1.6105963">
    <name>1 rue de la paix</name>
    <cmt>Amenity::entertainment:public_bookcase</cmt>
    <desc>Boîte à lire entre l&apos;eglise et Izmir Kabab</desc>
    <type>Boite à livre</type>
  </wpt>
  <wpt lat="50.4183151" lon="1.6338771">
    <name>93 Rue du Bois des Sapins</name>
    <cmt>Amenity::entertainment:public_bookcase</cmt>
    <desc>Sur le parking de la salle E. Piaf. Cabine anglaise comme à l office du Tourisme. Bonne lecture aux Mordus</desc>
    <type>Boite à livre</type>
  </wpt>
  <wpt lat="50.4157583" lon="1.6481823">
    <name>gare</name>
    <cmt>Amenity::entertainment:public_bookcase</cmt>
    <desc>Juste devant la gare</desc>
    <type>Boite à livre</type>
  </wpt>
  <wpt lat="50.4196839" lon="1.6371872">
    <name>152 rue de l Eglise</name>
    <cmt>Amenity::entertainment:public_bookcase</cmt>
    <desc>Elle se trouve à côté de la mairie. La boite à lire est une cabine téléphonique londonienne.</desc>
    <type>Boite à livre</type>
  </wpt>
  <wpt lat="50.9171628" lon="1.7137225">
    <name>rue de la place de la mairie</name>
    <cmt>Amenity::entertainment:public_bookcase</cmt>
    <desc>Ancienne cabine téléphonique transformée en cabine à livres en face de la place du marché sur un trottoir.</desc>
    <type>Boite à livre</type>
  </wpt>
  <wpt lat="50.8238743" lon="1.5922187">
    <name>rue marin la Meslée</name>
    <cmt>Amenity::entertainment:public_bookcase</cmt>
    <desc>sur le mur de l&apos;épicerie du Flobart, ce n&apos;est pas une véritable boite à lire mais plutôt un boite créée par le proprio de l&apos;épicerie.</desc>
    <type>Boite à livre</type>
  </wpt>
  <wpt lat="50.5087099" lon="2.7271276">
    <name>Place de la Republique</name>
    <cmt>Amenity::entertainment:public_bookcase</cmt>
    <type>Boite à livre</type>
  </wpt>
  <wpt lat="50.5407463" lon="2.7949751">
    <name>Rue du Retuy</name>
    <cmt>Amenity::entertainment:public_bookcase</cmt>
    <type>Boite à livre</type>
  </wpt>
  <wpt lat="50.3769557" lon="2.3311906">
    <name>rue du 8 mai 45</name>
    <cmt>Amenity::entertainment:public_bookcase</cmt>
    <desc>La boîte se trouve sur le pilier à l&apos;entrée de la Maison Pour Tous</desc>
    <type>Boite à livre</type>
  </wpt>
  <wpt lat="50.3811933" lon="2.3364299">
    <name>Place de l&apos;Hôtel de ville</name>
    <cmt>Amenity::entertainment:public_bookcase</cmt>
    <desc>La boîte se trouve sur le mur de la Mairie.</desc>
    <type>Boite à livre</type>
  </wpt>
  <wpt lat="50.671011" lon="2.298719">
    <name>Rue du brûle</name>
    <cmt>Amenity::entertainment:public_bookcase</cmt>
    <desc>Sur la salle des fêtes</desc>
    <type>Boite à livre</type>
  </wpt>
  <wpt lat="50.7443302" lon="1.7331147">
    <name>280 Rue du Centre</name>
    <cmt>Amenity::entertainment:public_bookcase</cmt>
    <desc>La boite est située juste à côté de la mairie. On peut trouver des livres, magazines.</desc>
    <type>Boite à livre</type>
  </wpt>
  <wpt lat="50.5221454" lon="2.5405902">
    <name>Ronie23@neuf.fr</name>
    <cmt>Amenity::entertainment:public_bookcase</cmt>
    <desc>À moissac bellevue 83 en bas du village</desc>
    <type>Boite à livre</type>
  </wpt>
  <wpt lat="50.6710626" lon="2.3414961">
    <name>1 place de la Mairie</name>
    <cmt>Amenity::entertainment:public_bookcase</cmt>
    <desc>place de la mairie</desc>
    <type>Boite à livre</type>
  </wpt>
  <wpt lat="50.6406976" lon="2.392782">
    <name>Résidence Bayard</name>
    <cmt>Amenity::entertainment:public_bookcase</cmt>
    <type>Boite à livre</type>
  </wpt>
  <wpt lat="50.632484" lon="2.405608">
    <name>Place Philippe d Alsace</name>
    <cmt>Amenity::entertainment:public_bookcase</cmt>
    <desc>À côté de la gendarmerie</desc>
    <type>Boite à livre</type>
  </wpt>
  <wpt lat="50.650384" lon="2.3541402">
    <name>Rue de l église</name>
    <cmt>Amenity::entertainment:public_bookcase</cmt>
    <desc>En face de la mairie</desc>
    <type>Boite à livre</type>
  </wpt>
  <wpt lat="50.6789256" lon="2.318633">
    <name>Rue de l église</name>
    <cmt>Amenity::entertainment:public_bookcase</cmt>
    <desc>Se situe sur l école</desc>
    <type>Boite à livre</type>
  </wpt>
  <wpt lat="50.66885794953764" lon="2.392401695251465">
    <name>Rue de l&apos;Eglise</name>
    <cmt>Amenity::entertainment:public_bookcase</cmt>
    <desc>Située juste à la droite de la mairie, contre le mur avant la salle des fêtes Louis Vicart.</desc>
    <type>Boite à livre</type>
  </wpt>
  <wpt lat="50.718397" lon="2.334237">
    <name>616 rue Principale</name>
    <cmt>Amenity::entertainment:public_bookcase</cmt>
    <desc>Parking de la Mairie</desc>
    <type>Boite à livre</type>
  </wpt>
  <wpt lat="50.9449796" lon="1.8871508">
    <name>marck</name>
    <cmt>Amenity::entertainment:public_bookcase</cmt>
    <desc>près d une ecole sur un grillage</desc>
    <type>Boite à livre</type>
  </wpt>
  <wpt lat="50.290177" lon="2.779798">
    <name>Place d Ipwich</name>
    <cmt>Amenity::entertainment:public_bookcase</cmt>
    <desc>Ancienne cabine téléphonique transformée en boîte à livres.</desc>
    <type>Boite à livre</type>
  </wpt>
  <wpt lat="50.2869342" lon="2.78139">
    <name>Gare SNCF</name>
    <cmt>Amenity::entertainment:public_bookcase</cmt>
    <desc>La boîte se trouve dans le hall de la gare</desc>
    <type>Boite à livre</type>
  </wpt>
  <wpt lat="50.2999308" lon="2.7320165">
    <name>Centre commercial Auchan</name>
    <cmt>Amenity::entertainment:public_bookcase</cmt>
    <desc>Elle se trouve dans la galerie commerciale entre les caisses et les boutiques,  au milieu de l&apos;allée c&apos;est une grande arche en bois</desc>
    <type>Boite à livre</type>
  </wpt>
  <wpt lat="50.2991069" lon="2.7311788">
    <name>Auchan Arras</name>
    <cmt>Amenity::entertainment:public_bookcase</cmt>
    <desc>Galerie Marchande Auchan Arras</desc>
    <type>Boite à livre</type>
  </wpt>
  <wpt lat="49.3749135" lon="2.7531891">
    <name>62 rue de Caulmont</name>
    <cmt>Amenity::entertainment:public_bookcase</cmt>
    <type>Boite à livre</type>
  </wpt>
  <wpt lat="49.30416" lon="2.5342465">
    <name>rue Leon Jouhaux</name>
    <cmt>Amenity::entertainment:public_bookcase</cmt>
    <desc>Petit boite à lire devant la salle des fête et la bibliothèque.</desc>
    <type>Boite à livre</type>
  </wpt>
  <wpt lat="49.2546883" lon="2.6399616">
    <name>Place de la Mairie</name>
    <cmt>Amenity::entertainment:public_bookcase</cmt>
    <desc>Elle est située dans l&apos;abribus</desc>
    <type>Boite à livre</type>
  </wpt>
  <wpt lat="49.2262845" lon="2.8822876">
    <name>1 place Jean-Philippe Rameau</name>
    <cmt>Amenity::entertainment:public_bookcase</cmt>
    <desc>Boîte à lire située à l intérieur de l&apos;Espace Rameau  près de l&apos;entrée de la bibliothèque municipale.</desc>
    <type>Boite à livre</type>
  </wpt>
  <wpt lat="49.3059843" lon="2.6035117">
    <name>Champs de Mars</name>
    <cmt>Amenity::entertainment:public_bookcase</cmt>
    <desc>Dans le parc Mise en place par l&apos;association ORIZON.</desc>
    <type>Boite à livre</type>
  </wpt>
  <wpt lat="49.3426206" lon="2.6045568">
    <name>8 Rue de la République</name>
    <cmt>Amenity::entertainment:public_bookcase</cmt>
    <desc>Boîte à lire dans une ancienne cabine téléphonique près de la mairie et de la bibliothèque du village de Saint Martin Longueau dans l&apos;Oise.</desc>
    <type>Boite à livre</type>
  </wpt>
  <wpt lat="49.1598598" lon="2.9521197">
    <name>1 rue de la Fraternité</name>
    <cmt>Amenity::entertainment:public_bookcase</cmt>
    <type>Boite à livre</type>
  </wpt>
  <wpt lat="49.38502684650848" lon="2.417399883270264">
    <name>Gare de Clermont de l&apos;oise</name>
    <cmt>Amenity::entertainment:public_bookcase</cmt>
    <desc>Boîte à lire située devant l&apos;entrée principale de la gare de Clermont sur l&apos;oise.</desc>
    <type>Boite à livre</type>
  </wpt>
  <wpt lat="49.3003516" lon="2.6060248">
    <name>Place de l&apos;église</name>
    <cmt>Amenity::entertainment:public_bookcase</cmt>
    <desc>Ancienne cabine téléphonique anglaise recyclée en cabane à lire.</desc>
    <type>Boite à livre</type>
  </wpt>
  <wpt lat="49.1987949" lon="2.20747">
    <name>Place de la mairie</name>
    <cmt>Amenity::entertainment:public_bookcase</cmt>
    <desc>Boite a livre mise en place par la mairie.</desc>
    <type>Boite à livre</type>
  </wpt>
  <wpt lat="49.2009649" lon="2.269171">
    <cmt>Amenity::entertainment:public_bookcase</cmt>
    <desc>La boite se situe dans la cabine téléphonique pas très loin de l&apos;école.</desc>
    <type>Boite à livre</type>
  </wpt>
  <wpt lat="49.1940211" lon="2.4656551">
    <name>place Omer Vallon</name>
    <cmt>Amenity::entertainment:public_bookcase</cmt>
    <desc>A proximité de la brasserie La place</desc>
    <type>Boite à livre</type>
  </wpt>
  <wpt lat="49.1768139" lon="2.4578274">
    <name>avenue Marie-Amelie</name>
    <cmt>Amenity::entertainment:public_bookcase</cmt>
    <desc>Bois st denis</desc>
    <type>Boite à livre</type>
  </wpt>
  <wpt lat="49.1867205" lon="2.4599846">
    <name>Gare de Chantilly</name>
    <cmt>Amenity::entertainment:public_bookcase</cmt>
    <desc>Sur le parking a la sortie de la gare</desc>
    <type>Boite à livre</type>
  </wpt>
  <wpt lat="49.563745" lon="2.217766">
    <name>Rue de Beauvais</name>
    <cmt>Amenity::entertainment:public_bookcase</cmt>
    <desc>Boîte à lire à côté de la supérette du village</desc>
    <type>Boite à livre</type>
  </wpt>
  <wpt lat="49.2064437" lon="2.3712054">
    <name>17bis rue Michaulane</name>
    <cmt>Amenity::entertainment:public_bookcase</cmt>
    <desc>Initiative personnelle, pour susciter un projet local</desc>
    <type>Boite à livre</type>
  </wpt>
  <wpt lat="49.3546757" lon="2.1149845">
    <name>Salle des fêtes</name>
    <cmt>Amenity::entertainment:public_bookcase</cmt>
    <desc>A côté de la salle des fêtes au fond du parking</desc>
    <type>Boite à livre</type>
  </wpt>
  <wpt lat="49.5979187" lon="3.0081583">
    <name>Campus Inovia. 1435 boulevard Cambronne</name>
    <cmt>Amenity::entertainment:public_bookcase</cmt>
    <desc>Elle se trouve au niveau des boites aux lettres, à l&apos;entrée du Campus</desc>
    <type>Boite à livre</type>
  </wpt>
  <wpt lat="49.611882" lon="2.9905879">
    <name>Genvry</name>
    <cmt>Amenity::entertainment:public_bookcase</cmt>
    <desc>Cabine téléphonique Anglaise</desc>
    <type>Boite à livre</type>
  </wpt>
  <wpt lat="49.4237825" lon="2.8188062">
    <name>117 avenue octave butin</name>
    <cmt>Amenity::entertainment:public_bookcase</cmt>
    <desc>Boîte à lire rustique, fabriquée en métal et bois vernis.</desc>
    <type>Boite à livre</type>
  </wpt>
  <wpt lat="49.1520158" lon="2.4426469">
    <name>34 Rue Michel Bléré</name>
    <cmt>Amenity::entertainment:public_bookcase</cmt>
    <desc>Deux boites à lire dans le parc du château.</desc>
    <type>Boite à livre</type>
  </wpt>
  <wpt lat="49.3189025" lon="2.3232401">
    <name>Avenue du 8 Mai 1945</name>
    <cmt>Amenity::entertainment:public_bookcase</cmt>
    <desc>Square Jean Moulin</desc>
    <type>Boite à livre</type>
  </wpt>
  <wpt lat="49.3228345" lon="2.3060075">
    <name>Rue de Heilles</name>
    <cmt>Amenity::entertainment:public_bookcase</cmt>
    <desc>Place de Coincourt</desc>
    <type>Boite à livre</type>
  </wpt>
  <wpt lat="49.312662" lon="2.317643">
    <name>Rue Roland Bouchinet</name>
    <cmt>Amenity::entertainment:public_bookcase</cmt>
    <desc>Place des Platanes</desc>
    <type>Boite à livre</type>
  </wpt>
  <wpt lat="49.320486" lon="2.32343">
    <name>Place de la Gare</name>
    <cmt>Amenity::entertainment:public_bookcase</cmt>
    <type>Boite à livre</type>
  </wpt>
  <wpt lat="49.2790712" lon="1.9424051">
    <name>Place de la mairie</name>
    <cmt>Amenity::entertainment:public_bookcase</cmt>
    <type>Boite à livre</type>
  </wpt>
  <wpt lat="49.2637331" lon="1.8849467">
    <name>place de la foulerie</name>
    <cmt>Amenity::entertainment:public_bookcase</cmt>
    <desc>Place de l&apos;ecole</desc>
    <type>Boite à livre</type>
  </wpt>
  <wpt lat="49.6481928" lon="1.7263908">
    <name>3 rue de Grumesnil</name>
    <cmt>Amenity::entertainment:public_bookcase</cmt>
    <type>Boite à livre</type>
  </wpt>
  <wpt lat="49.6661795" lon="1.9379041">
    <name>32 Rue Frédéric Petite</name>
    <cmt>Amenity::entertainment:public_bookcase</cmt>
    <desc>Une ancienne cabine téléphonique donnée la commune voisine de Dargies a été mise ne place au sein du Centre Social Rural du Canton de Grandvilliers.</desc>
    <type>Boite à livre</type>
  </wpt>
  <wpt lat="49.2731332" lon="2.4648302">
    <name>Parc Hébert à côté du Centre des Ressources Culturelles</name>
    <cmt>Amenity::entertainment:public_bookcase</cmt>
    <desc>Inaugurée le 8 Septembre 2018 par le Maire de Nogent Jean François DARDENNE, en présence de Céline ALFRED directrice de la Médiathèque, des Elus et le Club de Liancourt Nogent sur Oise</desc>
    <type>Boite à livre</type>
  </wpt>
  <wpt lat="49.2530069" lon="2.416228">
    <name>Parc de la maladrerie</name>
    <cmt>Amenity::entertainment:public_bookcase</cmt>
    <type>Boite à livre</type>
  </wpt>
  <wpt lat="49.4199508" lon="2.9371417">
    <name>2 rue des Bois</name>
    <cmt>Amenity::entertainment:public_bookcase</cmt>
    <desc>ancienne cabine téléphonique recyclée en boite à livresur la D81</desc>
    <type>Boite à livre</type>
  </wpt>
  <wpt lat="49.468456" lon="2.8633819">
    <name>Rue des écoles</name>
    <cmt>Amenity::entertainment:public_bookcase</cmt>
    <desc>Installée en Mai 2018 par la ville, elle est située à proximité de l&apos;arrêt de bus</desc>
    <type>Boite à livre</type>
  </wpt>
  <wpt lat="49.4617843" lon="2.8879358">
    <name>Avenue saint Sulpice</name>
    <cmt>Amenity::entertainment:public_bookcase</cmt>
    <desc>Elle se trouve au croisement de l avenue saint Sulpice avec la rue d&apos;offemont.</desc>
    <type>Boite à livre</type>
  </wpt>
  <wpt lat="49.201438" lon="2.121941">
    <name>Rue corberue</name>
    <cmt>Amenity::entertainment:public_bookcase</cmt>
    <desc>Au niveau de l église, en hauteur hauteur sur le jardin juste å côté.</desc>
    <type>Boite à livre</type>
  </wpt>
  <wpt lat="50.3080787" lon="3.572091">
    <name>25 rue du docteur calmette</name>
    <cmt>Amenity::entertainment:public_bookcase</cmt>
    <type>Boite à livre</type>
  </wpt>
  <wpt lat="50.7511263" lon="3.1520837">
    <name>9 Rue de Tourcoing</name>
    <cmt>Amenity::entertainment:public_bookcase</cmt>
    <desc>Devant la Bibliothèque pour Tous</desc>
    <type>Boite à livre</type>
  </wpt>
  <wpt lat="50.6946656" lon="2.7255842">
    <name>Place du Château</name>
    <cmt>Amenity::entertainment:public_bookcase</cmt>
    <desc>à l école maternelle</desc>
    <type>Boite à livre</type>
  </wpt>
  <wpt lat="50.6574755" lon="2.7184607">
    <name>Rue du Bois</name>
    <cmt>Amenity::entertainment:public_bookcase</cmt>
    <desc>c&apos;est un particulier qui l&apos;a installé en face de chez  lui</desc>
    <type>Boite à livre</type>
  </wpt>
  <wpt lat="50.6445509" lon="2.7216262">
    <name>Place de l&apos;Hotel de Ville</name>
    <cmt>Amenity::entertainment:public_bookcase</cmt>
    <desc>Face à la mairie</desc>
    <type>Boite à livre</type>
  </wpt>
  <wpt lat="50.7068629" lon="3.0995403">
    <name>rue norbert Ségard</name>
    <cmt>Amenity::entertainment:public_bookcase</cmt>
    <desc>...Face à la maison de retraite !</desc>
    <type>Boite à livre</type>
  </wpt>
  <wpt lat="50.7036051" lon="3.0927452">
    <name>3 rue du docteur Bosquiel</name>
    <cmt>Amenity::entertainment:public_bookcase</cmt>
    <desc>La boîte à livres se trouve sur la voie piétonne près de la bibliothèque.</desc>
    <type>Boite à livre</type>
  </wpt>
  <wpt lat="50.7029457" lon="3.09747">
    <name>Avenue du général de Gaulle</name>
    <cmt>Amenity::entertainment:public_bookcase</cmt>
    <desc>La boite à lire se trouve à proximité du groupe scolaire Les Obeaux et près du complexe sportif.</desc>
    <type>Boite à livre</type>
  </wpt>
  <wpt lat="50.4268798" lon="3.3191521">
    <name>300 rue Émile d&apos;Herbometz</name>
    <cmt>Amenity::entertainment:public_bookcase</cmt>
    <desc>Juste devant la mairie.</desc>
    <type>Boite à livre</type>
  </wpt>
  <wpt lat="50.6975784" lon="2.8564092">
    <name>1442 Rue d Armentières</name>
    <cmt>Amenity::entertainment:public_bookcase</cmt>
    <desc>Sur le mur du CCAS</desc>
    <type>Boite à livre</type>
  </wpt>
  <wpt lat="50.7003691" lon="2.849391">
    <name>849 rue d Armentières</name>
    <cmt>Amenity::entertainment:public_bookcase</cmt>
    <desc>La boîte se trouve sur la façade de la MLC</desc>
    <type>Boite à livre</type>
  </wpt>
  <wpt lat="50.7046884" lon="2.8393953">
    <name>16 rue de warneton</name>
    <cmt>Amenity::entertainment:public_bookcase</cmt>
    <desc>La boite se situe à l&apos;entrée du Parc du Château. Partager le plaisir de lire...</desc>
    <type>Boite à livre</type>
  </wpt>
  <wpt lat="50.6368367" lon="3.0625462">
    <name>7 rue nationale</name>
    <cmt>Amenity::entertainment:public_bookcase</cmt>
    <desc>Pomme de Pain LILLE</desc>
    <type>Boite à livre</type>
  </wpt>
  <wpt lat="50.64236466831447" lon="3.088177442550659">
    <name>205 bis rue du Faubourg de Roubaix</name>
    <cmt>Amenity::entertainment:public_bookcase</cmt>
    <desc>Au niveau de la médiathèque de quartier !</desc>
    <type>Boite à livre</type>
  </wpt>
  <wpt lat="50.6369281" lon="3.0625248">
    <name>7 rue Nationale</name>
    <cmt>Amenity::entertainment:public_bookcase</cmt>
    <desc>La boite à lire se trouve dans le restaurant Pomme de Pain.</desc>
    <type>Boite à livre</type>
  </wpt>
  <wpt lat="50.6388611" lon="3.0757133">
    <name>Gare de Lille Europe</name>
    <cmt>Amenity::entertainment:public_bookcase</cmt>
    <desc>Entre les halls 1 et 2 de la gare Lille Europe.</desc>
    <type>Boite à livre</type>
  </wpt>
  <wpt lat="50.673389" lon="3.1216135">
    <name>Impasse du Triest</name>
    <cmt>Amenity::entertainment:public_bookcase</cmt>
    <desc>La boîte se trouve au sein de la ferme Dehaudt, elle est accessible en fonction des horaires d ouverture</desc>
    <type>Boite à livre</type>
  </wpt>
  <wpt lat="50.9827181" lon="1.9679158">
    <name>rue ROBELIN</name>
    <cmt>Amenity::entertainment:public_bookcase</cmt>
    <desc>face a l église a 50 metre</desc>
    <type>Boite à livre</type>
  </wpt>
  <wpt lat="50.2564404" lon="3.9375076">
    <name>Centre Commercial Auchan D121</name>
    <cmt>Amenity::entertainment:public_bookcase</cmt>
    <type>Boite à livre</type>
  </wpt>
  <wpt lat="50.6600939" lon="3.0807925">
    <name>22 rue Pasteur</name>
    <cmt>Amenity::entertainment:public_bookcase</cmt>
    <desc>La boite se trouve dans le Square Poggibosi.</desc>
    <type>Boite à livre</type>
  </wpt>
  <wpt lat="50.6651217" lon="3.0834263">
    <name>63 boulevard Clémenceau</name>
    <cmt>Amenity::entertainment:public_bookcase</cmt>
    <desc>La boite à lire se trouve à proximité du Parc du petit prince.</desc>
    <type>Boite à livre</type>
  </wpt>
  <wpt lat="50.67837691597565" lon="3.093338012695313">
    <name>56 rue Albert Bailly</name>
    <cmt>Amenity::entertainment:public_bookcase</cmt>
    <desc>La boîte se trouve à l&apos;entrée de le Médiathèque. Elle est accessible aux horaires d&apos;ouverture de la médiathèque.</desc>
    <type>Boite à livre</type>
  </wpt>
  <wpt lat="50.2561969" lon="3.9997501">
    <name>1 Rue Aristide Briand</name>
    <cmt>Amenity::entertainment:public_bookcase</cmt>
    <desc>À l eco velo</desc>
    <type>Boite à livre</type>
  </wpt>
  <wpt lat="50.2399671" lon="4.0163092">
    <name>44 rue du Lieutenant Boucly</name>
    <cmt>Amenity::entertainment:public_bookcase</cmt>
    <type>Boite à livre</type>
  </wpt>
  <wpt lat="50.6173045" lon="3.1427805">
    <name>Rue traversière</name>
    <cmt>Amenity::entertainment:public_bookcase</cmt>
    <desc>La boîte à livres est située dans le hall du cinéma Le méliès.</desc>
    <type>Boite à livre</type>
  </wpt>
  <wpt lat="50.6373283" lon="3.1273274">
    <name>27 rue Général Leclerc</name>
    <cmt>Amenity::entertainment:public_bookcase</cmt>
    <desc>juste devant la Poste du quartier château de Flers</desc>
    <type>Boite à livre</type>
  </wpt>
  <wpt lat="50.6054121" lon="3.1577361">
    <name>Parc de la haute borne</name>
    <cmt>Amenity::entertainment:public_bookcase</cmt>
    <desc>Dans le parc à jeux pour enfants</desc>
    <type>Boite à livre</type>
  </wpt>
  <wpt lat="50.6053943" lon="3.1389991">
    <name>Parking métro 4 cantons</name>
    <cmt>Amenity::entertainment:public_bookcase</cmt>
    <desc>Pratique de pouvoir prendre un livre avant de prendre le métro !</desc>
    <type>Boite à livre</type>
  </wpt>
  <wpt lat="50.637707" lon="3.127397">
    <name>Rue du Général Leclerc</name>
    <cmt>Amenity::entertainment:public_bookcase</cmt>
    <desc>Devant la mairie annexe de Flers-Bourg</desc>
    <type>Boite à livre</type>
  </wpt>
  <wpt lat="50.6378892" lon="3.1270356">
    <name>33 Rue du General Leclerc</name>
    <cmt>Amenity::entertainment:public_bookcase</cmt>
    <desc>La boite à lire se situe juste à l&apos;entrée de la mairie de quartier de Flers Bourg  dans un meuble à porte vitrée.</desc>
    <type>Boite à livre</type>
  </wpt>
  <wpt lat="50.0465223" lon="4.0329343">
    <name>27 rue heureuse</name>
    <cmt>Amenity::entertainment:public_bookcase</cmt>
    <desc>Elle se trouve dans la salle d attente du dentiste.</desc>
    <type>Boite à livre</type>
  </wpt>
  <wpt lat="50.2988066" lon="3.7944506">
    <name>Place Charles De Gaulle</name>
    <cmt>Amenity::entertainment:public_bookcase</cmt>
    <desc>Dans une ancienne cabine téléphonique ! !</desc>
    <type>Boite à livre</type>
  </wpt>
  <wpt lat="50.136823" lon="3.763156">
    <name>Ruelle Maillet</name>
    <cmt>Amenity::entertainment:public_bookcase</cmt>
    <type>Boite à livre</type>
  </wpt>
  <wpt lat="50.2714814" lon="3.6781394">
    <name>Place de l église</name>
    <cmt>Amenity::entertainment:public_bookcase</cmt>
    <type>Boite à livre</type>
  </wpt>
  <wpt lat="50.6543546" lon="3.183828">
    <name>Place du marché</name>
    <cmt>Amenity::entertainment:public_bookcase</cmt>
    <desc>A proximité du cimetière, à côté de l?air de jeux</desc>
    <type>Boite à livre</type>
  </wpt>
  <wpt lat="50.669519" lon="3.174101">
    <name>Rue Racine</name>
    <cmt>Amenity::entertainment:public_bookcase</cmt>
    <desc>A côté du centre social</desc>
    <type>Boite à livre</type>
  </wpt>
  <wpt lat="50.3682282" lon="3.079853">
    <name>7 Rue Léon Gambetta</name>
    <cmt>Amenity::entertainment:public_bookcase</cmt>
    <desc>Zone de dépôt à même le sol, au pied d une peinture à la bombe.À droite de La Baraque aux arts.</desc>
    <type>Boite à livre</type>
  </wpt>
  <wpt lat="50.3714487" lon="3.0865894">
    <name>Place Carnot</name>
    <cmt>Amenity::entertainment:public_bookcase</cmt>
    <desc>Ancienne cabine téléphonique aménagée et peinte en multicolore, face au laboratoire.</desc>
    <type>Boite à livre</type>
  </wpt>
  <wpt lat="50.3714487" lon="3.0865894">
    <name>Place Carnot</name>
    <cmt>Amenity::entertainment:public_bookcase</cmt>
    <desc>Ancienne cabine téléphonique peinte en multicolore.</desc>
    <type>Boite à livre</type>
  </wpt>
  <wpt lat="50.3674776" lon="3.0803782">
    <name>83 Rue de la Mairie</name>
    <cmt>Amenity::entertainment:public_bookcase</cmt>
    <desc>Située sous porche de Douai mairie du beffroi.</desc>
    <type>Boite à livre</type>
  </wpt>
  <wpt lat="50.2909528" lon="4.1058025">
    <name>15, boulevard Dunant</name>
    <cmt>Amenity::entertainment:public_bookcase</cmt>
    <desc>Derrière la Mia, où se trouve la crèche</desc>
    <type>Boite à livre</type>
  </wpt>
  <wpt lat="50.6983136" lon="3.1316138">
    <name>Rue de Lille</name>
    <cmt>Amenity::entertainment:public_bookcase</cmt>
    <desc>La boîte se trouve dans le parc du Hautmont près des jeux</desc>
    <type>Boite à livre</type>
  </wpt>
  <wpt lat="50.2076521" lon="3.9247891">
    <name>rue des falizes</name>
    <cmt>Amenity::entertainment:public_bookcase</cmt>
    <desc>dans une ruelle</desc>
    <type>Boite à livre</type>
  </wpt>
  <wpt lat="50.6321722" lon="2.9688254">
    <name>Centre Commercial Auchan Les Géants, 352 Route nationale, lot 85</name>
    <cmt>Amenity::entertainment:public_bookcase</cmt>
    <type>Boite à livre</type>
  </wpt>
  <wpt lat="50.6088503" lon="2.9844907">
    <name>Place Blondeau , devant le Centre Lequime</name>
    <cmt>Amenity::entertainment:public_bookcase</cmt>
    <type>Boite à livre</type>
  </wpt>
  <wpt lat="50.6144529" lon="2.9896947">
    <name>Ferme du Bocquiau</name>
    <cmt>Amenity::entertainment:public_bookcase</cmt>
    <type>Boite à livre</type>
  </wpt>
  <wpt lat="50.6136348" lon="2.9624918">
    <name>rue Gambetta</name>
    <cmt>Amenity::entertainment:public_bookcase</cmt>
    <desc>Devant l&apos;école maternelle Victor Loridan à côté du parking</desc>
    <type>Boite à livre</type>
  </wpt>
  <wpt lat="50.6221309" lon="2.9299963">
    <name>mairie</name>
    <cmt>Amenity::entertainment:public_bookcase</cmt>
    <type>Boite à livre</type>
  </wpt>
  <wpt lat="50.4741972" lon="3.3003783">
    <name>75 rue du Général de Gaulle</name>
    <cmt>Amenity::entertainment:public_bookcase</cmt>
    <desc>Livres à croquer à l&apos;initiative du Conseil Municipal des Jeunes.</desc>
    <type>Boite à livre</type>
  </wpt>
  <wpt lat="50.3570311" lon="3.5245718">
    <name>12 Rue de la Halle</name>
    <cmt>Amenity::entertainment:public_bookcase</cmt>
    <desc>Au rez-de chaussée du centre commercial  au niveau du salon  devant l&apos;accueil.</desc>
    <type>Boite à livre</type>
  </wpt>
  <wpt lat="50.2453399" lon="3.274621">
    <name>3 Rue du Four</name>
    <cmt>Amenity::entertainment:public_bookcase</cmt>
    <desc>Boite à lire et boite à don.</desc>
    <type>Boite à livre</type>
  </wpt>
  <wpt lat="50.670404912938885" lon="3.127718567848206">
    <name>Rue Jean Macé</name>
    <cmt>Amenity::entertainment:public_bookcase</cmt>
    <desc>Située dans le petit square juste à coté de l office de tourisme.</desc>
    <type>Boite à livre</type>
  </wpt>
  <wpt lat="50.673821651458944" lon="3.12086820602417">
    <name>Impasse du Triest</name>
    <cmt>Amenity::entertainment:public_bookcase</cmt>
    <desc>A l entrée de la Ferme Dehaudt</desc>
    <type>Boite à livre</type>
  </wpt>
  <wpt lat="50.6976983" lon="2.8863266">
    <name>1 Rue du Maréchal Joffre</name>
    <cmt>Amenity::entertainment:public_bookcase</cmt>
    <desc>La Cabine aux Livres du Bizet, Centre Social des 4 Saisons</desc>
    <type>Boite à livre</type>
  </wpt>
  <wpt lat="50.6887676" lon="2.8718696">
    <name>96 Rue Jules Lebleu</name>
    <cmt>Amenity::entertainment:public_bookcase</cmt>
    <desc>Entrée de l IFSI à droite des batiments.</desc>
    <type>Boite à livre</type>
  </wpt>
  <wpt lat="50.68683" lon="2.8702665">
    <name>rue Jules Lebleu</name>
    <cmt>Amenity::entertainment:public_bookcase</cmt>
    <desc>A droite du sas de la maternité.</desc>
    <type>Boite à livre</type>
  </wpt>
  <wpt lat="50.6836562" lon="2.8689141">
    <name>112 rue Sadi Carnot</name>
    <cmt>Amenity::entertainment:public_bookcase</cmt>
    <desc>A côté de l&apos;entrée principale du Centre Hospitalier à droite côté parking.</desc>
    <type>Boite à livre</type>
  </wpt>
  <wpt lat="50.691652" lon="2.884218">
    <name>2dada3hotmail.fr.com@gmail.com</name>
    <cmt>Amenity::entertainment:public_bookcase</cmt>
    <desc>je voudrait que vous donner 5 euro par se que on deviens de moin en moin riche vaite quel que chosse</desc>
    <type>Boite à livre</type>
  </wpt>
  <wpt lat="50.7374657" lon="2.7327974">
    <name>Square Plichon</name>
    <cmt>Amenity::entertainment:public_bookcase</cmt>
    <desc>Dans le square Plichon</desc>
    <type>Boite à livre</type>
  </wpt>
  <wpt lat="50.7305473" lon="2.7371836">
    <name>Jardin âge</name>
    <cmt>Amenity::entertainment:public_bookcase</cmt>
    <desc>Dans le parc Dufour, pour aller au Crefo</desc>
    <type>Boite à livre</type>
  </wpt>
  <wpt lat="50.6140985" lon="3.112634">
    <name>32 rue Paul vaillant couturier</name>
    <cmt>Amenity::entertainment:public_bookcase</cmt>
    <desc>Découvrez une ancienne cabinet téléphonique où vous trouvez livres, jouets, etc.</desc>
    <type>Boite à livre</type>
  </wpt>
  <wpt lat="50.528638" lon="3.175672">
    <name>Place de la gare</name>
    <cmt>Amenity::entertainment:public_bookcase</cmt>
    <desc>Kiosque belle époque.</desc>
    <type>Boite à livre</type>
  </wpt>
  <wpt lat="50.5095527" lon="3.1714996">
    <name>47 Rue du Général de Gaulle</name>
    <cmt>Amenity::entertainment:public_bookcase</cmt>
    <desc>Cabane en bois mobile</desc>
    <type>Boite à livre</type>
  </wpt>
  <wpt lat="50.5306305" lon="3.2132289">
    <name>951 Rue de la Libération</name>
    <cmt>Amenity::entertainment:public_bookcase</cmt>
    <desc>Cabine de plage</desc>
    <type>Boite à livre</type>
  </wpt>
  <wpt lat="50.307778" lon="3.482832">
    <name>rue jean jaurès - parvis de la mairie</name>
    <cmt>Amenity::entertainment:public_bookcase</cmt>
    <desc>Prenez  Lisez  puis  Rapportezquand  vous  voulezcomme  vous  voulezAccessible  sans  abonnementni   inscription7  jours   sur   724  h  sur  24et  c est  gratuit !</desc>
    <type>Boite à livre</type>
  </wpt>
  <wpt lat="50.3074903" lon="3.4816197">
    <name>rue jean jaurès</name>
    <cmt>Amenity::entertainment:public_bookcase</cmt>
    <desc>parvis de la mairie</desc>
    <type>Boite à livre</type>
  </wpt>
  <wpt lat="50.708467" lon="2.599357">
    <name>Hameau de Sec-Bois</name>
    <cmt>Amenity::entertainment:public_bookcase</cmt>
    <type>Boite à livre</type>
  </wpt>
  <wpt lat="50.6156789" lon="2.9606617">
    <name>43 rue Louis Pasteur</name>
    <cmt>Amenity::entertainment:public_bookcase</cmt>
    <desc>Près du restaurant Le terrier en face de l église</desc>
    <type>Boite à livre</type>
  </wpt>
  <wpt lat="50.5946897" lon="2.9582733">
    <name>Rue du Mal Foch</name>
    <cmt>Amenity::entertainment:public_bookcase</cmt>
    <type>Boite à livre</type>
  </wpt>
  <wpt lat="50.5886617" lon="2.9635915">
    <name>rue pasteur</name>
    <cmt>Amenity::entertainment:public_bookcase</cmt>
    <type>Boite à livre</type>
  </wpt>
  <wpt lat="51.0211373" lon="2.3762316">
    <name>36 Rue des forts</name>
    <cmt>Amenity::entertainment:public_bookcase</cmt>
    <desc>Devant le petit stendham. Attention, il faut mettre les livres parallèlement à l&apos;ouverture sinon ils risquent de s&apos;abimer.</desc>
    <type>Boite à livre</type>
  </wpt>
  <wpt lat="51.0075788" lon="2.3864414">
    <name>Parc du Fort Louis</name>
    <cmt>Amenity::entertainment:public_bookcase</cmt>
    <desc>Située près du parking à vélo à l&apos;entrée principale.</desc>
    <type>Boite à livre</type>
  </wpt>
  <wpt lat="50.7242267" lon="3.1680602">
    <name>32 rue du moulin Fagot</name>
    <cmt>Amenity::entertainment:public_bookcase</cmt>
    <desc>La boîte se trouve au jardin botanique de Tourcoing. Attention aux horaires en fonction des horaires du service espaces verts et jardin.</desc>
    <type>Boite à livre</type>
  </wpt>
  <wpt lat="50.7250215" lon="2.5398845">
    <name>Gare</name>
    <cmt>Amenity::entertainment:public_bookcase</cmt>
    <desc>La boite se trouve devant la gare.</desc>
    <type>Boite à livre</type>
  </wpt>
  <wpt lat="50.7590331" lon="2.6047363">
    <name>Grande Place Grand Place</name>
    <cmt>Amenity::entertainment:public_bookcase</cmt>
    <desc>La boîte est bien visible, devant la mairie et à côté de l église, dans les tons bleus, similaire, d&apos;ailleurs, à celle de la gare d&apos;Hazebrouck à qui il manque hélas actuellement une porte...</desc>
    <type>Boite à livre</type>
  </wpt>
  <wpt lat="50.7250474" lon="2.5414763">
    <name>Gare de Hazebrouck</name>
    <cmt>Amenity::entertainment:public_bookcase</cmt>
    <desc>La boîte se situe sur le parvis de la Gare.</desc>
    <type>Boite à livre</type>
  </wpt>
  <wpt lat="50.3547636" lon="3.1256412">
    <name>14 rue Victor Hugo</name>
    <cmt>Amenity::entertainment:public_bookcase</cmt>
    <desc>Elle se situe sur le mur gauche du presbytère de Dechy.</desc>
    <type>Boite à livre</type>
  </wpt>
  <wpt lat="50.413956" lon="3.364305">
    <name>RUE VICTOR RENARD</name>
    <cmt>Amenity::entertainment:public_bookcase</cmt>
    <desc>vous pouvez y déposer livres, magazine et BD</desc>
    <type>Boite à livre</type>
  </wpt>
  <wpt lat="50.4142519" lon="3.4032348">
    <name>19 rue Fernand Pelloutier</name>
    <cmt>Amenity::entertainment:public_bookcase</cmt>
    <desc>A côté de l&apos;école Marcelle et Paul François.</desc>
    <type>Boite à livre</type>
  </wpt>
  <wpt lat="50.6677748" lon="3.1683082">
    <name>14 avenue Winston Churchill</name>
    <cmt>Amenity::entertainment:public_bookcase</cmt>
    <desc>C est une boîte à livre qui se trouve dans le parc Mallet Stevens à Croix, elle est tout simple et encore peu de livres... Vu qu&apos;il n&apos;y a pas d&apos;indications</desc>
    <type>Boite à livre</type>
  </wpt>
  <wpt lat="50.680511" lon="3.1557306">
    <name>187 rue Jean Jaurès</name>
    <cmt>Amenity::entertainment:public_bookcase</cmt>
    <desc>Dans le parc de la marie, près du kiosque à musique.</desc>
    <type>Boite à livre</type>
  </wpt>
  <wpt lat="50.6463797" lon="2.9946468">
    <name>794 Avenue de Dunkerque</name>
    <cmt>Amenity::entertainment:public_bookcase</cmt>
    <desc>Boîte jaune et blanche en plastique ondulé située au sein de l Odyssée médiathèque, à deux pas de Maison des enfants. Premier hall près du distributeur de boissons, entre l&apos;accueil et la salle informatique.</desc>
    <type>Boite à livre</type>
  </wpt>
  <wpt lat="50.5819273" lon="3.0807768">
    <name>Centre commercial Auchan-Fâches</name>
    <cmt>Amenity::entertainment:public_bookcase</cmt>
    <desc>Se situe en face du magasin Edisac dans la galerie d Auchan</desc>
    <type>Boite à livre</type>
  </wpt>
  <wpt lat="50.585239" lon="3.086128">
    <name>centre ccial Auchan</name>
    <cmt>Amenity::entertainment:public_bookcase</cmt>
    <desc>La boîte à lire se trouve dans le magasin OPTIQUE 10/10 situé sur le parking Boulanger. Système d échange de livres gratuit. Beaucoup de choix et livres en très bon état. Livres actuels et anciens, adultes / enfants ... Tous styles de livres.</desc>
    <type>Boite à livre</type>
  </wpt>
  <wpt lat="50.5826718" lon="3.0793905">
    <name>Chemin de Templemars</name>
    <cmt>Amenity::entertainment:public_bookcase</cmt>
    <desc>La boite à lire se trouve devant le Auchan à côté du magasin Swarovski</desc>
    <type>Boite à livre</type>
  </wpt>
  <wpt lat="50.6990881" lon="3.2212895">
    <name>96 rue François Mériaux</name>
    <cmt>Amenity::entertainment:public_bookcase</cmt>
    <desc>Ce n est pas une boîte à livre en règle, c est un espace d&apos;échange de livres à l&apos;intérieur du Musée des Arts et Traditions Populaires de la ville de Wattrelos. L&apos;entrée est gratuite et la visite du musée est instructive, les reconstitutions historiques sont réalistes . Du Mardi au samedi de 9h à 12h et de 14h à 18h le dimanche de 15h à 18h</desc>
    <type>Boite à livre</type>
  </wpt>
  <wpt lat="50.2126027" lon="3.8563431">
    <name>Rue de la Cavée</name>
    <cmt>Amenity::entertainment:public_bookcase</cmt>
    <desc>Boîte à lire tout public.</desc>
    <type>Boite à livre</type>
  </wpt>
  <wpt lat="50.0586162" lon="4.1044937">
    <name>2 rue Victor Hugo</name>
    <cmt>Amenity::entertainment:public_bookcase</cmt>
    <desc>Elle se trouve dans la cour de la maison de santé.</desc>
    <type>Boite à livre</type>
  </wpt>
  <wpt lat="50.1190025" lon="4.1362396">
    <name>Val joly</name>
    <cmt>Amenity::entertainment:public_bookcase</cmt>
    <desc>En face de la fontaine au val Joly.</desc>
    <type>Boite à livre</type>
  </wpt>
  <wpt lat="50.0404597" lon="4.1181758">
    <name>8 place du marechal foch</name>
    <cmt>Amenity::entertainment:public_bookcase</cmt>
    <desc>Juste en face de la mairie.</desc>
    <type>Boite à livre</type>
  </wpt>
  <wpt lat="50.6518982" lon="3.039675">
    <name>castel st Gérard</name>
    <cmt>Amenity::entertainment:public_bookcase</cmt>
    <type>Boite à livre</type>
  </wpt>
  <wpt lat="50.6516329" lon="3.0379273">
    <name>rue Le Nôtre</name>
    <cmt>Amenity::entertainment:public_bookcase</cmt>
    <desc>Devant les jeux d enfants/sable</desc>
    <type>Boite à livre</type>
  </wpt>
  <wpt lat="50.734341" lon="3.080474">
    <name>Rue Raoul Follereau</name>
    <cmt>Amenity::entertainment:public_bookcase</cmt>
    <desc>La boîte en forme de carottes se trouve au pied de la résidence.</desc>
    <type>Boite à livre</type>
  </wpt>
  <wpt lat="50.7366795" lon="3.0849376">
    <name>Rue du docteur Schweitzer</name>
    <cmt>Amenity::entertainment:public_bookcase</cmt>
    <desc>La boîte à lire se trouve au bout de la rue, elle est installée dans le grillage du parc.</desc>
    <type>Boite à livre</type>
  </wpt>
  <wpt lat="50.7375893" lon="3.0821674">
    <name>5 Avenue Robert Deschamps</name>
    <cmt>Amenity::entertainment:public_bookcase</cmt>
    <desc>La boite à lire se trouve à l&apos;entrée du centre enfance/famille de la commune</desc>
    <type>Boite à livre</type>
  </wpt>
  <wpt lat="51.0698034" lon="2.5243916">
    <name>41 rue des grenadiers</name>
    <cmt>Amenity::entertainment:public_bookcase</cmt>
    <desc>une boîte à livres créée par les élèves du collège du Septentrion . Elle est placée sur le mur de la  Maison pour tous, derrière la mairie.</desc>
    <type>Boite à livre</type>
  </wpt>
  <wpt lat="50.5290839" lon="2.9318335">
    <name>Place du Général de Gaulle</name>
    <cmt>Amenity::entertainment:public_bookcase</cmt>
    <type>Boite à livre</type>
  </wpt>
  <wpt lat="50.5318517" lon="2.9284693">
    <name>Rue de la Bouvaque</name>
    <cmt>Amenity::entertainment:public_bookcase</cmt>
    <type>Boite à livre</type>
  </wpt>
  <wpt lat="50.6552874" lon="3.0741885">
    <name>Rue Guynemer</name>
    <cmt>Amenity::entertainment:public_bookcase</cmt>
    <desc>La boite se trouve dans l enceinte du parc Malraux</desc>
    <type>Boite à livre</type>
  </wpt>
  <wpt lat="50.6549863" lon="3.0736561">
    <name>Rue du Général de Gaulle</name>
    <cmt>Amenity::entertainment:public_bookcase</cmt>
    <desc>Face à la mairie. Une sorte de vieux clapier destiné aux dons.</desc>
    <type>Boite à livre</type>
  </wpt>
  <wpt lat="50.6830231" lon="3.1648206">
    <name>33 boulevard de cambrai</name>
    <cmt>Amenity::entertainment:public_bookcase</cmt>
    <desc>bien sympathique</desc>
    <type>Boite à livre</type>
  </wpt>
  <wpt lat="50.6893292" lon="3.1706553">
    <name>20 rue Sébastopol</name>
    <cmt>Amenity::entertainment:public_bookcase</cmt>
    <desc>A l&apos;intérieur de la Coopérative Baraka, tous les livres sont voyageurs, à emporter selon les envies, sans restriction.</desc>
    <type>Boite à livre</type>
  </wpt>
  <wpt lat="50.67886" lon="3.1919679">
    <name>Eglise Saint-Michel</name>
    <cmt>Amenity::entertainment:public_bookcase</cmt>
    <desc>La boite à lire se situe à l&apos;entrée de l&apos;église Saint Michel.</desc>
    <type>Boite à livre</type>
  </wpt>
  <wpt lat="50.6912726" lon="3.1604226">
    <name>rue du Vivier</name>
    <cmt>Amenity::entertainment:public_bookcase</cmt>
    <desc>Pour déposer  pour consulter ou lire  les horaires d ouvertures du jardin ont été revus  élargis  et se répartissent comme suit Mercredi de 10 à 12 h et de 14 à 16 h - Vendredi de 10 à 14 h - Samedi de 10 à 12 et de 14 à 16 h.</desc>
    <type>Boite à livre</type>
  </wpt>
  <wpt lat="50.629674" lon="3.0647071">
    <name>6 Rue Jeanne d Arc à Lille</name>
    <cmt>Amenity::entertainment:public_bookcase</cmt>
    <desc>Devant l Atelier des Petites Créations</desc>
    <type>Boite à livre</type>
  </wpt>
  <wpt lat="50.6300958" lon="3.038688">
    <name>77 rue Roland</name>
    <cmt>Amenity::entertainment:public_bookcase</cmt>
    <desc>Situé dans la cour du centre socio  culturel Simone Veil du quartier Vauban Esquermes</desc>
    <type>Boite à livre</type>
  </wpt>
  <wpt lat="50.6326155" lon="3.0631015">
    <name>Place du marché aux chevaux</name>
    <cmt>Amenity::entertainment:public_bookcase</cmt>
    <desc>Bien devant le Café Citoyen : il s agit de trois classeurs ménagers recyclés et installés à la verticale dans lesquels vous pourrez déposer vos trésors...</desc>
    <type>Boite à livre</type>
  </wpt>
  <wpt lat="50.653205" lon="3.092982">
    <name>Rue des Rouges Barres</name>
    <cmt>Amenity::entertainment:public_bookcase</cmt>
    <desc>A l&apos;angle de cette rue et de la rue Robert Schuman près la Maison de la Jeunesse du Buisson</desc>
    <type>Boite à livre</type>
  </wpt>
  <wpt lat="50.6107489" lon="3.0546225">
    <name>7 bis, rue de l Asie</name>
    <cmt>Amenity::entertainment:public_bookcase</cmt>
    <desc>Armoire en bois située dans le hall de la Fabrique du Sud, à côté de la médiathèque.</desc>
    <type>Boite à livre</type>
  </wpt>
  <wpt lat="50.6311456" lon="3.0257534">
    <name>Rue des Bois Blancs</name>
    <cmt>Amenity::entertainment:public_bookcase</cmt>
    <desc>à coté de l église</desc>
    <type>Boite à livre</type>
  </wpt>
  <wpt lat="50.6322667" lon="3.0607213">
    <name>boulevard de la liberté</name>
    <cmt>Amenity::entertainment:public_bookcase</cmt>
    <desc>espace ou déposer ou prendre des livres. Se situe dans le snack la pomme de pain.</desc>
    <type>Boite à livre</type>
  </wpt>
  <wpt lat="50.6243194" lon="3.0811551">
    <name>235 Boulevard Paul Painlevé</name>
    <cmt>Amenity::entertainment:public_bookcase</cmt>
    <desc>Une toute nouvelle boîte à lire vient d ouvrir ses portes dans l enceinte de l&apos;Auberge de Jeunesse HI Lille ! Venez échanger des livres avec des voyageurs du monde entier !</desc>
    <type>Boite à livre</type>
  </wpt>
  <wpt lat="50.6134077" lon="3.073225">
    <name>99, rue du Jardin des Plantes</name>
    <cmt>Amenity::entertainment:public_bookcase</cmt>
    <desc>2 étagères régulièrement pleines de lvires vous attendent dans nos locaux de 09h00 à 17h00 du lundi au vendredi</desc>
    <type>Boite à livre</type>
  </wpt>
  <wpt lat="50.27248" lon="1.667315">
    <name>rue du village</name>
    <cmt>Amenity::entertainment:public_bookcase</cmt>
    <desc>adossée au mur de l école communale</desc>
    <type>Boite à livre</type>
  </wpt>
  <wpt lat="50.27248" lon="1.667315">
    <name>rue du Village</name>
    <cmt>Amenity::entertainment:public_bookcase</cmt>
    <desc>Accolée au mur de l école communale</desc>
    <type>Boite à livre</type>
  </wpt>
  <wpt lat="49.6496818" lon="3.382692">
    <name>18, rue Jean-Jaurès</name>
    <cmt>Amenity::entertainment:public_bookcase</cmt>
    <desc>Boîte à livres mise à disposition à l entrée du château de Charmes Aisne</desc>
    <type>Boite à livre</type>
  </wpt>
  <wpt lat="49.24197" lon="3.078107">
    <name>Aire de jeux Fg de Pisseleux</name>
    <cmt>Amenity::entertainment:public_bookcase</cmt>
    <desc>A proximité des écoles maternelles et primaires</desc>
    <type>Boite à livre</type>
  </wpt>
  <wpt lat="49.2545289" lon="3.0878354">
    <name>Aire de jeux du Parc Salanson</name>
    <cmt>Amenity::entertainment:public_bookcase</cmt>
    <desc>A proximité des écoles maternelle et primaire du centre ville</desc>
    <type>Boite à livre</type>
  </wpt>
  <wpt lat="49.2587755" lon="3.1005035">
    <name>Aire de jeux Jean Zay</name>
    <cmt>Amenity::entertainment:public_bookcase</cmt>
    <desc>A proximité de l école maternelle du quartier de la route de Vivières</desc>
    <type>Boite à livre</type>
  </wpt>
  <wpt lat="49.5927886" lon="3.4307505">
    <name>Rue des Houppeux</name>
    <cmt>Amenity::entertainment:public_bookcase</cmt>
    <type>Boite à livre</type>
  </wpt>
  <wpt lat="49.5927886" lon="3.4307505">
    <name>Rue des Houppeux</name>
    <cmt>Amenity::entertainment:public_bookcase</cmt>
    <type>Boite à livre</type>
  </wpt>
  <wpt lat="49.595572" lon="3.378714">
    <name>rue de Montevideo</name>
    <cmt>Amenity::entertainment:public_bookcase</cmt>
    <type>Boite à livre</type>
  </wpt>
  <wpt lat="49.0415143" lon="3.4011844">
    <name>Rue Paul Doucet</name>
    <cmt>Amenity::entertainment:public_bookcase</cmt>
    <type>Boite à livre</type>
  </wpt>
  <wpt lat="49.0403809" lon="3.404904">
    <name>Place Paul Doumer</name>
    <cmt>Amenity::entertainment:public_bookcase</cmt>
    <desc>Près du parking juste avant le pont, à côté du Quai Dupuis Delizy.</desc>
    <type>Boite à livre</type>
  </wpt>
  <wpt lat="49.0434747" lon="3.3953779">
    <name>Avenue Jean Lefesvre</name>
    <cmt>Amenity::entertainment:public_bookcase</cmt>
    <desc>Bien pleine cette boîte à lire !</desc>
    <type>Boite à livre</type>
  </wpt>
  <wpt lat="49.4105047" lon="3.5169931">
    <name>Place Général Félix</name>
    <cmt>Amenity::entertainment:public_bookcase</cmt>
    <desc>Boite à lire située sur la place de l église.</desc>
    <type>Boite à livre</type>
  </wpt>
  <wpt lat="49.64578" lon="3.8953272">
    <name>Grande rue</name>
    <cmt>Amenity::entertainment:public_bookcase</cmt>
    <desc>Mise en place début 2017, en lien avec l atelier bricolage du village, 250 habitants</desc>
    <type>Boite à livre</type>
  </wpt>
  <wpt lat="49.513419" lon="3.482238">
    <name>place de la mairie</name>
    <cmt>Amenity::entertainment:public_bookcase</cmt>
    <desc>Sous une halle ouverte à toute heure sur la place face à la mairie</desc>
    <type>Boite à livre</type>
  </wpt>
  <wpt lat="49.4890282" lon="3.4466151">
    <name>6 place charles de gaulle</name>
    <cmt>Amenity::entertainment:public_bookcase</cmt>
    <desc>AU SIEGE DE LA MAISON INTERCOMMUNALE</desc>
    <type>Boite à livre</type>
  </wpt>
  <wpt lat="49.4890282" lon="3.4466151">
    <name>6 place charles de gaulle</name>
    <cmt>Amenity::entertainment:public_bookcase</cmt>
    <desc>AU SIEGE DE LA MAISON INTERCOMMUNALE</desc>
    <type>Boite à livre</type>
  </wpt>
  <wpt lat="48.949185" lon="3.26379">
    <cmt>Amenity::entertainment:public_bookcase</cmt>
    <desc>Boite à lire dans l&apos;abris bus de pisseloup.</desc>
    <type>Boite à livre</type>
  </wpt>
  <wpt lat="49.612529" lon="3.2198624">
    <name>Marché couvert</name>
    <cmt>Amenity::entertainment:public_bookcase</cmt>
    <desc>Ancienne armoire située dans un escalier du marché couvert.</desc>
    <type>Boite à livre</type>
  </wpt>
  <wpt lat="49.6323102" lon="3.1778861">
    <name>RUE DE LA VIEILLE EGLISE</name>
    <cmt>Amenity::entertainment:public_bookcase</cmt>
    <type>Boite à livre</type>
  </wpt>
  <wpt lat="49.405538" lon="3.155393">
    <name>Place de la Fontaine</name>
    <cmt>Amenity::entertainment:public_bookcase</cmt>
    <desc>Seconde boîte à lire voyageur installée dans le village en mai 2014.</desc>
    <type>Boite à livre</type>
  </wpt>
  <wpt lat="49.3875462" lon="3.1484927">
    <name>6 grand rue</name>
    <cmt>Amenity::entertainment:public_bookcase</cmt>
    <desc>Elle a été installée en 2013 dans le cadre de l&apos;opération &quot;&quot;Lectures communes&quot;&quot; initiée par l&apos;association des maires ruraux de France. Elle mène depuis une existence indépendante.</desc>
    <type>Boite à livre</type>
  </wpt>
  <wpt lat="49.803955" lon="3.3436554">
    <name>Rue de puisieux</name>
    <cmt>Amenity::entertainment:public_bookcase</cmt>
    <desc>La boite se situe sur la gauche, face a la boulangerie.</desc>
    <type>Boite à livre</type>
  </wpt>
  <wpt lat="49.8072034" lon="3.3452351">
    <name>Rue de l&apos;Église</name>
    <cmt>Amenity::entertainment:public_bookcase</cmt>
    <desc>Dans la petite impasse Face au groupe scolaire, a côté du centre de loisirs.</desc>
    <type>Boite à livre</type>
  </wpt>
  <wpt lat="49.3771173" lon="3.2770717">
    <name>7 rue Villa-la-Croix</name>
    <cmt>Amenity::entertainment:public_bookcase</cmt>
    <desc>Boite à lire gérée par la mairie.</desc>
    <type>Boite à livre</type>
  </wpt>
  <wpt lat="49.5726033" lon="3.8932325">
    <name>Place de la Grande Roize</name>
    <cmt>Amenity::entertainment:public_bookcase</cmt>
    <desc>Belle boîte à lire se trouvant près de bancs afin de pouvoir lire sur place.</desc>
    <type>Boite à livre</type>
  </wpt>
  <wpt lat="49.8458679" lon="3.2885898">
    <name>14 rue de la Sellerie</name>
    <cmt>Amenity::entertainment:public_bookcase</cmt>
    <desc>A l&apos;intérieur de l&apos;Espace Saint-Jacques, à coté de l&apos;accueil.</desc>
    <type>Boite à livre</type>
  </wpt>
  <wpt lat="49.5614782" lon="3.538989">
    <name>Rue de la plaine</name>
    <cmt>Amenity::entertainment:public_bookcase</cmt>
    <type>Boite à livre</type>
  </wpt>
  <wpt lat="49.5641017" lon="3.6244754">
    <name>devant le presbytère de Vaux à Laon</name>
    <cmt>Amenity::entertainment:public_bookcase</cmt>
    <desc>devant le presbytère de Vaux à Laon à la demande du père Marçin GRZYB .</desc>
    <type>Boite à livre</type>
  </wpt>
  <wpt lat="49.5454775" lon="3.631312">
    <name>228 rue arsene houssaye</name>
    <cmt>Amenity::entertainment:public_bookcase</cmt>
    <desc>A cote du distributeur de fruits et légumes</desc>
    <type>Boite à livre</type>
  </wpt>
  <wpt lat="49.550035" lon="3.611817">
    <name>Rue romanette</name>
    <cmt>Amenity::entertainment:public_bookcase</cmt>
    <desc>Croisement rue jean monnet a l arret de bus</desc>
    <type>Boite à livre</type>
  </wpt>
  <wpt lat="49.5736967" lon="3.6295831">
    <name>Place Pierre Semard</name>
    <cmt>Amenity::entertainment:public_bookcase</cmt>
    <type>Boite à livre</type>
  </wpt>
  <wpt lat="49.5706463" lon="3.6245097">
    <name>gare de Laon</name>
    <cmt>Amenity::entertainment:public_bookcase</cmt>
    <desc>La ville de Laon a installée huit boîtes à livres dans chaque quartier de la ville avec l aide du semeur de livres Jean-Michel Hennequin qui a aussi installé un meuble à livres à la gare de Laon</desc>
    <type>Boite à livre</type>
  </wpt>
  <wpt lat="49.56452" lon="3.6180922">
    <name>rue saint jean</name>
    <cmt>Amenity::entertainment:public_bookcase</cmt>
    <desc>Boite à lire construite par l&apos;association Sève.</desc>
    <type>Boite à livre</type>
  </wpt>
  <wpt lat="49.5642712" lon="3.621731">
    <name>rue châtelaine</name>
    <cmt>Amenity::entertainment:public_bookcase</cmt>
    <desc>Boite à lire construite par l&apos;association Sève !</desc>
    <type>Boite à livre</type>
  </wpt>
  <wpt lat="49.5207498" lon="3.5048163">
    <name>33 rue des Victimes de Comportet</name>
    <cmt>Amenity::entertainment:public_bookcase</cmt>
    <desc>Accessible à tous du Mardi au vendredi de 10h à 12h30 et de 14h à 17h30 ainsi que le samedi matin de 9h30 à 12h30. On vous attend, venez !</desc>
    <type>Boite à livre</type>
  </wpt>
</gpx>