<?xml version='1.0' encoding='UTF-8'?>
<gpx version="1.1" creator="JOSM GPX export" xmlns="http://www.topografix.com/GPX/1/1"
    xmlns:xsi="http://www.w3.org/2001/XMLSchema-instance"
    xsi:schemaLocation="http://www.topografix.com/GPX/1/1 http://www.topografix.com/GPX/1/1/gpx.xsd">
  <metadata>
    <bounds minlat="46.302833" minlon="-2.5462186" maxlat="48.405842" maxlon="0.7893444"/>
  </metadata>
  <wpt lat="47.1591568" lon="-1.6585932">
    <name>41 route des Palmiers</name>
    <cmt>Amenity::entertainment:public_bookcase</cmt>
    <desc>Attenante à la bibliothèque municipale de la Montagne</desc>
    <type>Boite à livre</type>
  </wpt>
  <wpt lat="46.6963106" lon="-1.9391367">
    <name>Passerelle pietonne</name>
    <cmt>Amenity::entertainment:public_bookcase</cmt>
    <desc>Les livres se renouvellent régulièrement. Beaucoup de touristes donc une explication en anglais serait interessante</desc>
    <type>Boite à livre</type>
  </wpt>
  <wpt lat="46.6985939" lon="-1.9380137">
    <name>quai Gorin</name>
    <cmt>Amenity::entertainment:public_bookcase</cmt>
    <desc>C est une boite à dons : livres  vetements  petits objets... Elle se trouve au croisement de la passerelle piétonne  André Bénéteau et du quai Gorin</desc>
    <type>Boite à livre</type>
  </wpt>
  <wpt lat="46.9287487" lon="-0.9003322">
    <name>1 rue du tempyre</name>
    <cmt>Amenity::entertainment:public_bookcase</cmt>
    <desc>Les magasins de proximité Vival installe des boites à livres devant tous leurs magasins.</desc>
    <type>Boite à livre</type>
  </wpt>
  <wpt lat="46.425252" lon="-1.4876879">
    <name>rue de la plaine</name>
    <cmt>Amenity::entertainment:public_bookcase</cmt>
    <desc>Elle se trouve dans le parc, derrière la bibliothèque.</desc>
    <type>Boite à livre</type>
  </wpt>
  <wpt lat="46.4398066" lon="-1.3744448">
    <name>Mairie</name>
    <cmt>Amenity::entertainment:public_bookcase</cmt>
    <desc>Boîte à livres située à l&apos;intérieur du Café-Epicerie situé à côté de la mairie</desc>
    <type>Boite à livre</type>
  </wpt>
  <wpt lat="46.4125677" lon="-1.5771386">
    <name>Esplanade Serge Caillaud</name>
    <cmt>Amenity::entertainment:public_bookcase</cmt>
    <desc>Sur le port de Jard  sur l&apos;aire de jeux.</desc>
    <type>Boite à livre</type>
  </wpt>
  <wpt lat="46.4210031" lon="-1.5696218">
    <name>ESPLANADE CLEMENCEAU</name>
    <cmt>Amenity::entertainment:public_bookcase</cmt>
    <type>Boite à livre</type>
  </wpt>
  <wpt lat="46.4184812" lon="-1.5550029">
    <name>ROUTE DE JARD</name>
    <cmt>Amenity::entertainment:public_bookcase</cmt>
    <desc>devant la bibliothèque</desc>
    <type>Boite à livre</type>
  </wpt>
  <wpt lat="46.4088369" lon="-1.584949">
    <name>Port de plaisance</name>
    <cmt>Amenity::entertainment:public_bookcase</cmt>
    <type>Boite à livre</type>
  </wpt>
  <wpt lat="46.4124626" lon="-1.5783541">
    <name>Rue de l&apos;Océan</name>
    <cmt>Amenity::entertainment:public_bookcase</cmt>
    <desc>Dans le Jardin de l espace culturel, la boite à lire est une grande armoire vitrée située dans les jardins de la bibliothèque municipale juste derrière le jeux d échecs géant.</desc>
    <type>Boite à livre</type>
  </wpt>
  <wpt lat="46.8702766" lon="-1.0042284">
    <name>13 rue de grouteau</name>
    <cmt>Amenity::entertainment:public_bookcase</cmt>
    <desc>Mise en place en 2015.</desc>
    <type>Boite à livre</type>
  </wpt>
  <wpt lat="46.389691" lon="-0.6015985">
    <cmt>Amenity::entertainment:public_bookcase</cmt>
    <desc>Située dans le Square des poilus, près de la salle des fêtes.</desc>
    <type>Boite à livre</type>
  </wpt>
  <wpt lat="46.3319914" lon="-1.3064084">
    <name>Avenue Amiral Courbet</name>
    <cmt>Amenity::entertainment:public_bookcase</cmt>
    <desc>Boite à lire mise en place par le réseau des médiathèques du Pays né de la Mer</desc>
    <type>Boite à livre</type>
  </wpt>
  <wpt lat="46.391745" lon="-1.019529">
    <name>rue du 8 mai 1945</name>
    <cmt>Amenity::entertainment:public_bookcase</cmt>
    <desc>La Cabinalivre est située à l entrée du complexe sportif sur le parking à l&apos;intérieur d&apos;une ancienne cabine téléphonique relookée.</desc>
    <type>Boite à livre</type>
  </wpt>
  <wpt lat="46.9041571" lon="-1.3788571">
    <name>parking du stade</name>
    <cmt>Amenity::entertainment:public_bookcase</cmt>
    <desc>La  cabinalivre&quot;&quot; est une ancienne cabine téléphonique relookée pour l occasion et accueille plein de livres d&apos;occasion. Elle est située sur le parking du stade de la commune, non loin du camping</desc>
    <type>Boite à livre</type>
  </wpt>
  <wpt lat="46.420139" lon="-1.083898">
    <name>Square Michel Delaunay</name>
    <cmt>Amenity::entertainment:public_bookcase</cmt>
    <desc>Installée par le Lions Club de LUCON</desc>
    <type>Boite à livre</type>
  </wpt>
  <wpt lat="46.3998342" lon="-0.8981087">
    <name>place du Gué de Velluire</name>
    <cmt>Amenity::entertainment:public_bookcase</cmt>
    <desc>sur la place du Gué de Velluire, sous la halle rénovée, face à la Vendée, en face du café  le guétréen&quot;&quot;</desc>
    <type>Boite à livre</type>
  </wpt>
  <wpt lat="46.5041491" lon="-1.5737721">
    <name>Rue du moulin des landes</name>
    <cmt>Amenity::entertainment:public_bookcase</cmt>
    <type>Boite à livre</type>
  </wpt>
  <wpt lat="46.4661952" lon="-1.6176534">
    <name>196 Passage de L Hôtel de ville</name>
    <cmt>Amenity::entertainment:public_bookcase</cmt>
    <desc>A côté de la médiathèque, derrière l&apos;espace des jeunes</desc>
    <type>Boite à livre</type>
  </wpt>
  <wpt lat="46.5950455" lon="-1.4542073">
    <name>21 rue Saint Laurent</name>
    <cmt>Amenity::entertainment:public_bookcase</cmt>
    <desc>Petite boîte à lire à côté de Vendée Logement dans le renfoncement d un chemin accolé au mur d&apos;une maison.</desc>
    <type>Boite à livre</type>
  </wpt>
  <wpt lat="46.6022716" lon="-1.4481907">
    <name>parc de la tournerie</name>
    <cmt>Amenity::entertainment:public_bookcase</cmt>
    <desc>Dans le parc au niveau des jeux d enfants</desc>
    <type>Boite à livre</type>
  </wpt>
  <wpt lat="46.4566416" lon="-1.1541214">
    <name>Avenue de lattre de tassigny</name>
    <cmt>Amenity::entertainment:public_bookcase</cmt>
    <desc>Devant la mission locale</desc>
    <type>Boite à livre</type>
  </wpt>
  <wpt lat="46.4554353" lon="-1.1701632">
    <name>1 rue de l hotel de ville</name>
    <cmt>Amenity::entertainment:public_bookcase</cmt>
    <desc>Devant la mairie</desc>
    <type>Boite à livre</type>
  </wpt>
  <wpt lat="46.675805" lon="-0.84809">
    <name>Place Maréchal de Lattre de Tassigny</name>
    <cmt>Amenity::entertainment:public_bookcase</cmt>
    <desc>Boite à livres vitrée située Place Maréchal de Lattre de Tassigny face à l église</desc>
    <type>Boite à livre</type>
  </wpt>
  <wpt lat="46.6570582" lon="-0.9163811">
    <name>4 rue georges clémenceau</name>
    <cmt>Amenity::entertainment:public_bookcase</cmt>
    <desc>Les magasins de proximité Vival installe des boites à livres devant tous leurs magasins.</desc>
    <type>Boite à livre</type>
  </wpt>
  <wpt lat="46.656307" lon="-0.915083">
    <name>12 Cour du Château</name>
    <cmt>Amenity::entertainment:public_bookcase</cmt>
    <desc>Dans la cour du château, avant l entrée au donjon sur la gauche</desc>
    <type>Boite à livre</type>
  </wpt>
  <wpt lat="46.4369832" lon="-0.9529241">
    <name>4 rue georges clémenceau</name>
    <cmt>Amenity::entertainment:public_bookcase</cmt>
    <desc>Les magasins de proximité Vival installe des boites à livres devant tous leurs magasins.</desc>
    <type>Boite à livre</type>
  </wpt>
  <wpt lat="46.707764" lon="-2.3329959">
    <name>27 rue du général leclerc</name>
    <cmt>Amenity::entertainment:public_bookcase</cmt>
    <desc>Les magasins de proximité Vival installe des boites à livres devant tous leurs magasins.</desc>
    <type>Boite à livre</type>
  </wpt>
  <wpt lat="46.5370443" lon="-1.7742931">
    <name>3 rue du maréchal foch</name>
    <cmt>Amenity::entertainment:public_bookcase</cmt>
    <desc>Face à l&apos;église, près de l&apos;ancienne bibliothèque municipale</desc>
    <type>Boite à livre</type>
  </wpt>
  <wpt lat="46.9375693" lon="-2.1664597">
    <name>Rue des Polders</name>
    <cmt>Amenity::entertainment:public_bookcase</cmt>
    <desc>Boîte à dons en face de l office du tourisme.</desc>
    <type>Boite à livre</type>
  </wpt>
  <wpt lat="47.022714" lon="-2.2490009">
    <name>Rue des bonnotte</name>
    <cmt>Amenity::entertainment:public_bookcase</cmt>
    <desc>Boîte à dons en face de la mairie de Le Vieil, sur l île de Noirmoutier.</desc>
    <type>Boite à livre</type>
  </wpt>
  <wpt lat="46.6718115" lon="-1.2980575">
    <name>Impasse des Poètes</name>
    <cmt>Amenity::entertainment:public_bookcase</cmt>
    <desc>Jolie boîte située derrière la mairie près de la place de parking pour personne handicapée</desc>
    <type>Boite à livre</type>
  </wpt>
  <wpt lat="46.672667" lon="-1.2960515">
    <name>mairie de la chaize le vicomte</name>
    <cmt>Amenity::entertainment:public_bookcase</cmt>
    <desc>A l&apos;entrée d&apos;un passage à droite de la mairie.</desc>
    <type>Boite à livre</type>
  </wpt>
  <wpt lat="46.5930499" lon="-1.3170373">
    <name>4 place de l&apos;église</name>
    <cmt>Amenity::entertainment:public_bookcase</cmt>
    <desc>Passer sous le porche de la mairie. Boite sur la droite.</desc>
    <type>Boite à livre</type>
  </wpt>
  <wpt lat="46.8322546" lon="-1.8817837">
    <name>Rue de bois fossé</name>
    <cmt>Amenity::entertainment:public_bookcase</cmt>
    <type>Boite à livre</type>
  </wpt>
  <wpt lat="46.8369232" lon="-1.8716505">
    <name>Boulevard Jean XXIII - Route des Sables</name>
    <cmt>Amenity::entertainment:public_bookcase</cmt>
    <desc>la boîte se trouve à l&apos;Hyper U : nourrir son esprit en nourrissant son corps !</desc>
    <type>Boite à livre</type>
  </wpt>
  <wpt lat="46.8331081" lon="-1.8707822">
    <name>5 chemin de l&apos;Ogerie</name>
    <cmt>Amenity::entertainment:public_bookcase</cmt>
    <desc>La boite à livre se trouve à coté de la salle intergénérationnelle de l&apos;Ogerie au village-retraite de l&apos;Ogerie.</desc>
    <type>Boite à livre</type>
  </wpt>
  <wpt lat="46.7141332" lon="-1.3137207">
    <name>90 route nationale</name>
    <cmt>Amenity::entertainment:public_bookcase</cmt>
    <desc>Mise en place le 13 Mai 2017 par l&apos;association Bout dFicelle.</desc>
    <type>Boite à livre</type>
  </wpt>
  <wpt lat="46.8333784" lon="-1.1921519">
    <name>place du tilleuls</name>
    <cmt>Amenity::entertainment:public_bookcase</cmt>
    <desc>Les magasins de proximité Vival installent des boites à livres devant tous leurs magasins.</desc>
    <type>Boite à livre</type>
  </wpt>
  <wpt lat="46.4213946" lon="-0.6821146">
    <name>5 place du forail</name>
    <cmt>Amenity::entertainment:public_bookcase</cmt>
    <desc>A l&apos;entrée du Vival</desc>
    <type>Boite à livre</type>
  </wpt>
  <wpt lat="46.9102727" lon="-2.0337767">
    <name>28 rue de la Roche</name>
    <cmt>Amenity::entertainment:public_bookcase</cmt>
    <desc>Terre de Marins</desc>
    <type>Boite à livre</type>
  </wpt>
  <wpt lat="46.8751392" lon="-2.0099226">
    <name>rue du Pont d&apos;orgueil</name>
    <cmt>Amenity::entertainment:public_bookcase</cmt>
    <desc>La boite se situe rue du Pont d&apos;orgueil  au niveau du rond point  il y a un abri bus scolaire.</desc>
    <type>Boite à livre</type>
  </wpt>
  <wpt lat="46.8753057" lon="-2.0079243">
    <name>Allée de la Mairie</name>
    <cmt>Amenity::entertainment:public_bookcase</cmt>
    <desc>Mis en place par le Conseil Municipal des Jeunes de Saint-Urbain</desc>
    <type>Boite à livre</type>
  </wpt>
  <wpt lat="46.6710636" lon="-1.8269945">
    <name>8 Rue Georges Clemenceau</name>
    <cmt>Amenity::entertainment:public_bookcase</cmt>
    <desc>La boîte à livres se situe devant l entrée du magasin Vival.</desc>
    <type>Boite à livre</type>
  </wpt>
  <wpt lat="46.5788268" lon="-1.0280877">
    <name>Place de la Mairie</name>
    <cmt>Amenity::entertainment:public_bookcase</cmt>
    <desc>Boite à livres bleue qui se trouve près du restaurant, le st-Georges. si vous trouvez le distributeur de pain, elle est juste à coté. Mais attention, elle ne se voit de la route ! N&apos;hésitez pas à allez jeter un coup d’œil et de partager vos lectures !</desc>
    <type>Boite à livre</type>
  </wpt>
  <wpt lat="46.739235" lon="-1.608569">
    <name>place de la Poste</name>
    <cmt>Amenity::entertainment:public_bookcase</cmt>
    <type>Boite à livre</type>
  </wpt>
  <wpt lat="46.7910622" lon="-2.0471594">
    <name>55 route des sables</name>
    <cmt>Amenity::entertainment:public_bookcase</cmt>
    <desc>Les magasins de proximité Vival installent des boites à livres devant tous leurs magasins.</desc>
    <type>Boite à livre</type>
  </wpt>
  <wpt lat="46.7863596" lon="-2.0280169">
    <name>Rue des Sables</name>
    <cmt>Amenity::entertainment:public_bookcase</cmt>
    <type>Boite à livre</type>
  </wpt>
  <wpt lat="46.7907903" lon="-2.063198">
    <name>Médiathèque municipale</name>
    <cmt>Amenity::entertainment:public_bookcase</cmt>
    <desc>Disponible aux heures d&apos;ouverture.</desc>
    <type>Boite à livre</type>
  </wpt>
  <wpt lat="46.6588344" lon="-1.5714908">
    <name>Place de l église</name>
    <cmt>Amenity::entertainment:public_bookcase</cmt>
    <type>Boite à livre</type>
  </wpt>
  <wpt lat="46.6460676" lon="-1.7149571">
    <name>Route nationale</name>
    <cmt>Amenity::entertainment:public_bookcase</cmt>
    <type>Boite à livre</type>
  </wpt>
  <wpt lat="46.601652" lon="-1.756135">
    <name>Place Heimenkirch</name>
    <cmt>Amenity::entertainment:public_bookcase</cmt>
    <desc>A côté du salon de coiffure.</desc>
    <type>Boite à livre</type>
  </wpt>
  <wpt lat="46.5463768" lon="-1.6717958">
    <name>Place de la Mairie</name>
    <cmt>Amenity::entertainment:public_bookcase</cmt>
    <desc>Proche de la boîte aux lettres de la Poste parking de la Mairie</desc>
    <type>Boite à livre</type>
  </wpt>
  <wpt lat="46.640257" lon="-1.712964">
    <name>Place Jeanne d&apos;Arc</name>
    <cmt>Amenity::entertainment:public_bookcase</cmt>
    <desc>Boîte à lire mise en place par le Lions Club des Sables d&apos;Olonne.</desc>
    <type>Boite à livre</type>
  </wpt>
  <wpt lat="46.5905718" lon="-1.6474411">
    <name>Place de l&apos;église</name>
    <cmt>Amenity::entertainment:public_bookcase</cmt>
    <desc>La Boîte à lire se trouve entre la boulangerie et le salon de coiffure.</desc>
    <type>Boite à livre</type>
  </wpt>
  <wpt lat="46.9933488" lon="-1.0440386">
    <name>Rue du  Stade</name>
    <cmt>Amenity::entertainment:public_bookcase</cmt>
    <desc>Elle se trouve au départ de la rue du stade près de l église et de la boulangerie</desc>
    <type>Boite à livre</type>
  </wpt>
  <wpt lat="46.6521127" lon="-0.6824133">
    <name>place St Hilaire</name>
    <cmt>Amenity::entertainment:public_bookcase</cmt>
    <desc>Elle se situe dans un frigo customisé et placé devant l&apos;espace Jeanne-Marie</desc>
    <type>Boite à livre</type>
  </wpt>
  <wpt lat="46.644429" lon="-0.737058">
    <name>rue Bonséjour</name>
    <cmt>Amenity::entertainment:public_bookcase</cmt>
    <desc>Un frigo customisé est en libre service dans la piscine intercommmunale</desc>
    <type>Boite à livre</type>
  </wpt>
  <wpt lat="46.65391384968671" lon="-1.06518030166626">
    <name>Le Touchegray</name>
    <cmt>Amenity::entertainment:public_bookcase</cmt>
    <desc>sur l&apos;aire de loisir du touchegray</desc>
    <type>Boite à livre</type>
  </wpt>
  <wpt lat="46.4892785" lon="-1.7652126">
    <name>Avenue Aristide Briand</name>
    <cmt>Amenity::entertainment:public_bookcase</cmt>
    <type>Boite à livre</type>
  </wpt>
  <wpt lat="46.494377" lon="-1.7721248">
    <name>salle audubon</name>
    <cmt>Amenity::entertainment:public_bookcase</cmt>
    <type>Boite à livre</type>
  </wpt>
  <wpt lat="46.49480649868454" lon="-1.788480877876282">
    <name>Promenade de l&apos;Amiral Lafargue</name>
    <cmt>Amenity::entertainment:public_bookcase</cmt>
    <desc>Devant la place du palais de justice</desc>
    <type>Boite à livre</type>
  </wpt>
  <wpt lat="46.653994857045106" lon="-1.427085399627686">
    <name>Place viollet le duc</name>
    <cmt>Amenity::entertainment:public_bookcase</cmt>
    <desc>A coté de la fontaine</desc>
    <type>Boite à livre</type>
  </wpt>
  <wpt lat="46.6698038" lon="-1.4299633">
    <name>Rue Georges Clémenceau</name>
    <cmt>Amenity::entertainment:public_bookcase</cmt>
    <desc>La cabine téléphonique est située rue Georges Clemenceau, à côté du jardin de la mairie.</desc>
    <type>Boite à livre</type>
  </wpt>
  <wpt lat="46.6830256" lon="-1.4242594">
    <name>Rue Claude Debussy</name>
    <cmt>Amenity::entertainment:public_bookcase</cmt>
    <desc>J y ai même trouvé des magazines et des comics, bonne pioche ?</desc>
    <type>Boite à livre</type>
  </wpt>
  <wpt lat="46.6575485" lon="-1.4056847">
    <name>61 chemin de la Giraudière</name>
    <cmt>Amenity::entertainment:public_bookcase</cmt>
    <desc>Maison de quartier du Bourg-sous-la-Roche.</desc>
    <type>Boite à livre</type>
  </wpt>
  <wpt lat="46.6676312" lon="-1.4279082">
    <name>rue Dellile</name>
    <cmt>Amenity::entertainment:public_bookcase</cmt>
    <desc>Il en existe une deuxième à proximité du groupe scolaire de la Généraudière et une troisième actuellement en réparation se trouve place Albert 1er.</desc>
    <type>Boite à livre</type>
  </wpt>
  <wpt lat="46.6663291" lon="-1.4286623">
    <name>Square Bayard</name>
    <cmt>Amenity::entertainment:public_bookcase</cmt>
    <desc>Près de la Fontaine</desc>
    <type>Boite à livre</type>
  </wpt>
  <wpt lat="48.06434" lon="0.1362701">
    <name>Place de l Europe</name>
    <cmt>Amenity::entertainment:public_bookcase</cmt>
    <type>Boite à livre</type>
  </wpt>
  <wpt lat="48.032624" lon="0.159039">
    <name>place de l&apos;Europe</name>
    <cmt>Amenity::entertainment:public_bookcase</cmt>
    <desc>En face de la boulangerie sur la place piétonne du village !</desc>
    <type>Boite à livre</type>
  </wpt>
  <wpt lat="48.0405839" lon="0.1743174">
    <name>Route d&apos;Alençon</name>
    <cmt>Amenity::entertainment:public_bookcase</cmt>
    <desc>Dans la galerie commerciale d&apos;Auchan, des étagères sont mises à dispositions pour déposer, échanger des livres.</desc>
    <type>Boite à livre</type>
  </wpt>
  <wpt lat="48.3615833" lon="0.0874662">
    <name>11 rue de la mairie</name>
    <cmt>Amenity::entertainment:public_bookcase</cmt>
    <desc>Les livres se trouvent à l&apos;intérieur de l&apos;abri bus sur 3 grandes étagères</desc>
    <type>Boite à livre</type>
  </wpt>
  <wpt lat="48.3086356" lon="0.4005897">
    <name>1 Rue du Vairais</name>
    <cmt>Amenity::entertainment:public_bookcase</cmt>
    <desc>Repérée hier en allant à un concert  petite boîte à lire sur l&apos;avenue principale près de la mairie !</desc>
    <type>Boite à livre</type>
  </wpt>
  <wpt lat="47.9931464" lon="-0.0936113">
    <name>2 Rue de la Mairie</name>
    <cmt>Amenity::entertainment:public_bookcase</cmt>
    <desc>Dans la cour de la mairie, sous le préau</desc>
    <type>Boite à livre</type>
  </wpt>
  <wpt lat="48.0137561" lon="0.2687976">
    <name>Rue Gougeard</name>
    <cmt>Amenity::entertainment:public_bookcase</cmt>
    <desc>La boite à lire se situe dans la Résidence du Parc. Elle est abritée à l&apos;extérieur du bâtiment d&apos;accueil.</desc>
    <type>Boite à livre</type>
  </wpt>
  <wpt lat="47.69462" lon="0.417054">
    <name>2 Avenue Jean Jaurès</name>
    <cmt>Amenity::entertainment:public_bookcase</cmt>
    <desc>À côté de l Office du tourisme, au niveau du square.</desc>
    <type>Boite à livre</type>
  </wpt>
  <wpt lat="47.718124417744555" lon="0.332980155944824">
    <name>Place de la Mairie</name>
    <cmt>Amenity::entertainment:public_bookcase</cmt>
    <desc>La boîte à lire est située sur le mur sud de l&apos;église, face à la mairie.</desc>
    <type>Boite à livre</type>
  </wpt>
  <wpt lat="47.6471969" lon="0.1569205">
    <name>place Francois de Nicolay</name>
    <cmt>Amenity::entertainment:public_bookcase</cmt>
    <desc>Bonjour 5 boites à lire ont été mises en place en 2017 dans LE LUDE en Sarthe près de l office de tourisme et la mairie Place Francois de Nicolay à proximité de l&apos;espace co working allée de l&apos;ancienne gare au camping Au bord du Loir route du mans au gymnase route Pontfour au foyer des lilas 2 bd Georges Sand</desc>
    <type>Boite à livre</type>
  </wpt>
  <wpt lat="48.022011" lon="0.329438">
    <name>Espl. de la Liberté</name>
    <cmt>Amenity::entertainment:public_bookcase</cmt>
    <type>Boite à livre</type>
  </wpt>
  <wpt lat="47.8886396" lon="-0.233531">
    <name>Rue du Lavoir</name>
    <cmt>Amenity::entertainment:public_bookcase</cmt>
    <desc>Dans l ancienne cabine téléphonique, des bénévoles la rechargent une fois par semaine.</desc>
    <type>Boite à livre</type>
  </wpt>
  <wpt lat="48.1864807" lon="0.639641">
    <name>Place de la gare</name>
    <cmt>Amenity::entertainment:public_bookcase</cmt>
    <desc>A la gare</desc>
    <type>Boite à livre</type>
  </wpt>
  <wpt lat="48.037463" lon="0.5883469">
    <name>rue saint medard</name>
    <cmt>Amenity::entertainment:public_bookcase</cmt>
    <type>Boite à livre</type>
  </wpt>
  <wpt lat="48.1437712" lon="0.1705136">
    <name>Place de L église</name>
    <cmt>Amenity::entertainment:public_bookcase</cmt>
    <desc>Située derrière l&apos;église</desc>
    <type>Boite à livre</type>
  </wpt>
  <wpt lat="47.9485744" lon="-0.2239892">
    <name>1 Rue de la Cavalcade</name>
    <cmt>Amenity::entertainment:public_bookcase</cmt>
    <desc>Dans l ancienne cabine téléphonique près de l&apos;école, gérée par l association Chevillé au fil du temps</desc>
    <type>Boite à livre</type>
  </wpt>
  <wpt lat="47.7468298" lon="0.619664">
    <name>17 rue de l&apos;Industrie</name>
    <cmt>Amenity::entertainment:public_bookcase</cmt>
    <desc>La boîte à lire est située près de la porte de la petite maison, au centre du parc de jeu. Elle est facile à repérer grâce à ses couleurs éclatantes.</desc>
    <type>Boite à livre</type>
  </wpt>
  <wpt lat="48.1025795" lon="0.7893444">
    <name>25 Rue du Dr Castaing</name>
    <cmt>Amenity::entertainment:public_bookcase</cmt>
    <desc>Cachot à livre</desc>
    <type>Boite à livre</type>
  </wpt>
  <wpt lat="47.8138935" lon="-0.0862626">
    <name>2 place de la république</name>
    <cmt>Amenity::entertainment:public_bookcase</cmt>
    <desc>Boîte inaugurée il y a un peu moins de deux ans. Les livres tournent bien dans l&apos;ensemble.</desc>
    <type>Boite à livre</type>
  </wpt>
  <wpt lat="48.1928192" lon="0.2975483">
    <name>place de la mairie</name>
    <cmt>Amenity::entertainment:public_bookcase</cmt>
    <desc>En face de la mairie</desc>
    <type>Boite à livre</type>
  </wpt>
  <wpt lat="47.815351" lon="0.231745">
    <name>Mairie</name>
    <cmt>Amenity::entertainment:public_bookcase</cmt>
    <type>Boite à livre</type>
  </wpt>
  <wpt lat="47.6985953" lon="-0.0735823">
    <name>parc des Carmes</name>
    <cmt>Amenity::entertainment:public_bookcase</cmt>
    <desc>à l instigation du LIONS CLUB de DURTAL LA FLECHE, posée par les services municipax</desc>
    <type>Boite à livre</type>
  </wpt>
  <wpt lat="48.0748805" lon="0.1938783">
    <name>Rue Léonard de Vinci</name>
    <cmt>Amenity::entertainment:public_bookcase</cmt>
    <desc>Boîte à livres située sur le parking de la salle polyvalente et près de l école.</desc>
    <type>Boite à livre</type>
  </wpt>
  <wpt lat="48.0376002" lon="0.1912307">
    <name>Rue du monnet</name>
    <cmt>Amenity::entertainment:public_bookcase</cmt>
    <desc>Armoire à livres.</desc>
    <type>Boite à livre</type>
  </wpt>
  <wpt lat="48.1831211" lon="-0.128627">
    <name>Place de la République</name>
    <cmt>Amenity::entertainment:public_bookcase</cmt>
    <type>Boite à livre</type>
  </wpt>
  <wpt lat="48.1338421" lon="0.3967592">
    <name>Place de la mairie</name>
    <cmt>Amenity::entertainment:public_bookcase</cmt>
    <desc>Sous le porche à côté de la Mairie</desc>
    <type>Boite à livre</type>
  </wpt>
  <wpt lat="47.9750245" lon="0.2200925">
    <name>Maison Pour Tous Jean-Moulin</name>
    <cmt>Amenity::entertainment:public_bookcase</cmt>
    <desc>Boîte à livres tenue par Christine</desc>
    <type>Boite à livre</type>
  </wpt>
  <wpt lat="47.9884886" lon="0.1893602">
    <name>Miroir - Batignolles</name>
    <cmt>Amenity::entertainment:public_bookcase</cmt>
    <desc>La boite se trouve près des jeux pour enfants.</desc>
    <type>Boite à livre</type>
  </wpt>
  <wpt lat="48.0111053" lon="0.1807303">
    <name>Parc Théodore monod 117 ri</name>
    <cmt>Amenity::entertainment:public_bookcase</cmt>
    <desc>La boîte à lire se trouve dans le parc à cote du parc pour enfants</desc>
    <type>Boite à livre</type>
  </wpt>
  <wpt lat="48.0065748" lon="0.2092179">
    <name>4 rue Sinault</name>
    <cmt>Amenity::entertainment:public_bookcase</cmt>
    <desc>Jardin des Plantes près du plan d eau, en arrivant par la rue de l&apos;Éventail</desc>
    <type>Boite à livre</type>
  </wpt>
  <wpt lat="48.0037942" lon="0.1971069">
    <name>place de la République</name>
    <cmt>Amenity::entertainment:public_bookcase</cmt>
    <desc>place de la république, proche de la sortie du parking par les escaliers</desc>
    <type>Boite à livre</type>
  </wpt>
  <wpt lat="48.0086676" lon="0.1969221">
    <name>Square Jaques Dubois</name>
    <cmt>Amenity::entertainment:public_bookcase</cmt>
    <desc>Dans le vieux mans, Square Jacques Dubois, en face de la maison du Pilier Rouge.</desc>
    <type>Boite à livre</type>
  </wpt>
  <wpt lat="48.0100187" lon="0.1812238">
    <name>4 rue Marceau</name>
    <cmt>Amenity::entertainment:public_bookcase</cmt>
    <desc>Parc Théodore Monod contre le bâtiment conciergerie du Parc, proche de l&apos;espace jeux</desc>
    <type>Boite à livre</type>
  </wpt>
  <wpt lat="47.9962695" lon="0.1919746">
    <name>Boulevard Robert Jarry</name>
    <cmt>Amenity::entertainment:public_bookcase</cmt>
    <desc>Parvis Gare Nord</desc>
    <type>Boite à livre</type>
  </wpt>
  <wpt lat="48.0037942" lon="0.1971069">
    <name>Place de la république</name>
    <cmt>Amenity::entertainment:public_bookcase</cmt>
    <desc>Il 4 boîte à boites livresVieux mansGarePlace de la républiqueParc Théodore monod</desc>
    <type>Boite à livre</type>
  </wpt>
  <wpt lat="47.9992172" lon="0.207001">
    <name>3 rue Charles Larrouil</name>
    <cmt>Amenity::entertainment:public_bookcase</cmt>
    <desc>Nous avons créé cette boîte à livres pour tous les lecteurs , petits et grands.</desc>
    <type>Boite à livre</type>
  </wpt>
  <wpt lat="48.0235999" lon="0.2014084">
    <name>Centre social l&apos;herberie</name>
    <cmt>Amenity::entertainment:public_bookcase</cmt>
    <type>Boite à livre</type>
  </wpt>
  <wpt lat="47.9751493" lon="0.2200008">
    <name>mjc jean moulin</name>
    <cmt>Amenity::entertainment:public_bookcase</cmt>
    <type>Boite à livre</type>
  </wpt>
  <wpt lat="48.1167327" lon="-0.7193332">
    <name>Rue champollion</name>
    <cmt>Amenity::entertainment:public_bookcase</cmt>
    <desc>Boîte à livres située dans le parc de la motte près des terrains de pétanque.</desc>
    <type>Boite à livre</type>
  </wpt>
  <wpt lat="48.1541946" lon="-0.4014157">
    <name>Place Pierre Mendès</name>
    <cmt>Amenity::entertainment:public_bookcase</cmt>
    <desc>Boîte accessible dans la Médiathèque</desc>
    <type>Boite à livre</type>
  </wpt>
  <wpt lat="47.826484" lon="-0.706473">
    <name>Place de la république</name>
    <cmt>Amenity::entertainment:public_bookcase</cmt>
    <type>Boite à livre</type>
  </wpt>
  <wpt lat="48.405842" lon="-0.9246545">
    <name>L Almois</name>
    <cmt>Amenity::entertainment:public_bookcase</cmt>
    <desc>La boite à lire se trouve dans le bourg, c est une ancienne cabine téléphonique.Des romans en français, en anglais, du thriller au jeunesse.</desc>
    <type>Boite à livre</type>
  </wpt>
  <wpt lat="48.065177" lon="-0.769042">
    <name>jardin de la perrine</name>
    <cmt>Amenity::entertainment:public_bookcase</cmt>
    <desc>Arbre à lire dans le Jardin de la Perrine.</desc>
    <type>Boite à livre</type>
  </wpt>
  <wpt lat="47.5438283" lon="-0.6738409">
    <name>1 Rue d Anjou</name>
    <cmt>Amenity::entertainment:public_bookcase</cmt>
    <type>Boite à livre</type>
  </wpt>
  <wpt lat="47.213803" lon="-0.191121">
    <name>Ulmes</name>
    <cmt>Amenity::entertainment:public_bookcase</cmt>
    <desc>À côté de l&apos;église.</desc>
    <type>Boite à livre</type>
  </wpt>
  <wpt lat="47.1934302" lon="-0.2736182">
    <name>Place flandres dunkerque 1940</name>
    <cmt>Amenity::entertainment:public_bookcase</cmt>
    <desc>Elle se trouve juste en face l?antenne information emploi.</desc>
    <type>Boite à livre</type>
  </wpt>
  <wpt lat="47.3619333" lon="-0.0391662">
    <name>place de l église</name>
    <cmt>Amenity::entertainment:public_bookcase</cmt>
    <desc>Elle est le long de l église, sur le mur du foyer des jeunes.</desc>
    <type>Boite à livre</type>
  </wpt>
  <wpt lat="47.3619333" lon="-0.0391662">
    <name>place de l&apos;église</name>
    <cmt>Amenity::entertainment:public_bookcase</cmt>
    <desc>Sur le mur du foyer des jeunes.</desc>
    <type>Boite à livre</type>
  </wpt>
  <wpt lat="47.4699896" lon="-0.3290697">
    <name>46 route du Point du Jour</name>
    <cmt>Amenity::entertainment:public_bookcase</cmt>
    <desc>Une étagère dans le fond de la galerie marchande.</desc>
    <type>Boite à livre</type>
  </wpt>
  <wpt lat="47.0484859" lon="-0.869653">
    <name>Rue du Carteron</name>
    <cmt>Amenity::entertainment:public_bookcase</cmt>
    <desc>Elle se trouve sous le porche de l ASPTT</desc>
    <type>Boite à livre</type>
  </wpt>
  <wpt lat="47.3868099" lon="-0.8630675">
    <name>pont de Montjean</name>
    <cmt>Amenity::entertainment:public_bookcase</cmt>
    <desc>Elle se trouve au pont de Montjean...</desc>
    <type>Boite à livre</type>
  </wpt>
  <wpt lat="47.6851623" lon="-0.8699543">
    <name>L&apos;Hôtellerie-de-Flée</name>
    <cmt>Amenity::entertainment:public_bookcase</cmt>
    <desc>La boîte à lire de l Hôtellerie de Flée est en forme de pomme, en rappel au verger conservatoire de pommiers et à la fête du cidre de la commune. Elle est située à côté de l&apos;épicerie au bord du Drugeot.</desc>
    <type>Boite à livre</type>
  </wpt>
  <wpt lat="47.6853207" lon="-0.8701226">
    <name>Rue du Capitaine de Hauteclocque</name>
    <cmt>Amenity::entertainment:public_bookcase</cmt>
    <desc>Dans l ancienne boîte aux lettres de l&apos;Office de Tourisme...</desc>
    <type>Boite à livre</type>
  </wpt>
  <wpt lat="47.702815" lon="-0.876342">
    <name>Place du moulin</name>
    <cmt>Amenity::entertainment:public_bookcase</cmt>
    <desc>Boîte d échange installée en 2017.</desc>
    <type>Boite à livre</type>
  </wpt>
  <wpt lat="47.493564" lon="0.119497">
    <name>Rue des écoles</name>
    <cmt>Amenity::entertainment:public_bookcase</cmt>
    <desc>Ancienne boîte à livres située devant l église</desc>
    <type>Boite à livre</type>
  </wpt>
  <wpt lat="47.1484456" lon="-1.0572492">
    <name>Plan d eau des lavandières</name>
    <cmt>Amenity::entertainment:public_bookcase</cmt>
    <desc>2 boîtes à lire à chaque extrémité du plan d eau</desc>
    <type>Boite à livre</type>
  </wpt>
  <wpt lat="47.091025" lon="-1.064832">
    <name>Rue de l Eglise</name>
    <cmt>Amenity::entertainment:public_bookcase</cmt>
    <desc>En face l église</desc>
    <type>Boite à livre</type>
  </wpt>
  <wpt lat="47.670898" lon="-0.243812">
    <name>Durtal    maine et loire</name>
    <cmt>Amenity::entertainment:public_bookcase</cmt>
    <desc>Très bon fonctionnement</desc>
    <type>Boite à livre</type>
  </wpt>
  <wpt lat="47.270059" lon="-0.083141">
    <name>Plan d eau de Millocheau</name>
    <cmt>Amenity::entertainment:public_bookcase</cmt>
    <type>Boite à livre</type>
  </wpt>
  <wpt lat="47.2642815" lon="-0.099555">
    <name>place de la poterne</name>
    <cmt>Amenity::entertainment:public_bookcase</cmt>
    <desc>Près de la Mairie</desc>
    <type>Boite à livre</type>
  </wpt>
  <wpt lat="47.261859" lon="-0.079331">
    <name>Place saint nicolas</name>
    <cmt>Amenity::entertainment:public_bookcase</cmt>
    <desc>Dépôt de livres permanent.</desc>
    <type>Boite à livre</type>
  </wpt>
  <wpt lat="47.4668819" lon="0.0170752">
    <name>place de la mairie</name>
    <cmt>Amenity::entertainment:public_bookcase</cmt>
    <desc>en face du salon de coiffure</desc>
    <type>Boite à livre</type>
  </wpt>
  <wpt lat="47.3870349" lon="0.0783485">
    <name>rue de l&apos;église</name>
    <cmt>Amenity::entertainment:public_bookcase</cmt>
    <desc>Aux abords du prieuré.</desc>
    <type>Boite à livre</type>
  </wpt>
  <wpt lat="47.3870349" lon="0.0783485">
    <name>RUe de l&apos;église</name>
    <cmt>Amenity::entertainment:public_bookcase</cmt>
    <desc>aux abords du prieuré</desc>
    <type>Boite à livre</type>
  </wpt>
  <wpt lat="47.339729" lon="-0.233678">
    <name>place du 8 mai</name>
    <cmt>Amenity::entertainment:public_bookcase</cmt>
    <desc>Près du magasin Brico Gennes</desc>
    <type>Boite à livre</type>
  </wpt>
  <wpt lat="47.35072319406828" lon="-0.224618911743164">
    <name>Rue du Mail</name>
    <cmt>Amenity::entertainment:public_bookcase</cmt>
    <desc>Sur la place du mail juste a côté de la fontaine avec la boule qui se renverse quand remplie d&apos;eau</desc>
    <type>Boite à livre</type>
  </wpt>
  <wpt lat="47.650567" lon="-0.444966">
    <name>Place de l&apos;église</name>
    <cmt>Amenity::entertainment:public_bookcase</cmt>
    <desc>Ancienne cabine téléphonique aménagée en boite a lire.Devant le coiffeur!</desc>
    <type>Boite à livre</type>
  </wpt>
  <wpt lat="47.7104142" lon="-0.5627044">
    <name>64 Rue des Merisiers</name>
    <cmt>Amenity::entertainment:public_bookcase</cmt>
    <desc>Un frigo en guise de boîte à livres, une belle initiatives de la bibliothèque de Marigné!</desc>
    <type>Boite à livre</type>
  </wpt>
  <wpt lat="47.362211" lon="-0.35545">
    <name>Rue du mail</name>
    <cmt>Amenity::entertainment:public_bookcase</cmt>
    <desc>Ancienne cabine téléphonique transformée en boite à lire située devant la mairie et derrière l église.</desc>
    <type>Boite à livre</type>
  </wpt>
  <wpt lat="47.3999147" lon="-0.3717545">
    <name>Raindron, Route de Blaison</name>
    <cmt>Amenity::entertainment:public_bookcase</cmt>
    <desc>Boîte située au croisement de la route de chemellier à côté d un abris bus.</desc>
    <type>Boite à livre</type>
  </wpt>
  <wpt lat="47.40050606490949" lon="-0.37028968334198">
    <name>Impasse André Joubert</name>
    <cmt>Amenity::entertainment:public_bookcase</cmt>
    <desc>Boîte située à l&apos;entrée de l&apos;impasse à l&apos;arrière de l&apos;église.</desc>
    <type>Boite à livre</type>
  </wpt>
  <wpt lat="47.394488" lon="-0.4367896">
    <name>Place de l église</name>
    <cmt>Amenity::entertainment:public_bookcase</cmt>
    <desc>Ancienne cabine téléphonique réhabilité en boîte à lire.</desc>
    <type>Boite à livre</type>
  </wpt>
  <wpt lat="47.423787" lon="-0.557593">
    <name>avenue du commerce</name>
    <cmt>Amenity::entertainment:public_bookcase</cmt>
    <desc>Ancienne cabine téléphonique peinte en bleu, près du supermarché</desc>
    <type>Boite à livre</type>
  </wpt>
  <wpt lat="47.080575" lon="-0.54393">
    <name>Place de la mairie</name>
    <cmt>Amenity::entertainment:public_bookcase</cmt>
    <desc>Dans l&apos;ancienne cabine téléphonique à la mairie devant la bibliothèque</desc>
    <type>Boite à livre</type>
  </wpt>
  <wpt lat="47.0643213" lon="-0.8725906">
    <name>19 rue Léon Pissot</name>
    <cmt>Amenity::entertainment:public_bookcase</cmt>
    <desc>Une boite à lire installée sur une porte chez un particulier au 19 rue Léon Pissot</desc>
    <type>Boite à livre</type>
  </wpt>
  <wpt lat="47.0618198" lon="-0.8864683">
    <name>12 Avenue du Maréchal Foch</name>
    <cmt>Amenity::entertainment:public_bookcase</cmt>
    <desc>La boite à lire se trouve à droite dans le jardin S.L.A. - Maison des Sciences</desc>
    <type>Boite à livre</type>
  </wpt>
  <wpt lat="47.0493146" lon="-0.8972918">
    <name>17 Square de Montgeoffroy</name>
    <cmt>Amenity::entertainment:public_bookcase</cmt>
    <type>Boite à livre</type>
  </wpt>
  <wpt lat="47.0577092" lon="-0.8730713">
    <name>1, rue Emile Grasset</name>
    <cmt>Amenity::entertainment:public_bookcase</cmt>
    <desc>Elle se trouve en bord de route à proximité du centre social pasteur</desc>
    <type>Boite à livre</type>
  </wpt>
  <wpt lat="47.059759" lon="-0.8824459">
    <name>Place du Mail</name>
    <cmt>Amenity::entertainment:public_bookcase</cmt>
    <desc>Une boite à lire sur la parking du Mail derrière le tribunal</desc>
    <type>Boite à livre</type>
  </wpt>
  <wpt lat="47.0601215" lon="-0.8734847">
    <name>Place Saint-Pierre</name>
    <cmt>Amenity::entertainment:public_bookcase</cmt>
    <desc>Une ancienne cabine téléphonique reconvertie en boite à lire en face Le Barouf</desc>
    <type>Boite à livre</type>
  </wpt>
  <wpt lat="47.0618198" lon="-0.8864683">
    <name>12 rue du maréchal foch</name>
    <cmt>Amenity::entertainment:public_bookcase</cmt>
    <desc>Boîte située dans le jardin de la SLA.</desc>
    <type>Boite à livre</type>
  </wpt>
  <wpt lat="47.0601639" lon="-0.8743424">
    <name>4, place St Pierre</name>
    <cmt>Amenity::entertainment:public_bookcase</cmt>
    <desc>Une cabine téléphonique convertie en cabine à livres ! Génial !</desc>
    <type>Boite à livre</type>
  </wpt>
  <wpt lat="47.0577997" lon="-0.867775">
    <name>55 Rue du Planty</name>
    <cmt>Amenity::entertainment:public_bookcase</cmt>
    <desc>Devant le Centre Social du Planty - Boite à Livre du Lions Club</desc>
    <type>Boite à livre</type>
  </wpt>
  <wpt lat="47.0453651" lon="-0.9008715">
    <name>4 allée des Aigles</name>
    <cmt>Amenity::entertainment:public_bookcase</cmt>
    <desc>Une boite à livres tout près des bacs des incroyables comestibles et du Centre Social Horizon. De la pelouse et de grands arbres à proximité pour bouquiner à l ombre !</desc>
    <type>Boite à livre</type>
  </wpt>
  <wpt lat="47.3130868" lon="-1.3207376">
    <name>21 Rue d Anjou - D751</name>
    <cmt>Amenity::entertainment:public_bookcase</cmt>
    <desc>A coté de la mairie et d une Presse / bureau de poste.Dans une ancienne cabine téléphonique.</desc>
    <type>Boite à livre</type>
  </wpt>
  <wpt lat="47.1937692" lon="-0.1205207">
    <name>23 Rue du Puits Venier</name>
    <cmt>Amenity::entertainment:public_bookcase</cmt>
    <desc>Sous le Préau du Magasin</desc>
    <type>Boite à livre</type>
  </wpt>
  <wpt lat="47.132482" lon="-0.154306">
    <name>Place des Ormeaux</name>
    <cmt>Amenity::entertainment:public_bookcase</cmt>
    <desc>Ancienne Cabine Telephonique</desc>
    <type>Boite à livre</type>
  </wpt>
  <wpt lat="47.440591" lon="-0.217616">
    <name>Place du mail</name>
    <cmt>Amenity::entertainment:public_bookcase</cmt>
    <desc>Boîte située à côté des jeux pour enfants.</desc>
    <type>Boite à livre</type>
  </wpt>
  <wpt lat="47.4422174" lon="-0.2054537">
    <name>Promenade des rimiaux</name>
    <cmt>Amenity::entertainment:public_bookcase</cmt>
    <type>Boite à livre</type>
  </wpt>
  <wpt lat="47.3945927" lon="-0.2742294">
    <name>Port Saint Maur</name>
    <cmt>Amenity::entertainment:public_bookcase</cmt>
    <desc>Boîte à lire en bord de Loire</desc>
    <type>Boite à livre</type>
  </wpt>
  <wpt lat="47.50558" lon="-0.5896298">
    <name>Esplanade de l Hôtel de Ville</name>
    <cmt>Amenity::entertainment:public_bookcase</cmt>
    <desc>Boite à livre dans une ancienne cabine téléphonique sur le parvis de la mairie d Avrillé</desc>
    <type>Boite à livre</type>
  </wpt>
  <wpt lat="47.5041679" lon="-0.6014938">
    <name>Place Schwalbach</name>
    <cmt>Amenity::entertainment:public_bookcase</cmt>
    <desc>La boite se situe à côté de l?hôtel de ville.</desc>
    <type>Boite à livre</type>
  </wpt>
  <wpt lat="47.0973317" lon="-1.1256381">
    <name>7bis rue Louis monnier</name>
    <cmt>Amenity::entertainment:public_bookcase</cmt>
    <desc>Ancienne cabine téléphonique située devant la boulangerie.</desc>
    <type>Boite à livre</type>
  </wpt>
  <wpt lat="47.6287404" lon="-0.7158344">
    <name>Collège François d Assise</name>
    <cmt>Amenity::entertainment:public_bookcase</cmt>
    <desc>Boîte située devant le collège en bordure de route.</desc>
    <type>Boite à livre</type>
  </wpt>
  <wpt lat="47.4064084" lon="-0.7585082">
    <name>Centre Social L&apos;Atelier - rue de Savennières</name>
    <cmt>Amenity::entertainment:public_bookcase</cmt>
    <desc>Saint-Georges dispose de 2 boites à Lire, dont une mobile. Celle qui était à la salle Beau Site est maintenant au centre social L&apos;Atelier et voyagera au fil des manifestations ou des demandes.</desc>
    <type>Boite à livre</type>
  </wpt>
  <wpt lat="47.4055663" lon="-0.7614572">
    <name>Rue des Peupliers</name>
    <cmt>Amenity::entertainment:public_bookcase</cmt>
    <desc>Devant la salle des fetes Beausite, a coté de l étang</desc>
    <type>Boite à livre</type>
  </wpt>
  <wpt lat="47.5483399" lon="-0.0412">
    <name>place des acacias</name>
    <cmt>Amenity::entertainment:public_bookcase</cmt>
    <desc>Réfrigérateur recyclé en boite à lire redécoré installé au fond de la place sous les arbres à côté d un banc pour éventuellement échanger quelques conversations avec les amateurs de livres</desc>
    <type>Boite à livre</type>
  </wpt>
  <wpt lat="47.5406146" lon="-0.10024">
    <name>5 Place Orgerie</name>
    <cmt>Amenity::entertainment:public_bookcase</cmt>
    <desc>Réfrigérateur pour nouvelles fraichescentre culturel René D Anjou</desc>
    <type>Boite à livre</type>
  </wpt>
  <wpt lat="47.4789681" lon="-0.1017499">
    <name>rue du Soleil d Or</name>
    <cmt>Amenity::entertainment:public_bookcase</cmt>
    <desc>Ancienne cabine France TelecomParking</desc>
    <type>Boite à livre</type>
  </wpt>
  <wpt lat="47.4948425" lon="-0.0465208">
    <name>Place des tilleuls</name>
    <cmt>Amenity::entertainment:public_bookcase</cmt>
    <desc>Ancienne cabine téléphonique</desc>
    <type>Boite à livre</type>
  </wpt>
  <wpt lat="47.4930732" lon="-0.0447466">
    <name>rue du lavoir</name>
    <cmt>Amenity::entertainment:public_bookcase</cmt>
    <desc>Près du lavoir,jardin public</desc>
    <type>Boite à livre</type>
  </wpt>
  <wpt lat="47.5507405" lon="-0.2878028">
    <name>Lac de Malagué</name>
    <cmt>Amenity::entertainment:public_bookcase</cmt>
    <desc>Mini bibliothèque estivale située devant la cabane d accueil.</desc>
    <type>Boite à livre</type>
  </wpt>
  <wpt lat="47.5015255" lon="-0.2458515">
    <name>rue de la fontaine</name>
    <cmt>Amenity::entertainment:public_bookcase</cmt>
    <desc>Dans une ancienne armoire froide, près de l aire de jeux.</desc>
    <type>Boite à livre</type>
  </wpt>
  <wpt lat="47.4246993" lon="-0.525748">
    <name>2 avenue de la Boire Salée</name>
    <cmt>Amenity::entertainment:public_bookcase</cmt>
    <desc>Mise en place par la médiathèque des Ponts-de-Cé</desc>
    <type>Boite à livre</type>
  </wpt>
  <wpt lat="47.5650992" lon="-0.5037645">
    <name>Rue Henri Matisse</name>
    <cmt>Amenity::entertainment:public_bookcase</cmt>
    <type>Boite à livre</type>
  </wpt>
  <wpt lat="47.6206264" lon="-0.5069582">
    <name>Square Renée Goujon</name>
    <cmt>Amenity::entertainment:public_bookcase</cmt>
    <desc>Buffet vitré installé en avril 2015 par les bénévoles de la bibliothèque de Cheffes, sous le porche du square de la mairie.</desc>
    <type>Boite à livre</type>
  </wpt>
  <wpt lat="47.3011904" lon="-1.0803125">
    <name>Rue de la mairie</name>
    <cmt>Amenity::entertainment:public_bookcase</cmt>
    <desc>Une enseigne cabine téléphonique</desc>
    <type>Boite à livre</type>
  </wpt>
  <wpt lat="47.4571916" lon="-0.5316553">
    <name>place de la fraternité</name>
    <cmt>Amenity::entertainment:public_bookcase</cmt>
    <desc>Elle se trouve sous le jardin sonore , derrière l&apos;arrêt de tramway</desc>
    <type>Boite à livre</type>
  </wpt>
  <wpt lat="47.4853673" lon="-0.5458298">
    <name>5 rue Richard Lenoir</name>
    <cmt>Amenity::entertainment:public_bookcase</cmt>
    <desc>A la sortie du magasin l eau vive</desc>
    <type>Boite à livre</type>
  </wpt>
  <wpt lat="47.5113047" lon="-0.5491966">
    <name>La ferme de l île saint aubin</name>
    <cmt>Amenity::entertainment:public_bookcase</cmt>
    <desc>Boite de livres à disposition à l entrée de la cour de la ferme.</desc>
    <type>Boite à livre</type>
  </wpt>
  <wpt lat="47.4765575" lon="-0.577957">
    <name>Parc de la Garenne</name>
    <cmt>Amenity::entertainment:public_bookcase</cmt>
    <desc>Boîte située en face des jeux pour enfants sous un abri.</desc>
    <type>Boite à livre</type>
  </wpt>
  <wpt lat="47.4702915" lon="-0.5395021">
    <name>Parc Bellefontaine</name>
    <cmt>Amenity::entertainment:public_bookcase</cmt>
    <desc>Elle se trouve dans le parc même sur le chemin bétonné près de l entrée qui donne sur le parking et sur la rue de la Rame.</desc>
    <type>Boite à livre</type>
  </wpt>
  <wpt lat="47.4738125" lon="-0.5624408">
    <name>25 Place Grégoire Bordillon</name>
    <cmt>Amenity::entertainment:public_bookcase</cmt>
    <desc>Elle se trouve devant la boutique La Petite Fermière</desc>
    <type>Boite à livre</type>
  </wpt>
  <wpt lat="47.4895396" lon="-0.5300373">
    <name>Rue du Pin</name>
    <cmt>Amenity::entertainment:public_bookcase</cmt>
    <desc>Elle se trouve dans le parc du Pin</desc>
    <type>Boite à livre</type>
  </wpt>
  <wpt lat="47.4441464" lon="-0.5636733">
    <name>1 bis rue Henri-Bergson</name>
    <cmt>Amenity::entertainment:public_bookcase</cmt>
    <desc>Il y en a plusieurs , en effet il y a une petite étagère dans la bibliothèque , et 2 très grosses dans le fond de la salle café.</desc>
    <type>Boite à livre</type>
  </wpt>
  <wpt lat="47.476507" lon="-0.5447425">
    <name>Rue Boreau</name>
    <cmt>Amenity::entertainment:public_bookcase</cmt>
    <desc>La boite se situe au c?ur du parc du Jardin des Plantes.</desc>
    <type>Boite à livre</type>
  </wpt>
  <wpt lat="47.4708651" lon="-0.5474988">
    <name>Boulevard Résistance et Déportation</name>
    <cmt>Amenity::entertainment:public_bookcase</cmt>
    <desc>La boite se situe dans le Jardin du Mail</desc>
    <type>Boite à livre</type>
  </wpt>
  <wpt lat="47.4683774" lon="-0.5954164">
    <name>Centre commercial Grand Maine</name>
    <cmt>Amenity::entertainment:public_bookcase</cmt>
    <desc>Bibliothèque partagée située dans le hall principal à côté de l ascenseur.</desc>
    <type>Boite à livre</type>
  </wpt>
  <wpt lat="47.4765742" lon="-0.6278324">
    <name>Avenue de la Grange aux Belles</name>
    <cmt>Amenity::entertainment:public_bookcase</cmt>
    <desc>La boite se trouve au bout du parking du groupe scolaire Maurice Ravel à proximité de l arrêt de bus.</desc>
    <type>Boite à livre</type>
  </wpt>
  <wpt lat="47.4748312" lon="-0.5444026">
    <name>jardin des plantes</name>
    <cmt>Amenity::entertainment:public_bookcase</cmt>
    <type>Boite à livre</type>
  </wpt>
  <wpt lat="47.4511321" lon="-0.5422706">
    <name>jardin de l arboretum</name>
    <cmt>Amenity::entertainment:public_bookcase</cmt>
    <type>Boite à livre</type>
  </wpt>
  <wpt lat="47.4920059" lon="-0.5126965">
    <name>Centre commercial Éventard</name>
    <cmt>Amenity::entertainment:public_bookcase</cmt>
    <desc>Boîte située au coeur du centre commercial.</desc>
    <type>Boite à livre</type>
  </wpt>
  <wpt lat="47.4758987" lon="-0.5890877">
    <name>32 Rue Henri Hamelin</name>
    <cmt>Amenity::entertainment:public_bookcase</cmt>
    <desc>à coté du bureau de poste de belle beille</desc>
    <type>Boite à livre</type>
  </wpt>
  <wpt lat="47.4564968" lon="-0.5499309">
    <name>rue de LOCARNO</name>
    <cmt>Amenity::entertainment:public_bookcase</cmt>
    <desc>à coté de l église Ste Bernadette</desc>
    <type>Boite à livre</type>
  </wpt>
  <wpt lat="47.4529042" lon="-0.5260771">
    <name>Place des justices</name>
    <cmt>Amenity::entertainment:public_bookcase</cmt>
    <desc>Ce n&apos;est pas vraiment une boîte, mais à l&apos;intérieur de la bibliothèque des 3 mâts il y a un panier où on peut échanger.</desc>
    <type>Boite à livre</type>
  </wpt>
  <wpt lat="47.4709334" lon="-0.5513821">
    <name>Place du Ralliement</name>
    <cmt>Amenity::entertainment:public_bookcase</cmt>
    <type>Boite à livre</type>
  </wpt>
  <wpt lat="47.4506897" lon="-0.5444507">
    <name>9 Rue du Château d&apos;Orgemont</name>
    <cmt>Amenity::entertainment:public_bookcase</cmt>
    <desc>La boîte se situe dans le Jardin de l&apos;Arboretum  dans un écrin végétal propice à la lecture.</desc>
    <type>Boite à livre</type>
  </wpt>
  <wpt lat="47.147523" lon="-1.560766">
    <name>Rue de la Gautellerie</name>
    <cmt>Amenity::entertainment:public_bookcase</cmt>
    <desc>Près de l Etang</desc>
    <type>Boite à livre</type>
  </wpt>
  <wpt lat="47.148167" lon="-1.5309356">
    <name>1 Rue des Sports</name>
    <cmt>Amenity::entertainment:public_bookcase</cmt>
    <desc>Suite aux incivilités des gens qui ont eu lieu au Parc hippolyte derouet, 44840 Les sorinières. La boite à livre a été déplacé derrière la mairie.</desc>
    <type>Boite à livre</type>
  </wpt>
  <wpt lat="47.148515" lon="-1.523631">
    <name>Parc Hippolyte Derouet</name>
    <cmt>Amenity::entertainment:public_bookcase</cmt>
    <type>Boite à livre</type>
  </wpt>
  <wpt lat="47.2421409" lon="-1.600386">
    <name>Avenue de Cheverny</name>
    <cmt>Amenity::entertainment:public_bookcase</cmt>
    <desc>boite à  livre genial avec beaucoup de variété de lecturepour petit et grand</desc>
    <type>Boite à livre</type>
  </wpt>
  <wpt lat="47.2445647" lon="-1.6355204">
    <name>Boulevard Jacques Monod</name>
    <cmt>Amenity::entertainment:public_bookcase</cmt>
    <desc>ICO Centre René Gauducheau</desc>
    <type>Boite à livre</type>
  </wpt>
  <wpt lat="47.2414425917141" lon="-1.608204245567322">
    <name>1 rue du Nil , centre com. Des Thébaudières</name>
    <cmt>Amenity::entertainment:public_bookcase</cmt>
    <desc>Un étage est réservé pour les enfants</desc>
    <type>Boite à livre</type>
  </wpt>
  <wpt lat="47.4123972" lon="-1.9687843">
    <name>place de l église</name>
    <cmt>Amenity::entertainment:public_bookcase</cmt>
    <desc>sous les halles en face l eglise , grande boite en bois</desc>
    <type>Boite à livre</type>
  </wpt>
  <wpt lat="47.18118856875575" lon="-2.150702476501465">
    <name>RUE DU REDOIS</name>
    <cmt>Amenity::entertainment:public_bookcase</cmt>
    <desc>Derrière la médiathèque auprès de l&apos;école, dans une cabine téléphonique</desc>
    <type>Boite à livre</type>
  </wpt>
  <wpt lat="47.133644040435996" lon="-1.732578277587891">
    <name>Rue de la rive</name>
    <cmt>Amenity::entertainment:public_bookcase</cmt>
    <desc>A l&apos;entrée du complexe sportif de la rive</desc>
    <type>Boite à livre</type>
  </wpt>
  <wpt lat="47.251556" lon="-1.5893876">
    <name>5 rue de la source</name>
    <cmt>Amenity::entertainment:public_bookcase</cmt>
    <desc>Little Free Library</desc>
    <type>Boite à livre</type>
  </wpt>
  <wpt lat="47.2535778" lon="-1.5974135">
    <name>46, avenue Alexandre Goupil</name>
    <cmt>Amenity::entertainment:public_bookcase</cmt>
    <desc>Elle se situe dans la bibliothèque.</desc>
    <type>Boite à livre</type>
  </wpt>
  <wpt lat="47.272254" lon="-1.6268734">
    <name>rue Robert Le Ricolais</name>
    <cmt>Amenity::entertainment:public_bookcase</cmt>
    <desc>Elle est située dans la Médiathèque Ormédo</desc>
    <type>Boite à livre</type>
  </wpt>
  <wpt lat="47.1036439" lon="-1.8103273">
    <name>place de Retz</name>
    <cmt>Amenity::entertainment:public_bookcase</cmt>
    <type>Boite à livre</type>
  </wpt>
  <wpt lat="47.100839" lon="-1.810183">
    <name>Place de l Abbé Portier</name>
    <cmt>Amenity::entertainment:public_bookcase</cmt>
    <type>Boite à livre</type>
  </wpt>
  <wpt lat="47.1059964" lon="-1.8105784">
    <name>rue du Vigneau</name>
    <cmt>Amenity::entertainment:public_bookcase</cmt>
    <type>Boite à livre</type>
  </wpt>
  <wpt lat="46.966619" lon="-1.576929">
    <name>rue du 8 mai 1945</name>
    <cmt>Amenity::entertainment:public_bookcase</cmt>
    <type>Boite à livre</type>
  </wpt>
  <wpt lat="47.1774609" lon="-1.6777939">
    <name>super u</name>
    <cmt>Amenity::entertainment:public_bookcase</cmt>
    <desc>Il y a une boîte à livre à l&apos;entrée du super u de la montagne</desc>
    <type>Boite à livre</type>
  </wpt>
  <wpt lat="47.1898153" lon="-1.6839436">
    <name>Place de l&apos;Église</name>
    <cmt>Amenity::entertainment:public_bookcase</cmt>
    <desc>Cette boîte à lire  la plus utilisée de la commune  est placée sur le mur de la Poste  en face de l&apos;église.</desc>
    <type>Boite à livre</type>
  </wpt>
  <wpt lat="47.1841775" lon="-1.6838935">
    <name>Rue Saint-Exupéry</name>
    <cmt>Amenity::entertainment:public_bookcase</cmt>
    <desc>Cette boîte à lire se situe à l&apos;entrée du collège Saint-Exupéry</desc>
    <type>Boite à livre</type>
  </wpt>
  <wpt lat="47.1884883" lon="-1.6836739">
    <name>place Similien-Guérin</name>
    <cmt>Amenity::entertainment:public_bookcase</cmt>
    <desc>Cette boîte est installée tout près du cinéma Le Montagnard  sur la place où se tient le marché le mercredi matin.</desc>
    <type>Boite à livre</type>
  </wpt>
  <wpt lat="47.2734979" lon="-2.213848">
    <name>ctrost@hotmail.com</name>
    <cmt>Amenity::entertainment:public_bookcase</cmt>
    <desc>Bonjour, Il existe plusieurs bibliothèques de rue à Guérande. http://www.mediatheque.ville-guerande.fr/infos-pratiques/boites-a-livres</desc>
    <type>Boite à livre</type>
  </wpt>
  <wpt lat="47.238141" lon="-2.27973">
    <name>Plage de Monsieur Hulot</name>
    <cmt>Amenity::entertainment:public_bookcase</cmt>
    <type>Boite à livre</type>
  </wpt>
  <wpt lat="47.27673234207351" lon="-2.210934162139893">
    <name>Rue de la Paix</name>
    <cmt>Amenity::entertainment:public_bookcase</cmt>
    <desc>A côté du Pop Art Café</desc>
    <type>Boite à livre</type>
  </wpt>
  <wpt lat="47.256858" lon="-2.2640509">
    <name>332 Route de la Côte d&apos;Amour</name>
    <cmt>Amenity::entertainment:public_bookcase</cmt>
    <desc>La boite se situe en face du magasin Yves Rocher.</desc>
    <type>Boite à livre</type>
  </wpt>
  <wpt lat="47.2796628" lon="-2.2107246">
    <name>40 Rue Jean Jaures</name>
    <cmt>Amenity::entertainment:public_bookcase</cmt>
    <desc>Elle se trouve à coté de la Librairie les Idées Larges.</desc>
    <type>Boite à livre</type>
  </wpt>
  <wpt lat="47.0627939" lon="-2.0011543">
    <name>3, place de l église madame</name>
    <cmt>Amenity::entertainment:public_bookcase</cmt>
    <type>Boite à livre</type>
  </wpt>
  <wpt lat="47.0629388" lon="-2.007273">
    <name>plage du pré vincent</name>
    <cmt>Amenity::entertainment:public_bookcase</cmt>
    <desc>du coté gauche de la plage , au début du sentier cotier sur le mur de la petite maison, belle boite en bois</desc>
    <type>Boite à livre</type>
  </wpt>
  <wpt lat="47.3004017" lon="-2.2103982">
    <name>ZAC de la fontaine au brun</name>
    <cmt>Amenity::entertainment:public_bookcase</cmt>
    <desc>Dans la galerie du Auchan</desc>
    <type>Boite à livre</type>
  </wpt>
  <wpt lat="47.2797811" lon="-2.0624422">
    <name>Port de la maison verte</name>
    <cmt>Amenity::entertainment:public_bookcase</cmt>
    <desc>Jolie boîte en forme de pêcherie pour rappeler toutes celles qui sont situées à proximité, le long de la Loire</desc>
    <type>Boite à livre</type>
  </wpt>
  <wpt lat="47.2797811" lon="-2.0624422">
    <name>Port de la maison verte</name>
    <cmt>Amenity::entertainment:public_bookcase</cmt>
    <desc>Jolie boîte en forme de pêcherie pour rappeler toutes celles qui sont situées à proximité, le long de la Loire</desc>
    <type>Boite à livre</type>
  </wpt>
  <wpt lat="47.276953" lon="-2.061635">
    <name>rue de la Cour</name>
    <cmt>Amenity::entertainment:public_bookcase</cmt>
    <desc>La boîte se situe au milieu du parking, entre la pharmacie et la boucherie.</desc>
    <type>Boite à livre</type>
  </wpt>
  <wpt lat="47.4748741" lon="-2.0579874">
    <name>GRANDE RUE</name>
    <cmt>Amenity::entertainment:public_bookcase</cmt>
    <desc>Voici un projet de L ARBRE A MOTS avec la mise en place d&apos;une Boite à Livres. Installé depuis octobre  elle rencontre un vif succès.</desc>
    <type>Boite à livre</type>
  </wpt>
  <wpt lat="47.2756581" lon="-2.4301268">
    <name>rue du Maréchal Joffre</name>
    <cmt>Amenity::entertainment:public_bookcase</cmt>
    <desc>La boite à lire se trouve près du cinéma Pax.</desc>
    <type>Boite à livre</type>
  </wpt>
  <wpt lat="47.2767866" lon="-2.4278443">
    <name>quai jules Sandeau</name>
    <cmt>Amenity::entertainment:public_bookcase</cmt>
    <desc>Un boite à lire se trouve sur le quai face au jeu d eau.</desc>
    <type>Boite à livre</type>
  </wpt>
  <wpt lat="47.2827546" lon="-2.3947535">
    <name>7 Avenue Olivier Guichard</name>
    <cmt>Amenity::entertainment:public_bookcase</cmt>
    <desc>Devant l hôtel de ville.</desc>
    <type>Boite à livre</type>
  </wpt>
  <wpt lat="47.2885049" lon="-2.3891998">
    <name>La Gare</name>
    <cmt>Amenity::entertainment:public_bookcase</cmt>
    <desc>En face de la gare, sur le trottoir devant le café.</desc>
    <type>Boite à livre</type>
  </wpt>
  <wpt lat="47.2717907" lon="-2.3451946">
    <name>Annexe de la mairie du Guézy</name>
    <cmt>Amenity::entertainment:public_bookcase</cmt>
    <desc>Une autre cabane à livres, devant l annexe de la mairie, au Guézy.</desc>
    <type>Boite à livre</type>
  </wpt>
  <wpt lat="47.280245" lon="-2.3683081">
    <name>Avenue de la Grande Dune</name>
    <cmt>Amenity::entertainment:public_bookcase</cmt>
    <desc>Une des cabanes à livres qui se trouve sur le remblais de La Baule.</desc>
    <type>Boite à livre</type>
  </wpt>
  <wpt lat="47.2847149" lon="-2.3953049">
    <name>place du marché</name>
    <cmt>Amenity::entertainment:public_bookcase</cmt>
    <desc>une cabine à livres idéale pour emprunter ou déposer des livres en allant au marche</desc>
    <type>Boite à livre</type>
  </wpt>
  <wpt lat="47.2806047" lon="-2.3772509">
    <name>avenue de saumur</name>
    <cmt>Amenity::entertainment:public_bookcase</cmt>
    <desc>Je viens de voir 2 boîtes à lire en passant sur le remblais. Une en face de l&apos;avenue de Saumur, la 2è entre Pornichet et l&apos;Avenue de la Grande Dune</desc>
    <type>Boite à livre</type>
  </wpt>
  <wpt lat="47.2808204" lon="-2.3835904">
    <name>Boulevard du Docteur René Dubois</name>
    <cmt>Amenity::entertainment:public_bookcase</cmt>
    <desc>Très jolie Cabine de plage à lire, assortie aux vraies de la plage.</desc>
    <type>Boite à livre</type>
  </wpt>
  <wpt lat="47.294319" lon="-2.511908">
    <name>plage de port lin</name>
    <cmt>Amenity::entertainment:public_bookcase</cmt>
    <desc>Installée récemment  c&apos;est très agréable de pouvoir emprunter un livre pour aller lire sur la plage.</desc>
    <type>Boite à livre</type>
  </wpt>
  <wpt lat="47.5885754" lon="-2.0430945">
    <name>Rue de l&apos;hôtel denis</name>
    <cmt>Amenity::entertainment:public_bookcase</cmt>
    <desc>La boite se trouve sur le parking près du vival</desc>
    <type>Boite à livre</type>
  </wpt>
  <wpt lat="47.4853041" lon="-1.2398245">
    <name>Place de l&apos;église</name>
    <cmt>Amenity::entertainment:public_bookcase</cmt>
    <desc>Elle a été fabriquée et installée par les bénévoles de la bibliothèque Bouillon de lecture&quot;&quot; de Pannecé&quot;&quot; début novembre 2015.</desc>
    <type>Boite à livre</type>
  </wpt>
  <wpt lat="47.2378209" lon="-1.348446">
    <name>Rue de la Source, Village La Pochaude</name>
    <cmt>Amenity::entertainment:public_bookcase</cmt>
    <desc>Au c?ur du village</desc>
    <type>Boite à livre</type>
  </wpt>
  <wpt lat="47.227226" lon="-1.313199">
    <name>village du Pé Bardou</name>
    <cmt>Amenity::entertainment:public_bookcase</cmt>
    <desc>au c?ur du village, près de l arrêt du car.</desc>
    <type>Boite à livre</type>
  </wpt>
  <wpt lat="47.2353768" lon="-1.3404621">
    <name>salle de sport du complexe sportif du zephir, rue d anjou</name>
    <cmt>Amenity::entertainment:public_bookcase</cmt>
    <desc>A l extérieur devant l&apos;entrée principale du complexe</desc>
    <type>Boite à livre</type>
  </wpt>
  <wpt lat="47.2322782" lon="-1.2205059">
    <name>Place de l église</name>
    <cmt>Amenity::entertainment:public_bookcase</cmt>
    <type>Boite à livre</type>
  </wpt>
  <wpt lat="47.2385504" lon="-1.3492534">
    <name>rue du jeu de paume</name>
    <cmt>Amenity::entertainment:public_bookcase</cmt>
    <desc>Sur la place de l&apos;église face à la laverie automatique</desc>
    <type>Boite à livre</type>
  </wpt>
  <wpt lat="47.380773" lon="-2.5462186">
    <name>Place de l&apos;église</name>
    <cmt>Amenity::entertainment:public_bookcase</cmt>
    <desc>Boite située près du calvaire.</desc>
    <type>Boite à livre</type>
  </wpt>
  <wpt lat="47.407163" lon="-2.355058">
    <name>Pompas</name>
    <cmt>Amenity::entertainment:public_bookcase</cmt>
    <desc>Armoire sous l abribus à proximité de l&apos;église de Pompas.</desc>
    <type>Boite à livre</type>
  </wpt>
  <wpt lat="47.409336" lon="-2.298955">
    <name>Marlais</name>
    <cmt>Amenity::entertainment:public_bookcase</cmt>
    <desc>Armoire sous l&apos;abribus à l&apos;entrée du village de Marlais.</desc>
    <type>Boite à livre</type>
  </wpt>
  <wpt lat="47.1815133" lon="-1.5541667">
    <name>Allée des Primevères</name>
    <cmt>Amenity::entertainment:public_bookcase</cmt>
    <desc>En forme de cabine de téléphone rouge britannique</desc>
    <type>Boite à livre</type>
  </wpt>
  <wpt lat="47.1903852" lon="-1.5701522">
    <name>rue camille jouis</name>
    <cmt>Amenity::entertainment:public_bookcase</cmt>
    <desc>Construite par un particulier, dans une petite rue à côté de l église et de la mairie de Rezé, elle est installée sur le muret de sa maison. Pour ne pas la rater, elle est juste en face de l&apos;école Saint-joseph.</desc>
    <type>Boite à livre</type>
  </wpt>
  <wpt lat="47.1947916" lon="-1.5783107">
    <name>quai robert surcouf</name>
    <cmt>Amenity::entertainment:public_bookcase</cmt>
    <desc>près du café du port</desc>
    <type>Boite à livre</type>
  </wpt>
  <wpt lat="47.439945855366076" lon="-1.497949361801148">
    <name>Rue des Mariniers</name>
    <cmt>Amenity::entertainment:public_bookcase</cmt>
    <desc>Située en haut de la rue de la Paix</desc>
    <type>Boite à livre</type>
  </wpt>
  <wpt lat="47.2778143" lon="-1.7820945">
    <name>Place Foch</name>
    <cmt>Amenity::entertainment:public_bookcase</cmt>
    <desc>Il s&apos;agit d&apos;une cabane  bric a brac avec des étagères spécialement pour les livres. Pas loin de la fontaine du parc.</desc>
    <type>Boite à livre</type>
  </wpt>
  <wpt lat="47.283346" lon="-1.8731685">
    <name>port</name>
    <cmt>Amenity::entertainment:public_bookcase</cmt>
    <desc>Entrée du grand lac à côté du port.</desc>
    <type>Boite à livre</type>
  </wpt>
  <wpt lat="47.39208" lon="-2.422581">
    <name>rue des épis</name>
    <cmt>Amenity::entertainment:public_bookcase</cmt>
    <desc>Une armoire  livre-service&quot;&quot; gérée par les bénévoles de l association Culture et bibliothèque pour tous</desc>
    <type>Boite à livre</type>
  </wpt>
  <wpt lat="47.2946912" lon="-2.4311026">
    <name>Place Jean IV</name>
    <cmt>Amenity::entertainment:public_bookcase</cmt>
    <desc>La boîte se situe à gauche de l église, à côté de la longue rampe d&apos;accès, face à la maison des Paludiers</desc>
    <type>Boite à livre</type>
  </wpt>
  <wpt lat="47.167258642558956" lon="-1.266785860061646">
    <name>Route d Ancenis</name>
    <cmt>Amenity::entertainment:public_bookcase</cmt>
    <desc>La boite à lire se trouve auprès de l Espace Culturel Le Champilambart</desc>
    <type>Boite à livre</type>
  </wpt>
  <wpt lat="47.161146" lon="-1.266624">
    <name>rue du ribateau</name>
    <cmt>Amenity::entertainment:public_bookcase</cmt>
    <desc>Cette boite se trouve au croisement de la rue du ribateau et de la rue francois luneau, à cote de la mairie.</desc>
    <type>Boite à livre</type>
  </wpt>
  <wpt lat="47.1627093" lon="-1.2653411">
    <name>7 Boulevard Evariste Dejoie</name>
    <cmt>Amenity::entertainment:public_bookcase</cmt>
    <desc>La boite est dans le hall d accueil de la piscine Naïadolis</desc>
    <type>Boite à livre</type>
  </wpt>
  <wpt lat="47.160929" lon="-1.265138">
    <name>Square Jim-Howart</name>
    <cmt>Amenity::entertainment:public_bookcase</cmt>
    <type>Boite à livre</type>
  </wpt>
  <wpt lat="47.2576205" lon="-2.0185557">
    <name>10 rue parc des sports</name>
    <cmt>Amenity::entertainment:public_bookcase</cmt>
    <desc>Située près de l&apos;entrée de l&apos;école, côté maternelle. La maison des livres est un petit chalet réalisé par les parents de l&apos;école Saint Vital.</desc>
    <type>Boite à livre</type>
  </wpt>
  <wpt lat="47.2575403" lon="-1.9144393">
    <name>Square de la Chaussée</name>
    <cmt>Amenity::entertainment:public_bookcase</cmt>
    <desc>A l&apos;entrée du camping municipal  cette boîte à lire a été installée par la mairie  au bord du Canal de la Martinière  tout près de l&apos;Incroyable Jardin du Migron et du Quai Vert.</desc>
    <type>Boite à livre</type>
  </wpt>
  <wpt lat="47.2440132" lon="-1.9318597">
    <name>2 rue de Bel Air</name>
    <cmt>Amenity::entertainment:public_bookcase</cmt>
    <desc>C&apos;est une boîte installée par la mairie dans le jardin derrière la bibliothèque/espace culturel.</desc>
    <type>Boite à livre</type>
  </wpt>
  <wpt lat="47.035575673302034" lon="-1.639226675033569">
    <name>Square du rond point de plaisance</name>
    <cmt>Amenity::entertainment:public_bookcase</cmt>
    <type>Boite à livre</type>
  </wpt>
  <wpt lat="47.2333692" lon="-1.558936">
    <name>PLace du 116ème régiment d Infanterie</name>
    <cmt>Amenity::entertainment:public_bookcase</cmt>
    <type>Boite à livre</type>
  </wpt>
  <wpt lat="47.2492459" lon="-1.554009">
    <name>UFR de sociologie bât F0 23 rue du recteur Schmitt</name>
    <cmt>Amenity::entertainment:public_bookcase</cmt>
    <desc>Boîte à lire disponible dans le couloir devant l&apos;amphi</desc>
    <type>Boite à livre</type>
  </wpt>
  <wpt lat="47.244188" lon="-1.551026">
    <name>Chemin de la Censive du Tertre, bâtiment de Droit</name>
    <cmt>Amenity::entertainment:public_bookcase</cmt>
    <desc>Bibliothèque participative lancée par l UFR Droit dans une  bibliothèque vitrée dans le hall central du bâtiment de Droit</desc>
    <type>Boite à livre</type>
  </wpt>
  <wpt lat="46.9975599" lon="-1.736557">
    <name>24 rue des fosses</name>
    <cmt>Amenity::entertainment:public_bookcase</cmt>
    <desc>devant les commerces de proximité Vival, très belle initiative.</desc>
    <type>Boite à livre</type>
  </wpt>
  <wpt lat="46.99242371806576" lon="-1.819696426391602">
    <name>Rue du marché</name>
    <cmt>Amenity::entertainment:public_bookcase</cmt>
    <desc>Bien protégée dans un encoignure</desc>
    <type>Boite à livre</type>
  </wpt>
  <wpt lat="47.2344637" lon="-2.1754876">
    <name>Parc du Pointeau</name>
    <cmt>Amenity::entertainment:public_bookcase</cmt>
    <desc>Cette boite à livres, non visible de la rue,  est située à environ 100 mètres de l entrée du Parc du Pointeau, côté de l avenue du Maréchal Foch.  La Municipalité de Saint-Brévin y a installé des bancs permettant la lecture sur place .</desc>
    <type>Boite à livre</type>
  </wpt>
  <wpt lat="47.2679344" lon="-2.1678018">
    <name>Place de Bougainville, MINDIN</name>
    <cmt>Amenity::entertainment:public_bookcase</cmt>
    <desc>A proximité du Pont de Saint-Nazaire, Place de Bougainville, côté Jardin Public</desc>
    <type>Boite à livre</type>
  </wpt>
  <wpt lat="47.2261929" lon="-2.1720646">
    <name>Boulevard de l Océan, St-Brévin l&apos;Océan</name>
    <cmt>Amenity::entertainment:public_bookcase</cmt>
    <desc>Boite à lire située à Saint-Brévin l Océan, boulevard de l&apos;Océan, entre le terrain de jeux pour enfants et le Syndicat d&apos;Initiatives.</desc>
    <type>Boite à livre</type>
  </wpt>
  <wpt lat="47.247038" lon="-2.169577">
    <name>Boulevard Padioleau</name>
    <cmt>Amenity::entertainment:public_bookcase</cmt>
    <desc>Très jolie boîte à lire à deux faces identiques  fabriquée par une personne qui créé des jeux en bois. Assortie au Burger-glacier La cuisine d Apolline juste à côté. Face à l&apos;Estuaire et Saint Nazaire.</desc>
    <type>Boite à livre</type>
  </wpt>
  <wpt lat="47.3130236" lon="-1.5428994">
    <name>15 Route de Sucé</name>
    <cmt>Amenity::entertainment:public_bookcase</cmt>
    <desc>Dans la laverie du centre commercial Intermarché</desc>
    <type>Boite à livre</type>
  </wpt>
  <wpt lat="47.2376968" lon="-1.6372547">
    <name>Centre René Gauducheau</name>
    <cmt>Amenity::entertainment:public_bookcase</cmt>
    <desc>ICO Centre René Gauducheau Saint-Herblain</desc>
    <type>Boite à livre</type>
  </wpt>
  <wpt lat="47.2136315" lon="-1.7278771">
    <name>7 Boulevard François Blancho</name>
    <cmt>Amenity::entertainment:public_bookcase</cmt>
    <desc>Centre socio-culturel Pierre Legendre</desc>
    <type>Boite à livre</type>
  </wpt>
  <wpt lat="47.1151002" lon="-2.0985996">
    <name>Parc botanique de la Ria</name>
    <cmt>Amenity::entertainment:public_bookcase</cmt>
    <desc>Située au calme, une jolie boîte en bois dans le parc botanique de la Ria</desc>
    <type>Boite à livre</type>
  </wpt>
  <wpt lat="47.112872" lon="-2.1311715">
    <name>1, place de la Libération</name>
    <cmt>Amenity::entertainment:public_bookcase</cmt>
    <desc>boîte à livres</desc>
    <type>Boite à livre</type>
  </wpt>
  <wpt lat="47.1228958" lon="-2.0595785">
    <name>RUE DES NONDALES</name>
    <cmt>Amenity::entertainment:public_bookcase</cmt>
    <desc>grande boite en bois face a l église , a coté de l&apos;école</desc>
    <type>Boite à livre</type>
  </wpt>
  <wpt lat="47.115771" lon="-2.1043621">
    <name>Rue Clémenceau</name>
    <cmt>Amenity::entertainment:public_bookcase</cmt>
    <desc>Une boîte à lire grande comme une boîte à lettres.</desc>
    <type>Boite à livre</type>
  </wpt>
  <wpt lat="47.115771" lon="-2.1043621">
    <name>rue Clémenceau</name>
    <cmt>Amenity::entertainment:public_bookcase</cmt>
    <desc>Située dans une ancienne boîte à lettres  dans le mur d une maison</desc>
    <type>Boite à livre</type>
  </wpt>
  <wpt lat="47.2066394" lon="-1.5492607">
    <name>8 rue Grande Biesse</name>
    <cmt>Amenity::entertainment:public_bookcase</cmt>
    <desc>Troc de livre de cuisine au sein d&apos;une épicerie-bar-restaurant, La Grande Barge, sur l&apos;île de Nantes.</desc>
    <type>Boite à livre</type>
  </wpt>
  <wpt lat="47.1877566" lon="-1.5202841">
    <name>rue de la Gilarderie</name>
    <cmt>Amenity::entertainment:public_bookcase</cmt>
    <desc>Devant la vierge entre la rue de la Gilarderie et la rue de la Perrière.</desc>
    <type>Boite à livre</type>
  </wpt>
  <wpt lat="47.1943206" lon="-1.5289512">
    <name>place du muguet nantais</name>
    <cmt>Amenity::entertainment:public_bookcase</cmt>
    <desc>Devant la Maison des confluences, arbre à livres inauguré le 18 mai 2017.</desc>
    <type>Boite à livre</type>
  </wpt>
  <wpt lat="47.2008798" lon="-1.5732543">
    <name>21 quai des Antilles</name>
    <cmt>Amenity::entertainment:public_bookcase</cmt>
    <desc>En bord de Loire sur l ïle de Nantes.</desc>
    <type>Boite à livre</type>
  </wpt>
  <wpt lat="47.0860788" lon="-1.2859682">
    <name>Parvis de la gare</name>
    <cmt>Amenity::entertainment:public_bookcase</cmt>
    <desc>Ancienne cabine téléphonique transformée en cabane à livres</desc>
    <type>Boite à livre</type>
  </wpt>
  <wpt lat="47.085845" lon="-1.279577">
    <name>Rue de la montée de l Éperon</name>
    <cmt>Amenity::entertainment:public_bookcase</cmt>
    <desc>Ancienne cabine téléphonique acceuillant des livres, bercée par les clapotis de la Sèvre Nantaise</desc>
    <type>Boite à livre</type>
  </wpt>
  <wpt lat="47.0833174" lon="-1.2848425">
    <name>Cours des marchés de bretagne</name>
    <cmt>Amenity::entertainment:public_bookcase</cmt>
    <desc>Même type que sur Clisson des belles cabines téléphoniques</desc>
    <type>Boite à livre</type>
  </wpt>
  <wpt lat="47.0856922" lon="-1.2806287">
    <name>parc du chateau</name>
    <cmt>Amenity::entertainment:public_bookcase</cmt>
    <desc>Au pied du château.</desc>
    <type>Boite à livre</type>
  </wpt>
  <wpt lat="47.0879629" lon="-1.2863923">
    <name>Rue Ferdinand Albert</name>
    <cmt>Amenity::entertainment:public_bookcase</cmt>
    <desc>Cabine téléphonique transformée en Boite à Lire sur le parvis de la gare Rue Ferdinand Albert.</desc>
    <type>Boite à livre</type>
  </wpt>
  <wpt lat="47.0865447" lon="-1.293025">
    <name>18 bis rue du pont du diable</name>
    <cmt>Amenity::entertainment:public_bookcase</cmt>
    <type>Boite à livre</type>
  </wpt>
  <wpt lat="47.3794043" lon="-1.1893302">
    <name>Rue Marie Noel</name>
    <cmt>Amenity::entertainment:public_bookcase</cmt>
    <desc>Une boîte rose pour partager ses lectures!</desc>
    <type>Boite à livre</type>
  </wpt>
  <wpt lat="47.060896" lon="-1.5182119">
    <name>Square des bois</name>
    <cmt>Amenity::entertainment:public_bookcase</cmt>
    <desc>4 boîtes à lire sur la commune</desc>
    <type>Boite à livre</type>
  </wpt>
  <wpt lat="47.057771" lon="-1.487902">
    <cmt>Amenity::entertainment:public_bookcase</cmt>
    <desc>La cabane à livres sous un grand chêne et près d un banc ! Projet initié par la bibliothèque municipale en associant les services techniques pour la mise à disposition de l&apos;armoire et son installation et les ados du Spot, espaces jeunes pour le relooking et la déco.</desc>
    <type>Boite à livre</type>
  </wpt>
  <wpt lat="47.15399" lon="-1.474506">
    <name>château de la Frémoire</name>
    <cmt>Amenity::entertainment:public_bookcase</cmt>
    <desc>la boite à lire se trouve à gauche en entrant sur le site sous une passerelle</desc>
    <type>Boite à livre</type>
  </wpt>
  <wpt lat="47.0969984" lon="-1.6379935">
    <name>Place des Pêcheurs</name>
    <cmt>Amenity::entertainment:public_bookcase</cmt>
    <desc>Ancien vestiaire en métal situé à côté des jeux</desc>
    <type>Boite à livre</type>
  </wpt>
  <wpt lat="47.2140536" lon="-1.4714752">
    <name>16 rue de l Abbaye</name>
    <cmt>Amenity::entertainment:public_bookcase</cmt>
    <desc>Au croisement entre la rue de l Abbaye et de l&apos;impasse du Muguet.</desc>
    <type>Boite à livre</type>
  </wpt>
  <wpt lat="47.2057779" lon="-1.4580047">
    <name>165 rue de Goulaine</name>
    <cmt>Amenity::entertainment:public_bookcase</cmt>
    <desc>Sur la boîte aux lettres du numéro 165. Près de l arrêt de car.</desc>
    <type>Boite à livre</type>
  </wpt>
  <wpt lat="47.7197137" lon="-1.3850217">
    <name>Parc de radervormwald</name>
    <cmt>Amenity::entertainment:public_bookcase</cmt>
    <type>Boite à livre</type>
  </wpt>
  <wpt lat="47.2059618" lon="-1.5877267">
    <name>136 Boulevard de la Liberté</name>
    <cmt>Amenity::entertainment:public_bookcase</cmt>
    <desc>Une petite boîte à livres est disponible dans la boulangerie</desc>
    <type>Boite à livre</type>
  </wpt>
  <wpt lat="47.2230352" lon="-1.5975594">
    <name>21 rue Charles Roger</name>
    <cmt>Amenity::entertainment:public_bookcase</cmt>
    <desc>Boîtes à lire en face de la bibliothèque Emilienne Leroux au quartier Dervalières</desc>
    <type>Boite à livre</type>
  </wpt>
  <wpt lat="47.2152158" lon="-1.5537231">
    <name>9, rue de la bâclerie</name>
    <cmt>Amenity::entertainment:public_bookcase</cmt>
    <desc>A l intérieur de la cabane dans la cour, une boîte à livres spéciale ouvrages jeunesses, à l&apos;initiative de l&apos;association Passage Sainte Croix</desc>
    <type>Boite à livre</type>
  </wpt>
  <wpt lat="47.2611039" lon="-1.5707483">
    <name>105 rue des renards</name>
    <cmt>Amenity::entertainment:public_bookcase</cmt>
    <desc>boîte à livres de l entreprise Arbres 44, mise à disposition devant les locaux, rentrée le soir</desc>
    <type>Boite à livre</type>
  </wpt>
  <wpt lat="47.2171444" lon="-1.5539258">
    <name>Rue Fénélon</name>
    <cmt>Amenity::entertainment:public_bookcase</cmt>
    <desc>Juste à côté de l&apos;ancienne galerie Dulcie</desc>
    <type>Boite à livre</type>
  </wpt>
  <wpt lat="47.2162749" lon="-1.5487708">
    <name>4 Place Marc Elder, Château des ducs de Bretagne</name>
    <cmt>Amenity::entertainment:public_bookcase</cmt>
    <desc>Sous le porche près du pont-levis du Château des ducs de Bretagne</desc>
    <type>Boite à livre</type>
  </wpt>
  <wpt lat="47.2182834" lon="-1.5633387">
    <name>Square Faustin Hélie</name>
    <cmt>Amenity::entertainment:public_bookcase</cmt>
    <desc>Décorée par les enfants de l&apos;école Harouys</desc>
    <type>Boite à livre</type>
  </wpt>
  <wpt lat="47.2156654" lon="-1.545345">
    <name>Jardin Unique quai Ferdinand Favre</name>
    <cmt>Amenity::entertainment:public_bookcase</cmt>
    <desc>Boite à lire située dans le Jardin Unique, un jardin d&apos;habitants accompagnés par l&apos;Association ECOS, en contre-bas du lieu unique.</desc>
    <type>Boite à livre</type>
  </wpt>
  <wpt lat="47.215513" lon="-1.545617">
    <name>2 Rue de la Biscuiterie</name>
    <cmt>Amenity::entertainment:public_bookcase</cmt>
    <desc>Dans le jardin du LU c&apos;est-à-dire le Lieu Unique</desc>
    <type>Boite à livre</type>
  </wpt>
  <wpt lat="47.225612" lon="-1.5541609">
    <name>Île de Versailles</name>
    <cmt>Amenity::entertainment:public_bookcase</cmt>
    <desc>Il y a 2 boîtes dont l&apos;une est consacrée à la littérature jeunesse.</desc>
    <type>Boite à livre</type>
  </wpt>
  <wpt lat="47.218479" lon="-1.5432142">
    <name>rue Ecorchard</name>
    <cmt>Amenity::entertainment:public_bookcase</cmt>
    <desc>La boite à lire se trouve au niveau de l&apos;entrée du Jardin des Plantes  rue Ecorchard  côté Gare Nord. Dans le cadre du Voyage à Nantes jusque fin août. La boîte se situe à proximité des chèvres  vers la droite après l&apos;entrée. Beaucoup de passages de touristes  donc les livres sont plus empruntés que déposés...</desc>
    <type>Boite à livre</type>
  </wpt>
  <wpt lat="47.2135489" lon="-1.5791585">
    <name>9 rue Nicolas Appert</name>
    <cmt>Amenity::entertainment:public_bookcase</cmt>
    <desc>RecycLivre (La Conserverie) ouverture le 7 juillet</desc>
    <type>Boite à livre</type>
  </wpt>
  <wpt lat="47.2127566" lon="-1.548186">
    <name>22 Rue Emile Pehant</name>
    <cmt>Amenity::entertainment:public_bookcase</cmt>
    <desc>Dépôt de livres dans le hall d&apos;entrée.</desc>
    <type>Boite à livre</type>
  </wpt>
  <wpt lat="47.2261214" lon="-1.5990549">
    <name>Jardin d&apos;usage Rue Louis-Le-Nain</name>
    <cmt>Amenity::entertainment:public_bookcase</cmt>
    <type>Boite à livre</type>
  </wpt>
  <wpt lat="46.302833" lon="-1.087642">
    <name>16 Route de Villedoux</name>
    <cmt>Amenity::entertainment:public_bookcase</cmt>
    <desc>Garage Bercier a intallé depuis juin 2015 2 grandes boîtes à livres anciens distributeurs de boissons vitrés sur le parking du commerce ainsi que de nombreux livres sont aussi dispos dans le hall.</desc>
    <type>Boite à livre</type>
  </wpt>
  <wpt lat="48.2072076" lon="-1.0650642">
    <name>Rue Sur la Campagne</name>
    <cmt>Amenity::entertainment:public_bookcase</cmt>
    <desc>Devant la maison</desc>
    <type>Boite à livre</type>
  </wpt>
</gpx>