<?xml version='1.0' encoding='UTF-8' standalone='yes' ?>
<gpx version="1.1" creator="Binnette" xmlns="http://www.topografix.com/GPX/1/1" xmlns:osmand="https://osmand.net" xmlns:xsi="http://www.w3.org/2001/XMLSchema-instance" xsi:schemaLocation="http://www.topografix.com/GPX/1/1 http://www.topografix.com/GPX/1/1/gpx.xsd">
  <wpt lat="50.4831074" lon="2.4064575">
    <time>2024-01-29T09:34:10Z</time>
    <name>Lily b9975</name>
    <desc>Au croisement</desc>
    <type>BoiteLire Hauts-de-France</type>
    <extensions>
      <osmand:address>1 av. du président kennedy, 62550 pernes, 62550 Pernes, France</osmand:address>
      <osmand:color>#ff5020</osmand:color>
      <osmand:background>square</osmand:background>
      <osmand:icon>public_bookcase</osmand:icon>
    </extensions>
  </wpt>
  <wpt lat="50.46769405441838" lon="2.5887823104858403">
    <time>2024-01-23T09:28:53Z</time>
    <name>Aurelie b9973</name>
    <desc>Au niveau du rond point</desc>
    <type>BoiteLire Hauts-de-France</type>
    <extensions>
      <osmand:address>Rue de maisnil, 62620 Ruitz, France</osmand:address>
      <osmand:color>#ff5020</osmand:color>
      <osmand:background>square</osmand:background>
      <osmand:icon>public_bookcase</osmand:icon>
    </extensions>
  </wpt>
  <wpt lat="50.494291" lon="2.6285383">
    <time>2024-01-02T09:38:55Z</time>
    <name>Aurelie steffe b9950</name>
    <desc>Près du portail de l école</desc>
    <type>BoiteLire Hauts-de-France</type>
    <extensions>
      <osmand:address>Impasse de l école, 62131 Drouvin-le-marais, France</osmand:address>
      <osmand:color>#ff5020</osmand:color>
      <osmand:background>square</osmand:background>
      <osmand:icon>public_bookcase</osmand:icon>
    </extensions>
  </wpt>
  <wpt lat="49.8645327" lon="2.3767218">
    <time>2023-10-06T09:28:21Z</time>
    <name>Veiovis b9855</name>
    <desc>La boîte à lire se trouve à l intérieur du grand centre commercial, juste à côté du flunch</desc>
    <type>BoiteLire Hauts-de-France</type>
    <extensions>
      <osmand:address>Centre commercial grand a, route de saint quentin, av. philéas fogg, 80440 glisy, 80440 Glisy, France</osmand:address>
      <osmand:color>#ff5020</osmand:color>
      <osmand:background>square</osmand:background>
      <osmand:icon>public_bookcase</osmand:icon>
    </extensions>
  </wpt>
  <wpt lat="50.5414295" lon="3.1283879">
    <time>2023-09-26T08:07:14Z</time>
    <name>L b9840</name>
    <desc></desc>
    <type>BoiteLire Hauts-de-France</type>
    <extensions>
      <osmand:address>Place de l église, 59710 Ennevelin, France</osmand:address>
      <osmand:color>#ff5020</osmand:color>
      <osmand:background>square</osmand:background>
      <osmand:icon>public_bookcase</osmand:icon>
    </extensions>
  </wpt>
  <wpt lat="49.4890282" lon="3.4466151">
    <time>2017-04-11T11:31:53Z</time>
    <name>Picardie des chateaux b984</name>
    <desc>Au siege de la maison intercommunale</desc>
    <type>BoiteLire Hauts-de-France</type>
    <extensions>
      <osmand:address>6 place charles de gaulle, 02320 Pinon, France</osmand:address>
      <osmand:color>#ff5020</osmand:color>
      <osmand:background>square</osmand:background>
      <osmand:icon>public_bookcase</osmand:icon>
    </extensions>
  </wpt>
  <wpt lat="50.4741972" lon="3.3003783">
    <time>2017-04-11T09:28:12Z</time>
    <name>Alice b982</name>
    <desc>Livres à croquer à l'initiative du conseil municipal des jeunes.</desc>
    <type>BoiteLire Hauts-de-France</type>
    <extensions>
      <osmand:address>75 rue du général de gaulle, 59310 Landas, France</osmand:address>
      <osmand:color>#ff5020</osmand:color>
      <osmand:background>square</osmand:background>
      <osmand:icon>public_bookcase</osmand:icon>
    </extensions>
  </wpt>
  <wpt lat="49.348144" lon="2.736177">
    <time>2023-08-31T12:43:34Z</time>
    <name>Lali b9802</name>
    <desc>Ancienne cabine téléphonique située dans la cour de la mairie</desc>
    <type>BoiteLire Hauts-de-France</type>
    <extensions>
      <osmand:address>Rue de la mairie, 60126 Rivecourt, France</osmand:address>
      <osmand:color>#ff5020</osmand:color>
      <osmand:background>square</osmand:background>
      <osmand:icon>public_bookcase</osmand:icon>
    </extensions>
  </wpt>
  <wpt lat="49.3576241" lon="2.7188298">
    <time>2023-08-31T12:43:27Z</time>
    <name>Lali b9801</name>
    <desc>Boite située sur le parking de l école maternelle, à l'arrêt du bus scolaire</desc>
    <type>BoiteLire Hauts-de-France</type>
    <extensions>
      <osmand:address>Rue du muguet, 60126 Longueil sainte marie, France</osmand:address>
      <osmand:color>#ff5020</osmand:color>
      <osmand:background>square</osmand:background>
      <osmand:icon>public_bookcase</osmand:icon>
    </extensions>
  </wpt>
  <wpt lat="50.80520247265613" lon="2.153556346893311">
    <time>2023-08-24T10:40:12Z</time>
    <name>Gisèle b9784</name>
    <desc></desc>
    <type>BoiteLire Hauts-de-France</type>
    <extensions>
      <osmand:address>Rue de la mairie eperlecques, 62910 Eperlecques, France</osmand:address>
      <osmand:color>#ff5020</osmand:color>
      <osmand:background>square</osmand:background>
      <osmand:icon>public_bookcase</osmand:icon>
    </extensions>
  </wpt>
  <wpt lat="49.57147419778826" lon="3.8866174221038823">
    <time>2023-08-24T10:39:50Z</time>
    <name>Tafiani b9783</name>
    <desc>La boîte à livre se situe à côté du ruisseau la souche en face de l'espace culturel. un banc est situé tout près pour la lecture</desc>
    <type>BoiteLire Hauts-de-France</type>
    <extensions>
      <osmand:address>Rue de laon, 02150 Sissonne, France</osmand:address>
      <osmand:color>#ff5020</osmand:color>
      <osmand:background>square</osmand:background>
      <osmand:icon>public_bookcase</osmand:icon>
    </extensions>
  </wpt>
  <wpt lat="50.4024082" lon="1.5969234">
    <time>2023-08-09T21:50:36Z</time>
    <name>Grignion ludovic b9756</name>
    <desc>La boite est disponible aux heures d ouverture du magasin. lundi 09:00?19:00 mardi 09:00?19:00 mercredi 09:00?19:00 jeudi 09:00?19:00 vendredi 09:00?19:00 samedi 09:00?19:00</desc>
    <type>BoiteLire Hauts-de-France</type>
    <extensions>
      <osmand:address>Magasin biocoop berck - route d abbeville, 62600 Berck, France</osmand:address>
      <osmand:color>#ff5020</osmand:color>
      <osmand:background>square</osmand:background>
      <osmand:icon>public_bookcase</osmand:icon>
    </extensions>
  </wpt>
  <wpt lat="49.2740793" lon="2.5172885">
    <time>2023-08-09T21:48:58Z</time>
    <name>Hermine b9752</name>
    <desc>Cabane téléphonique rouge sur la place. contrairement à la photo la cabane est pleine à craquer</desc>
    <type>BoiteLire Hauts-de-France</type>
    <extensions>
      <osmand:address>Place de piegaro, 60550 Verneuil-en-halatte, France</osmand:address>
      <osmand:color>#ff5020</osmand:color>
      <osmand:background>square</osmand:background>
      <osmand:icon>public_bookcase</osmand:icon>
    </extensions>
  </wpt>
  <wpt lat="49.2066716" lon="2.370053">
    <time>2023-07-27T08:09:07Z</time>
    <name>Bobo b9722</name>
    <desc>Devant la mairie . possibilité aussi d y mettre cd dvd cassette video .</desc>
    <type>BoiteLire Hauts-de-France</type>
    <extensions>
      <osmand:address>Rue charles de gaulle, 60460 Précy sur oise, France</osmand:address>
      <osmand:color>#ff5020</osmand:color>
      <osmand:background>square</osmand:background>
      <osmand:icon>public_bookcase</osmand:icon>
    </extensions>
  </wpt>
  <wpt lat="50.4257018" lon="3.5565328">
    <time>2023-05-09T08:12:23Z</time>
    <name>Dud b9565</name>
    <desc></desc>
    <type>BoiteLire Hauts-de-France</type>
    <extensions>
      <osmand:address>Parc de la mairie, 59278 Escautpont, France</osmand:address>
      <osmand:color>#ff5020</osmand:color>
      <osmand:background>square</osmand:background>
      <osmand:icon>public_bookcase</osmand:icon>
    </extensions>
  </wpt>
  <wpt lat="50.8945649" lon="2.2515394">
    <time>2023-04-25T12:13:12Z</time>
    <name>Vicmgn b9545</name>
    <desc>Dans l abris bus</desc>
    <type>BoiteLire Hauts-de-France</type>
    <extensions>
      <osmand:address>1 hameau de lynck, 59630 Looberghe, France</osmand:address>
      <osmand:color>#ff5020</osmand:color>
      <osmand:background>square</osmand:background>
      <osmand:icon>public_bookcase</osmand:icon>
    </extensions>
  </wpt>
  <wpt lat="50.7664947" lon="1.607347">
    <time>2023-03-08T11:31:38Z</time>
    <name>Baudelet b9471</name>
    <desc>Wimereux initiatives citoyennes</desc>
    <type>BoiteLire Hauts-de-France</type>
    <extensions>
      <osmand:address>12 avenue du marechal foch, 62930 Wimereux, France</osmand:address>
      <osmand:color>#ff5020</osmand:color>
      <osmand:background>square</osmand:background>
      <osmand:icon>public_bookcase</osmand:icon>
    </extensions>
  </wpt>
  <wpt lat="50.5139176" lon="3.0172119">
    <time>2023-02-22T15:20:05Z</time>
    <name>Mairie de camphin en carembault b9448</name>
    <desc>Deux boites à livre sont installées à camphin en carembault 1 au centre du village, l autre à ennecourt</desc>
    <type>BoiteLire Hauts-de-France</type>
    <extensions>
      <osmand:address>11 rue du général de gaulle, 59133 Camphin en carembault, France</osmand:address>
      <osmand:color>#ff5020</osmand:color>
      <osmand:background>square</osmand:background>
      <osmand:icon>public_bookcase</osmand:icon>
    </extensions>
  </wpt>
  <wpt lat="50.102854" lon="1.8377666">
    <time>2022-12-23T07:54:39Z</time>
    <name>Ev b9340</name>
    <desc>Sur le mur de l ancienne caserne st gilles, en face de l'église st gilles</desc>
    <type>BoiteLire Hauts-de-France</type>
    <extensions>
      <osmand:address>30 rue st gilles, 80100 Abbeville, France</osmand:address>
      <osmand:color>#ff5020</osmand:color>
      <osmand:background>square</osmand:background>
      <osmand:icon>public_bookcase</osmand:icon>
    </extensions>
  </wpt>
  <wpt lat="49.82073" lon="2.482739">
    <time>2022-12-20T08:53:12Z</time>
    <name>Veiovis b9338</name>
    <desc>Près de l arrêt de bus face a la place du village</desc>
    <type>BoiteLire Hauts-de-France</type>
    <extensions>
      <osmand:address>Domart sur la luce, 080 Domart sur la luce, France</osmand:address>
      <osmand:color>#ff5020</osmand:color>
      <osmand:background>square</osmand:background>
      <osmand:icon>public_bookcase</osmand:icon>
    </extensions>
  </wpt>
  <wpt lat="50.5835037" lon="2.8889513">
    <time>2022-12-07T14:55:02Z</time>
    <name>Sauvage jean pierre b9317</name>
    <desc>Il y a deux boites a lire , une adultes et une enfants</desc>
    <type>BoiteLire Hauts-de-France</type>
    <extensions>
      <osmand:address>Place du clos d hespel, 59134 Fournes en weppes, France</osmand:address>
      <osmand:color>#ff5020</osmand:color>
      <osmand:background>square</osmand:background>
      <osmand:icon>public_bookcase</osmand:icon>
    </extensions>
  </wpt>
  <wpt lat="50.3704097" lon="3.4870689">
    <time>2022-11-02T07:54:49Z</time>
    <name>Brunow b9273</name>
    <desc>Boîte installée sur un petit parking, à l intersection de la rue jacques prévert et de la rue henri barbusse.</desc>
    <type>BoiteLire Hauts-de-France</type>
    <extensions>
      <osmand:address>2 rue jacques prévert, 59494 Petite forêt, France</osmand:address>
      <osmand:color>#ff5020</osmand:color>
      <osmand:background>square</osmand:background>
      <osmand:icon>public_bookcase</osmand:icon>
    </extensions>
  </wpt>
  <wpt lat="50.0744052" lon="1.458226">
    <time>2022-10-25T11:56:36Z</time>
    <name>Alice b9260</name>
    <desc>À côté de l arrêt de bus</desc>
    <type>BoiteLire Hauts-de-France</type>
    <extensions>
      <osmand:address>Place nationale, 80880 Saint-quentin-lamotte-croix-au-bailly, France</osmand:address>
      <osmand:color>#ff5020</osmand:color>
      <osmand:background>square</osmand:background>
      <osmand:icon>public_bookcase</osmand:icon>
    </extensions>
  </wpt>
  <wpt lat="49.7164069" lon="2.538316">
    <time>2022-10-25T11:53:09Z</time>
    <name>Jonathan b9254</name>
    <desc>Ancien abris bus à coté de la mairie sur la route principale</desc>
    <type>BoiteLire Hauts-de-France</type>
    <extensions>
      <osmand:address>1 pl. du 8 mai 1945, 80500 Trois-rivières, France</osmand:address>
      <osmand:color>#ff5020</osmand:color>
      <osmand:background>square</osmand:background>
      <osmand:icon>public_bookcase</osmand:icon>
    </extensions>
  </wpt>
  <wpt lat="49.6508186" lon="1.853739">
    <time>2022-09-27T09:14:16Z</time>
    <name>Exci b9207</name>
    <desc>Tout prêt de la boulangerie</desc>
    <type>BoiteLire Hauts-de-France</type>
    <extensions>
      <osmand:address>Place de l église, 60960 Feuquieres, France</osmand:address>
      <osmand:color>#ff5020</osmand:color>
      <osmand:background>square</osmand:background>
      <osmand:icon>public_bookcase</osmand:icon>
    </extensions>
  </wpt>
  <wpt lat="49.6176267" lon="3.2186258">
    <time>2022-09-08T09:22:50Z</time>
    <name>Médiathèque a. malraux b9156</name>
    <desc>Boîte à lire située près du kiosque du parc des promenades.</desc>
    <type>BoiteLire Hauts-de-France</type>
    <extensions>
      <osmand:address>Parc des promenades, 02300 Chauny, France</osmand:address>
      <osmand:color>#ff5020</osmand:color>
      <osmand:background>square</osmand:background>
      <osmand:icon>public_bookcase</osmand:icon>
    </extensions>
  </wpt>
  <wpt lat="50.7358653" lon="2.2362841">
    <time>2022-09-06T09:34:37Z</time>
    <name>Isa62 b9153</name>
    <desc>A côté du centre social</desc>
    <type>BoiteLire Hauts-de-France</type>
    <extensions>
      <osmand:address>Quartier maillebois, 62219 Longuenesse, France</osmand:address>
      <osmand:color>#ff5020</osmand:color>
      <osmand:background>square</osmand:background>
      <osmand:icon>public_bookcase</osmand:icon>
    </extensions>
  </wpt>
  <wpt lat="50.6243194" lon="3.0811551">
    <time>2017-03-28T09:51:14Z</time>
    <name>Filiatrault mathieu b915</name>
    <desc>Une toute nouvelle boîte à lire vient d ouvrir ses portes dans l enceinte de l'auberge de jeunesse hi lille ! venez échanger des livres avec des voyageurs du monde entier !</desc>
    <type>BoiteLire Hauts-de-France</type>
    <extensions>
      <osmand:address>235 boulevard paul painlevé , 59000 Lille, France</osmand:address>
      <osmand:color>#ff5020</osmand:color>
      <osmand:background>square</osmand:background>
      <osmand:icon>public_bookcase</osmand:icon>
    </extensions>
  </wpt>
  <wpt lat="50.3070589" lon="2.923627">
    <time>2022-09-06T09:33:31Z</time>
    <name>Sophie - travis b9149</name>
    <desc>Jolie boite sur le coté de l église</desc>
    <type>BoiteLire Hauts-de-France</type>
    <extensions>
      <osmand:address>1 rue des ecoles, 62118 Plouvain, France</osmand:address>
      <osmand:color>#ff5020</osmand:color>
      <osmand:background>square</osmand:background>
      <osmand:icon>public_bookcase</osmand:icon>
    </extensions>
  </wpt>
  <wpt lat="50.6998553" lon="2.7704454">
    <time>2022-08-22T17:22:02Z</time>
    <name>Fabinette b9115</name>
    <desc>La boîte aux livres est dans le parc derrière le musée de la vie rurale</desc>
    <type>BoiteLire Hauts-de-France</type>
    <extensions>
      <osmand:address>49 rue du musée, 59181 Steenwerck, France</osmand:address>
      <osmand:color>#ff5020</osmand:color>
      <osmand:background>square</osmand:background>
      <osmand:icon>public_bookcase</osmand:icon>
    </extensions>
  </wpt>
  <wpt lat="49.2072729" lon="3.5167555">
    <time>2022-08-22T17:20:45Z</time>
    <name>Axel b9112</name>
    <desc>Petite boite bleue sur un pied, en face du bureau de poste</desc>
    <type>BoiteLire Hauts-de-France</type>
    <extensions>
      <osmand:address>Rue du château, 02130 Fère en tardenois, France</osmand:address>
      <osmand:color>#ff5020</osmand:color>
      <osmand:background>square</osmand:background>
      <osmand:icon>public_bookcase</osmand:icon>
    </extensions>
  </wpt>
  <wpt lat="49.2134762" lon="2.3203962">
    <time>2022-08-19T10:32:05Z</time>
    <name>Laura b9107</name>
    <desc>Proche de la mairie</desc>
    <type>BoiteLire Hauts-de-France</type>
    <extensions>
      <osmand:address>Rue de la mairie, 60530 Crouy en thelle, France</osmand:address>
      <osmand:color>#ff5020</osmand:color>
      <osmand:background>square</osmand:background>
      <osmand:icon>public_bookcase</osmand:icon>
    </extensions>
  </wpt>
  <wpt lat="50.6517741" lon="2.8345106">
    <time>2022-08-19T10:28:06Z</time>
    <name>Fabinette b9102</name>
    <desc>Un petit coin lecture est associé à la boîte à livres</desc>
    <type>BoiteLire Hauts-de-France</type>
    <extensions>
      <osmand:address>Place du général de gaulle, 59181 Steenwerck, France</osmand:address>
      <osmand:color>#ff5020</osmand:color>
      <osmand:background>square</osmand:background>
      <osmand:icon>public_bookcase</osmand:icon>
    </extensions>
  </wpt>
  <wpt lat="50.983075" lon="1.960927">
    <time>2022-08-18T09:52:31Z</time>
    <name>Maison des islandais b9087</name>
    <desc>Une belle boîte qui comporte 3 rayonnages</desc>
    <type>BoiteLire Hauts-de-France</type>
    <extensions>
      <osmand:address>Les hemmes de marck, 62730 Marck en calaisis, France</osmand:address>
      <osmand:color>#ff5020</osmand:color>
      <osmand:background>square</osmand:background>
      <osmand:icon>public_bookcase</osmand:icon>
    </extensions>
  </wpt>
  <wpt lat="50.9683372" lon="1.948362">
    <time>2022-08-17T17:33:55Z</time>
    <name>Isabelle petitprez b9078</name>
    <desc>Au carrefour entre marck et le fort vert</desc>
    <type>BoiteLire Hauts-de-France</type>
    <extensions>
      <osmand:address>Avenue du gen de gaulle fort vert, 62730 Marck en calaisis, France</osmand:address>
      <osmand:color>#ff5020</osmand:color>
      <osmand:background>square</osmand:background>
      <osmand:icon>public_bookcase</osmand:icon>
    </extensions>
  </wpt>
  <wpt lat="50.399381" lon="3.3142989">
    <time>2022-08-17T17:29:27Z</time>
    <name>Annelyse b b9069</name>
    <desc>A l entrée du parc municipal.</desc>
    <type>BoiteLire Hauts-de-France</type>
    <extensions>
      <osmand:address>Place roger dewambrechies, WANDIGNIES 59870, France</osmand:address>
      <osmand:color>#ff5020</osmand:color>
      <osmand:background>square</osmand:background>
      <osmand:icon>public_bookcase</osmand:icon>
    </extensions>
  </wpt>
  <wpt lat="50.027933" lon="2.916951">
    <time>2022-08-17T17:20:30Z</time>
    <name>Dejonghe b9058</name>
    <desc></desc>
    <type>BoiteLire Hauts-de-France</type>
    <extensions>
      <osmand:address>Rue du commandant thierry, 80360 Sailly saillisel, France</osmand:address>
      <osmand:color>#ff5020</osmand:color>
      <osmand:background>square</osmand:background>
      <osmand:icon>public_bookcase</osmand:icon>
    </extensions>
  </wpt>
  <wpt lat="50.3991641" lon="3.3142178">
    <time>2022-08-17T17:20:06Z</time>
    <name>Annelyse b b9057</name>
    <desc>A l entrée du parc.</desc>
    <type>BoiteLire Hauts-de-France</type>
    <extensions>
      <osmand:address>8 place roger dewambrechies, WANDIGNIES 59870, France</osmand:address>
      <osmand:color>#ff5020</osmand:color>
      <osmand:background>square</osmand:background>
      <osmand:icon>public_bookcase</osmand:icon>
    </extensions>
  </wpt>
  <wpt lat="50.6819162" lon="2.7186875">
    <time>2022-08-17T17:19:53Z</time>
    <name>Fabinette b9056</name>
    <desc></desc>
    <type>BoiteLire Hauts-de-France</type>
    <extensions>
      <osmand:address>Grand rue, 59181 Steenwerck, France</osmand:address>
      <osmand:color>#ff5020</osmand:color>
      <osmand:background>square</osmand:background>
      <osmand:icon>public_bookcase</osmand:icon>
    </extensions>
  </wpt>
  <wpt lat="50.383265" lon="3.479826">
    <time>2022-08-17T17:05:18Z</time>
    <name>Aurelie b9046</name>
    <desc>La boite à livres se trouve dans la rue derrière la foir fouille</desc>
    <type>BoiteLire Hauts-de-France</type>
    <extensions>
      <osmand:address>Rue anatole france, 59494 Petite foret, France</osmand:address>
      <osmand:color>#ff5020</osmand:color>
      <osmand:background>square</osmand:background>
      <osmand:icon>public_bookcase</osmand:icon>
    </extensions>
  </wpt>
  <wpt lat="50.3642583" lon="3.6416824">
    <time>2022-08-17T09:43:20Z</time>
    <name>Lise b9032</name>
    <desc></desc>
    <type>BoiteLire Hauts-de-France</type>
    <extensions>
      <osmand:address>Rue de l?église, 59990 Rombies et marchipont, France</osmand:address>
      <osmand:color>#ff5020</osmand:color>
      <osmand:background>square</osmand:background>
      <osmand:icon>public_bookcase</osmand:icon>
    </extensions>
  </wpt>
  <wpt lat="50.9142543" lon="2.2923148">
    <time>2022-08-17T09:42:55Z</time>
    <name>Isa b9031</name>
    <desc>Parc de la mairie</desc>
    <type>BoiteLire Hauts-de-France</type>
    <extensions>
      <osmand:address>Route de cassel, 59630 Looberghe, France</osmand:address>
      <osmand:color>#ff5020</osmand:color>
      <osmand:background>square</osmand:background>
      <osmand:icon>public_bookcase</osmand:icon>
    </extensions>
  </wpt>
  <wpt lat="49.8738397" lon="4.0970848">
    <time>2022-07-21T11:14:39Z</time>
    <name>Jp02 b8991</name>
    <desc>Frigo a livres sous un arret de bus sur une petite place. direction martigny</desc>
    <type>BoiteLire Hauts-de-France</type>
    <extensions>
      <osmand:address>Rue de verdun, 02500 Bucilly, France</osmand:address>
      <osmand:color>#ff5020</osmand:color>
      <osmand:background>square</osmand:background>
      <osmand:icon>public_bookcase</osmand:icon>
    </extensions>
  </wpt>
  <wpt lat="49.5257133" lon="3.1337398">
    <time>2022-07-11T10:11:26Z</time>
    <name>Laurent b8971</name>
    <desc>Place de la mairie - ancien réfrigérateur recyclé en boite à lire sur le coté de la mairie</desc>
    <type>BoiteLire Hauts-de-France</type>
    <extensions>
      <osmand:address>21 rue noyon, 02300 Camelin, France</osmand:address>
      <osmand:color>#ff5020</osmand:color>
      <osmand:background>square</osmand:background>
      <osmand:icon>public_bookcase</osmand:icon>
    </extensions>
  </wpt>
  <wpt lat="50.101557" lon="1.447391">
    <time>2022-07-11T10:11:14Z</time>
    <name>Alice doyen b8970</name>
    <desc>Sous l abri à côté de la table de pique-nique</desc>
    <type>BoiteLire Hauts-de-France</type>
    <extensions>
      <osmand:address>Route de la plage, 80460 Ault, France</osmand:address>
      <osmand:color>#ff5020</osmand:color>
      <osmand:background>square</osmand:background>
      <osmand:icon>public_bookcase</osmand:icon>
    </extensions>
  </wpt>
  <wpt lat="50.0744262" lon="1.4030768">
    <time>2022-07-11T10:11:05Z</time>
    <name>Alice doyen b8969</name>
    <desc>En limite de parking face au rond-point</desc>
    <type>BoiteLire Hauts-de-France</type>
    <extensions>
      <osmand:address>Rue andré dumont, 80350 Mers-les-bains, France</osmand:address>
      <osmand:color>#ff5020</osmand:color>
      <osmand:background>square</osmand:background>
      <osmand:icon>public_bookcase</osmand:icon>
    </extensions>
  </wpt>
  <wpt lat="50.109943" lon="1.457539">
    <time>2022-06-21T09:22:19Z</time>
    <name>Alice doyen b8931</name>
    <desc>Boite sur le parking à l angle de la rue villebois mareuil</desc>
    <type>BoiteLire Hauts-de-France</type>
    <extensions>
      <osmand:address>Place gros, 80460 Ault, France</osmand:address>
      <osmand:color>#ff5020</osmand:color>
      <osmand:background>square</osmand:background>
      <osmand:icon>public_bookcase</osmand:icon>
    </extensions>
  </wpt>
  <wpt lat="49.3969826" lon="2.7816095">
    <time>2022-06-21T09:21:46Z</time>
    <name>Mathilde b8930</name>
    <desc>Ancienne cabine téléphonique, située en face de la poste.</desc>
    <type>BoiteLire Hauts-de-France</type>
    <extensions>
      <osmand:address>Rue de la république, 60325 Jaux, France</osmand:address>
      <osmand:color>#ff5020</osmand:color>
      <osmand:background>square</osmand:background>
      <osmand:icon>public_bookcase</osmand:icon>
    </extensions>
  </wpt>
  <wpt lat="49.1834636" lon="2.4610366">
    <time>2022-06-20T09:27:22Z</time>
    <name>Cindy b8924</name>
    <desc>Boîte à livre de couleur rouge.</desc>
    <type>BoiteLire Hauts-de-France</type>
    <extensions>
      <osmand:address>12 avenue de verdun, 60500 Chantilly, France</osmand:address>
      <osmand:color>#ff5020</osmand:color>
      <osmand:background>square</osmand:background>
      <osmand:icon>public_bookcase</osmand:icon>
    </extensions>
  </wpt>
  <wpt lat="49.1769815" lon="2.4584359">
    <time>2022-06-20T09:26:55Z</time>
    <name>Cindy b8923</name>
    <desc>Boîte à livre verte, en face de la boulangerie.</desc>
    <type>BoiteLire Hauts-de-France</type>
    <extensions>
      <osmand:address>1 rue du bois saint denis, 60500 Chantilly, France</osmand:address>
      <osmand:color>#ff5020</osmand:color>
      <osmand:background>square</osmand:background>
      <osmand:icon>public_bookcase</osmand:icon>
    </extensions>
  </wpt>
  <wpt lat="49.199179" lon="2.4944765">
    <time>2022-06-14T09:19:43Z</time>
    <name>Cindy b8908</name>
    <desc>La boîte à lire est placé juste derrière l arrêt de bus, à côté du parc de jeux pour les enfants.</desc>
    <type>BoiteLire Hauts-de-France</type>
    <extensions>
      <osmand:address>Rue de la duchesse de chartres de chartres, 60500 Vineuil saint firmin, France</osmand:address>
      <osmand:color>#ff5020</osmand:color>
      <osmand:background>square</osmand:background>
      <osmand:icon>public_bookcase</osmand:icon>
    </extensions>
  </wpt>
  <wpt lat="49.9875504" lon="3.4504317">
    <time>2022-05-27T09:41:22Z</time>
    <name>Mairie seboncourt b8885</name>
    <desc>Pendant les horaires d ouverture de la mairie.</desc>
    <type>BoiteLire Hauts-de-France</type>
    <extensions>
      <osmand:address>20 rue robert inédit dubois, 02110 Seboncourt, France</osmand:address>
      <osmand:color>#ff5020</osmand:color>
      <osmand:background>square</osmand:background>
      <osmand:icon>public_bookcase</osmand:icon>
    </extensions>
  </wpt>
  <wpt lat="49.5733995" lon="3.6832225">
    <time>2022-05-24T16:40:38Z</time>
    <name>Athies-sous-laon b8878</name>
    <desc></desc>
    <type>BoiteLire Hauts-de-France</type>
    <extensions>
      <osmand:address>Place du 11 novembre 1918, 02840 Athies-sous-laon, France</osmand:address>
      <osmand:color>#ff5020</osmand:color>
      <osmand:background>square</osmand:background>
      <osmand:icon>public_bookcase</osmand:icon>
    </extensions>
  </wpt>
  <wpt lat="50.5317631" lon="2.8075867">
    <time>2022-05-23T09:32:00Z</time>
    <name>Wychowski sandra b8861</name>
    <desc>Elle est située à l entrée du parc</desc>
    <type>BoiteLire Hauts-de-France</type>
    <extensions>
      <osmand:address>Rue du général leclerc, 59480 La bassée, France</osmand:address>
      <osmand:color>#ff5020</osmand:color>
      <osmand:background>square</osmand:background>
      <osmand:icon>public_bookcase</osmand:icon>
    </extensions>
  </wpt>
  <wpt lat="50.5387608" lon="2.8051853">
    <time>2022-05-23T09:31:49Z</time>
    <name>Wychowski b8860</name>
    <desc>Elle est située juste à l entrée de la rue</desc>
    <type>BoiteLire Hauts-de-France</type>
    <extensions>
      <osmand:address>Rue des cerisiers, 59480 La bassée, France</osmand:address>
      <osmand:color>#ff5020</osmand:color>
      <osmand:background>square</osmand:background>
      <osmand:icon>public_bookcase</osmand:icon>
    </extensions>
  </wpt>
  <wpt lat="50.1804422" lon="2.907265">
    <time>2022-05-05T09:50:59Z</time>
    <name>Blicq b8828</name>
    <desc>Juste à côté de l église</desc>
    <type>BoiteLire Hauts-de-France</type>
    <extensions>
      <osmand:address>Rue du fief, 62128 Henin sur cojeul, France</osmand:address>
      <osmand:color>#ff5020</osmand:color>
      <osmand:background>square</osmand:background>
      <osmand:icon>public_bookcase</osmand:icon>
    </extensions>
  </wpt>
  <wpt lat="49.6586802" lon="3.3448446">
    <time>2022-05-05T09:44:07Z</time>
    <name>Mairie de beautor b8815</name>
    <desc>Devant la mairie</desc>
    <type>BoiteLire Hauts-de-France</type>
    <extensions>
      <osmand:address>19 rue de tergnier, 02800 Beautor, France</osmand:address>
      <osmand:color>#ff5020</osmand:color>
      <osmand:background>square</osmand:background>
      <osmand:icon>public_bookcase</osmand:icon>
    </extensions>
  </wpt>
  <wpt lat="50.9125579" lon="2.0609665">
    <time>2022-04-20T09:24:34Z</time>
    <name>Lisa b8784</name>
    <desc></desc>
    <type>BoiteLire Hauts-de-France</type>
    <extensions>
      <osmand:address>Rue du fort bâtard, 62370 Nouvelle-Église, France</osmand:address>
      <osmand:color>#ff5020</osmand:color>
      <osmand:background>square</osmand:background>
      <osmand:icon>public_bookcase</osmand:icon>
    </extensions>
  </wpt>
  <wpt lat="50.3570027" lon="3.5253322">
    <time>2022-04-13T09:20:43Z</time>
    <name>Anthony b8767</name>
    <desc>Située dans la galerie du centre commercial c?ur de ville</desc>
    <type>BoiteLire Hauts-de-France</type>
    <extensions>
      <osmand:address>12 rue de la halle, 59300 Valenciennes, France</osmand:address>
      <osmand:color>#ff5020</osmand:color>
      <osmand:background>square</osmand:background>
      <osmand:icon>public_bookcase</osmand:icon>
    </extensions>
  </wpt>
  <wpt lat="50.8214912" lon="2.1924519">
    <time>2017-03-06T09:17:02Z</time>
    <name>Christelle cornec b874</name>
    <desc>La boite se situe face au carrefour market</desc>
    <type>BoiteLire Hauts-de-France</type>
    <extensions>
      <osmand:address>Rue de bleue maison, 62910 Éperlecques, France</osmand:address>
      <osmand:color>#ff5020</osmand:color>
      <osmand:background>square</osmand:background>
      <osmand:icon>public_bookcase</osmand:icon>
    </extensions>
  </wpt>
  <wpt lat="50.948822" lon="1.8531024">
    <time>2022-03-22T11:51:00Z</time>
    <name>S. cugny b8677</name>
    <desc>Située à l intérieur du bâtiment de l'association des ateliers de la citoyenneté.</desc>
    <type>BoiteLire Hauts-de-France</type>
    <extensions>
      <osmand:address>8 rue des soupirants, 62100 Calais, France</osmand:address>
      <osmand:color>#ff5020</osmand:color>
      <osmand:background>square</osmand:background>
      <osmand:icon>public_bookcase</osmand:icon>
    </extensions>
  </wpt>
  <wpt lat="49.2844089" lon="1.822687">
    <time>2022-03-09T09:39:34Z</time>
    <name>Manon b8627</name>
    <desc>Elle se situe à l entrée à côté de l'eglise de trie-château.</desc>
    <type>BoiteLire Hauts-de-France</type>
    <extensions>
      <osmand:address>Parc maurice froment, 60590 Trie-château, France</osmand:address>
      <osmand:color>#ff5020</osmand:color>
      <osmand:background>square</osmand:background>
      <osmand:icon>public_bookcase</osmand:icon>
    </extensions>
  </wpt>
  <wpt lat="50.6109839" lon="3.202262">
    <time>2022-03-07T09:25:14Z</time>
    <name>Chloé b8619</name>
    <desc>La boîte de trouve sur le parking de la mairie, tout à gauche de l entrée.</desc>
    <type>BoiteLire Hauts-de-France</type>
    <extensions>
      <osmand:address>Mairie de chéreng, 59152 Chéreng, France</osmand:address>
      <osmand:color>#ff5020</osmand:color>
      <osmand:background>square</osmand:background>
      <osmand:icon>public_bookcase</osmand:icon>
    </extensions>
  </wpt>
  <wpt lat="50.337776" lon="3.022926">
    <time>2022-03-01T09:40:29Z</time>
    <name>Laura bertin b8600</name>
    <desc></desc>
    <type>BoiteLire Hauts-de-France</type>
    <extensions>
      <osmand:address>Place des héros, 62117 Brebières, France</osmand:address>
      <osmand:color>#ff5020</osmand:color>
      <osmand:background>square</osmand:background>
      <osmand:icon>public_bookcase</osmand:icon>
    </extensions>
  </wpt>
  <wpt lat="49.4352946" lon="2.9060635">
    <time>2022-03-01T09:37:01Z</time>
    <name>Bayard b8593</name>
    <desc>Boîte à lire mise en place par l association des amis du francport - arrêt de bus le francport château</desc>
    <type>BoiteLire Hauts-de-France</type>
    <extensions>
      <osmand:address>Rue victor hugo, 60750 Choisy au bac, France</osmand:address>
      <osmand:color>#ff5020</osmand:color>
      <osmand:background>square</osmand:background>
      <osmand:icon>public_bookcase</osmand:icon>
    </extensions>
  </wpt>
  <wpt lat="49.653843" lon="3.379047">
    <time>2022-03-01T09:29:54Z</time>
    <name>Connen b8586</name>
    <desc>A l entrée du château de charmes, sur la route sortant de charmes vers bertaucourt</desc>
    <type>BoiteLire Hauts-de-France</type>
    <extensions>
      <osmand:address>Le château 18 rue jean jaures, 02800 Charmes, France</osmand:address>
      <osmand:color>#ff5020</osmand:color>
      <osmand:background>square</osmand:background>
      <osmand:icon>public_bookcase</osmand:icon>
    </extensions>
  </wpt>
  <wpt lat="50.782563" lon="3.1246693">
    <time>2022-03-01T09:29:36Z</time>
    <name>Anne b8585</name>
    <desc>Boîte devant la mairie</desc>
    <type>BoiteLire Hauts-de-France</type>
    <extensions>
      <osmand:address>Mairie halluin, 59250 Halluin, France</osmand:address>
      <osmand:color>#ff5020</osmand:color>
      <osmand:background>square</osmand:background>
      <osmand:icon>public_bookcase</osmand:icon>
    </extensions>
  </wpt>
  <wpt lat="49.4087901" lon="2.8296539">
    <time>2022-02-23T13:13:30Z</time>
    <name>Dupond b8568</name>
    <desc>Boite a livre situe sur le place carnot devant la pharmacie et ou se déroule le marche</desc>
    <type>BoiteLire Hauts-de-France</type>
    <extensions>
      <osmand:address>Place carnot, 60200 Compiegne, France</osmand:address>
      <osmand:color>#ff5020</osmand:color>
      <osmand:background>square</osmand:background>
      <osmand:icon>public_bookcase</osmand:icon>
    </extensions>
  </wpt>
  <wpt lat="49.4165758" lon="2.8269427">
    <time>2022-02-23T13:10:33Z</time>
    <name>Dupond b8554</name>
    <desc>Rue magenta derriere l arret de bus</desc>
    <type>BoiteLire Hauts-de-France</type>
    <extensions>
      <osmand:address>Rue magenta, 60200 Compiegne, France</osmand:address>
      <osmand:color>#ff5020</osmand:color>
      <osmand:background>square</osmand:background>
      <osmand:icon>public_bookcase</osmand:icon>
    </extensions>
  </wpt>
  <wpt lat="49.4120924" lon="2.8289655">
    <time>2022-02-23T13:10:22Z</time>
    <name>Dupond b8553</name>
    <desc>Pres de l aire de jeux et devant l'espace vert</desc>
    <type>BoiteLire Hauts-de-France</type>
    <extensions>
      <osmand:address>Salle saint tainturier, 60200 Compiegne, France</osmand:address>
      <osmand:color>#ff5020</osmand:color>
      <osmand:background>square</osmand:background>
      <osmand:icon>public_bookcase</osmand:icon>
    </extensions>
  </wpt>
  <wpt lat="49.4179667" lon="2.8210145">
    <time>2022-02-23T13:09:39Z</time>
    <name>Dupond b8551</name>
    <desc>Cote rue entree musee vivenel</desc>
    <type>BoiteLire Hauts-de-France</type>
    <extensions>
      <osmand:address>Parc songeons, 60200 Compiegne, France</osmand:address>
      <osmand:color>#ff5020</osmand:color>
      <osmand:background>square</osmand:background>
      <osmand:icon>public_bookcase</osmand:icon>
    </extensions>
  </wpt>
  <wpt lat="50.6140985" lon="3.112634">
    <time>2017-02-28T09:41:01Z</time>
    <name>Emilie b855</name>
    <desc>Découvrez une ancienne cabinet téléphonique où vous trouvez livres, jouets, etc.</desc>
    <type>BoiteLire Hauts-de-France</type>
    <extensions>
      <osmand:address>32 rue paul vaillant couturier, 59260 Lezennes, France</osmand:address>
      <osmand:color>#ff5020</osmand:color>
      <osmand:background>square</osmand:background>
      <osmand:icon>public_bookcase</osmand:icon>
    </extensions>
  </wpt>
  <wpt lat="50.480564" lon="2.673024">
    <time>2022-02-23T13:09:06Z</time>
    <name>Annabelle mielczarek b8549</name>
    <desc></desc>
    <type>BoiteLire Hauts-de-France</type>
    <extensions>
      <osmand:address>28 rue de boulogne, noeux les m 62290, France</osmand:address>
      <osmand:color>#ff5020</osmand:color>
      <osmand:background>square</osmand:background>
      <osmand:icon>public_bookcase</osmand:icon>
    </extensions>
  </wpt>
  <wpt lat="50.3975085" lon="3.0471078">
    <time>2022-02-16T09:31:47Z</time>
    <name>Caillou b8531</name>
    <desc>Dans la gallerie carrefour, à côté de l espace recyclage, en face de la boutique bouygues</desc>
    <type>BoiteLire Hauts-de-France</type>
    <extensions>
      <osmand:address>Rn43, 59128 Flers-en-escrebieux, France</osmand:address>
      <osmand:color>#ff5020</osmand:color>
      <osmand:background>square</osmand:background>
      <osmand:icon>public_bookcase</osmand:icon>
    </extensions>
  </wpt>
  <wpt lat="49.8959937" lon="2.2924784">
    <time>2022-02-01T09:33:59Z</time>
    <name>Hammanimohamed08@gmail.com b8473</name>
    <desc>3 rue saint jacques</desc>
    <type>BoiteLire Hauts-de-France</type>
    <extensions>
      <osmand:address>3 rue saint jacques , 80000 Amiens, France</osmand:address>
      <osmand:color>#ff5020</osmand:color>
      <osmand:background>square</osmand:background>
      <osmand:icon>public_bookcase</osmand:icon>
    </extensions>
  </wpt>
  <wpt lat="49.4163894" lon="2.1129341">
    <time>2022-02-01T09:32:13Z</time>
    <name>Olivier b8464</name>
    <desc>Boîte un peu cachée par la végétation au milieu d un parterre fleuri.</desc>
    <type>BoiteLire Hauts-de-France</type>
    <extensions>
      <osmand:address>A la toute fin de l avenue blaise pascal, juste avant d'entrer sur le pont qui enjambe l'avenue jf kennedy, 60000 Beauvais, France</osmand:address>
      <osmand:color>#ff5020</osmand:color>
      <osmand:background>square</osmand:background>
      <osmand:icon>public_bookcase</osmand:icon>
    </extensions>
  </wpt>
  <wpt lat="50.1826465" lon="3.4112087">
    <time>2022-01-18T14:22:24Z</time>
    <name>Lucylgd b8455</name>
    <desc>En face de l ancien bureau de poste très original c'est dans une ancienne cabine téléphonique</desc>
    <type>BoiteLire Hauts-de-France</type>
    <extensions>
      <osmand:address>Rue de la nation, 59292 Saint hilaire lez cambrai, France</osmand:address>
      <osmand:color>#ff5020</osmand:color>
      <osmand:background>square</osmand:background>
      <osmand:icon>public_bookcase</osmand:icon>
    </extensions>
  </wpt>
  <wpt lat="49.570035" lon="3.63432">
    <time>2022-01-17T14:01:16Z</time>
    <name>Brigitte b8441</name>
    <desc>Sur le parking du pont de vaux, a cote de la station pour voiture électrique en face du restautant le franco belge</desc>
    <type>BoiteLire Hauts-de-France</type>
    <extensions>
      <osmand:address>Place victor hugo, 02000 Laon, France</osmand:address>
      <osmand:color>#ff5020</osmand:color>
      <osmand:background>square</osmand:background>
      <osmand:icon>public_bookcase</osmand:icon>
    </extensions>
  </wpt>
  <wpt lat="49.5482725" lon="3.6148266">
    <time>2022-01-12T09:33:37Z</time>
    <name>Jean-michel hennequin b8437</name>
    <desc>Mise en place de la bibliothèque participative merci aux commerçants de la galerie carrefour laon et merci à ceux et celles qui continuent les échanges de livres à laon et ailleurs !</desc>
    <type>BoiteLire Hauts-de-France</type>
    <extensions>
      <osmand:address>Carrefour laon rocade sud, 02000 Laon, France</osmand:address>
      <osmand:color>#ff5020</osmand:color>
      <osmand:background>square</osmand:background>
      <osmand:icon>public_bookcase</osmand:icon>
    </extensions>
  </wpt>
  <wpt lat="50.6886513" lon="2.8853247">
    <time>2022-01-10T09:27:52Z</time>
    <name>émile vandeputte b8410</name>
    <desc>A côté du parking gratuit</desc>
    <type>BoiteLire Hauts-de-France</type>
    <extensions>
      <osmand:address>4 rue roland garros, 59280 Armentières, France</osmand:address>
      <osmand:color>#ff5020</osmand:color>
      <osmand:background>square</osmand:background>
      <osmand:icon>public_bookcase</osmand:icon>
    </extensions>
  </wpt>
  <wpt lat="49.6587416" lon="3.3469195">
    <time>2021-12-20T09:12:16Z</time>
    <name>Mairie mairie de beautor b8394</name>
    <desc>Place paul doumer - beautor</desc>
    <type>BoiteLire Hauts-de-France</type>
    <extensions>
      <osmand:address>Place paul doumer, BEAUTOR 02800, France</osmand:address>
      <osmand:color>#ff5020</osmand:color>
      <osmand:background>square</osmand:background>
      <osmand:icon>public_bookcase</osmand:icon>
    </extensions>
  </wpt>
  <wpt lat="49.6542592" lon="3.3429845">
    <time>2021-12-20T09:12:06Z</time>
    <name>Mairie mairie de beautor b8393</name>
    <desc></desc>
    <type>BoiteLire Hauts-de-France</type>
    <extensions>
      <osmand:address>Rue du canal, BEAUTOR 02800, France</osmand:address>
      <osmand:color>#ff5020</osmand:color>
      <osmand:background>square</osmand:background>
      <osmand:icon>public_bookcase</osmand:icon>
    </extensions>
  </wpt>
  <wpt lat="50.9680636" lon="2.4326053">
    <time>2021-12-20T09:07:19Z</time>
    <name>Thérèse marlier b8383</name>
    <desc>Située sur le mur de l office de tourisme, à l'extrême droite de la porte</desc>
    <type>BoiteLire Hauts-de-France</type>
    <extensions>
      <osmand:address>Office de tourisme, 59380 Bergues , France</osmand:address>
      <osmand:color>#ff5020</osmand:color>
      <osmand:background>square</osmand:background>
      <osmand:icon>public_bookcase</osmand:icon>
    </extensions>
  </wpt>
  <wpt lat="50.968519" lon="2.433324">
    <time>2021-12-20T09:05:52Z</time>
    <name>Thérèse marlier b8382</name>
    <desc>Place henri billiaert sur le mur de l office de tourisme, à l'extrême droite du bâtiment</desc>
    <type>BoiteLire Hauts-de-France</type>
    <extensions>
      <osmand:address>Patrickmlrp@gmail.com, 59380 Bergues, France</osmand:address>
      <osmand:color>#ff5020</osmand:color>
      <osmand:background>square</osmand:background>
      <osmand:icon>public_bookcase</osmand:icon>
    </extensions>
  </wpt>
  <wpt lat="50.5191265" lon="2.8959546">
    <time>2021-12-20T09:05:21Z</time>
    <name>Sandra wychowski b8381</name>
    <desc>Bauvin résidence guy mollets</desc>
    <type>BoiteLire Hauts-de-France</type>
    <extensions>
      <osmand:address>Résidence guy mollets, 62138 Bauvin, France</osmand:address>
      <osmand:color>#ff5020</osmand:color>
      <osmand:background>square</osmand:background>
      <osmand:icon>public_bookcase</osmand:icon>
    </extensions>
  </wpt>
  <wpt lat="50.67886" lon="3.1919679">
    <time>2017-02-23T17:13:37Z</time>
    <name>Marquise b838</name>
    <desc>La boite à lire se situe à l'entrée de l'église saint michel.</desc>
    <type>BoiteLire Hauts-de-France</type>
    <extensions>
      <osmand:address>Eglise saint-michel, 59100 Roubaix, France</osmand:address>
      <osmand:color>#ff5020</osmand:color>
      <osmand:background>square</osmand:background>
      <osmand:icon>public_bookcase</osmand:icon>
    </extensions>
  </wpt>
  <wpt lat="50.0286008" lon="2.4164207">
    <time>2021-12-06T09:36:25Z</time>
    <name>Doison claudine b8366</name>
    <desc>Installee dans une ancienne cabine téléphonique</desc>
    <type>BoiteLire Hauts-de-France</type>
    <extensions>
      <osmand:address>Rue du chateau, 80260 Herissart, France</osmand:address>
      <osmand:color>#ff5020</osmand:color>
      <osmand:background>square</osmand:background>
      <osmand:icon>public_bookcase</osmand:icon>
    </extensions>
  </wpt>
  <wpt lat="50.6518982" lon="3.039675">
    <time>2021-11-24T15:31:47Z</time>
    <name>Anne-lise b8336</name>
    <desc>Boîte présente au niveau du parking face à l espace de jeux pour enfants</desc>
    <type>BoiteLire Hauts-de-France</type>
    <extensions>
      <osmand:address>Parc du castel saint gérard, 59130 Lambersart, France</osmand:address>
      <osmand:color>#ff5020</osmand:color>
      <osmand:background>square</osmand:background>
      <osmand:icon>public_bookcase</osmand:icon>
    </extensions>
  </wpt>
  <wpt lat="50.4510796" lon="2.5347068">
    <time>2021-11-12T16:36:42Z</time>
    <name>Marix b8316</name>
    <desc>Boîte rouge devant la bibliothèque municipale</desc>
    <type>BoiteLire Hauts-de-France</type>
    <extensions>
      <osmand:address>Rue henri durant, 62150 Houdain, France</osmand:address>
      <osmand:color>#ff5020</osmand:color>
      <osmand:background>square</osmand:background>
      <osmand:icon>public_bookcase</osmand:icon>
    </extensions>
  </wpt>
  <wpt lat="50.408454" lon="3.281233">
    <time>2021-11-12T09:19:12Z</time>
    <name>Tripier aurélie b8309</name>
    <desc>Après être passé e sous l'arche de l'hôtel de ville, la boite est tout au fond de la place gambetta.</desc>
    <type>BoiteLire Hauts-de-France</type>
    <extensions>
      <osmand:address>Place gambetta, 59870 Marchiennes, France</osmand:address>
      <osmand:color>#ff5020</osmand:color>
      <osmand:background>square</osmand:background>
      <osmand:icon>public_bookcase</osmand:icon>
    </extensions>
  </wpt>
  <wpt lat="50.5760926" lon="3.0121599">
    <time>2021-11-08T16:16:48Z</time>
    <name>Sylvain b8292</name>
    <desc>Parking à côté.</desc>
    <type>BoiteLire Hauts-de-France</type>
    <extensions>
      <osmand:address>3, impasse de la grande ferme, 59139 Noyelles-les-seclin, France</osmand:address>
      <osmand:color>#ff5020</osmand:color>
      <osmand:background>square</osmand:background>
      <osmand:icon>public_bookcase</osmand:icon>
    </extensions>
  </wpt>
  <wpt lat="50.6851935" lon="2.8906518">
    <time>2021-11-08T16:16:21Z</time>
    <name>Émile vandeputte b8289</name>
    <desc></desc>
    <type>BoiteLire Hauts-de-France</type>
    <extensions>
      <osmand:address>1 rue gustave dron, 59280 Armentieres, France</osmand:address>
      <osmand:color>#ff5020</osmand:color>
      <osmand:background>square</osmand:background>
      <osmand:icon>public_bookcase</osmand:icon>
    </extensions>
  </wpt>
  <wpt lat="49.3932518" lon="3.3262741">
    <time>2021-10-19T17:10:08Z</time>
    <name>Aurélie g b8248</name>
    <desc>À l entrée du parc</desc>
    <type>BoiteLire Hauts-de-France</type>
    <extensions>
      <osmand:address>Parc saint crépin, 02200 Soissons, France</osmand:address>
      <osmand:color>#ff5020</osmand:color>
      <osmand:background>square</osmand:background>
      <osmand:icon>public_bookcase</osmand:icon>
    </extensions>
  </wpt>
  <wpt lat="50.720368" lon="2.5357258">
    <time>2021-10-18T17:30:13Z</time>
    <name>Cyrille b8237</name>
    <desc>Située à l entrée du jardin public, du côté de l'église saint-Éloi.</desc>
    <type>BoiteLire Hauts-de-France</type>
    <extensions>
      <osmand:address>Rue de l Église, 59190 Hazebrouck, France</osmand:address>
      <osmand:color>#ff5020</osmand:color>
      <osmand:background>square</osmand:background>
      <osmand:icon>public_bookcase</osmand:icon>
    </extensions>
  </wpt>
  <wpt lat="51.0213555" lon="2.4841047">
    <time>2021-10-18T13:58:35Z</time>
    <name>Alice b8205</name>
    <desc>A l entrée du parc</desc>
    <type>BoiteLire Hauts-de-France</type>
    <extensions>
      <osmand:address>Résidence les gentianes, 59229 Uxem, France</osmand:address>
      <osmand:color>#ff5020</osmand:color>
      <osmand:background>square</osmand:background>
      <osmand:icon>public_bookcase</osmand:icon>
    </extensions>
  </wpt>
  <wpt lat="49.2917745" lon="3.285022">
    <time>2021-09-27T11:43:29Z</time>
    <name>Mathilde b8154</name>
    <desc>Boite située sous le porche de la mairie.</desc>
    <type>BoiteLire Hauts-de-France</type>
    <extensions>
      <osmand:address>Mairie, 02799 Vierzy, France</osmand:address>
      <osmand:color>#ff5020</osmand:color>
      <osmand:background>square</osmand:background>
      <osmand:icon>public_bookcase</osmand:icon>
    </extensions>
  </wpt>
  <wpt lat="50.4391481" lon="3.4522544">
    <time>2021-09-27T10:24:20Z</time>
    <name>Fantine b8141</name>
    <desc>En bois de palettes et materiaux de recyclages, au coeur du lotissement.</desc>
    <type>BoiteLire Hauts-de-France</type>
    <extensions>
      <osmand:address>9 rue des charmes, 59230 Saint amand les eaux, France</osmand:address>
      <osmand:color>#ff5020</osmand:color>
      <osmand:background>square</osmand:background>
      <osmand:icon>public_bookcase</osmand:icon>
    </extensions>
  </wpt>
  <wpt lat="50.7937" lon="2.424257">
    <time>2021-09-08T12:12:28Z</time>
    <name>LavayssiÈre b8088</name>
    <desc>Sur la façade de la mairie, sur la place</desc>
    <type>BoiteLire Hauts-de-France</type>
    <extensions>
      <osmand:address>Aurorecaty59@hotmail.fr, 59670 Zuytpeene, France</osmand:address>
      <osmand:color>#ff5020</osmand:color>
      <osmand:background>square</osmand:background>
      <osmand:icon>public_bookcase</osmand:icon>
    </extensions>
  </wpt>
  <wpt lat="49.3489379" lon="2.458247">
    <time>2021-09-08T12:11:02Z</time>
    <name>Arbre à livres b8086</name>
    <desc></desc>
    <type>BoiteLire Hauts-de-France</type>
    <extensions>
      <osmand:address>Parc gérard humbert, 60140 Bailleval, France</osmand:address>
      <osmand:color>#ff5020</osmand:color>
      <osmand:background>square</osmand:background>
      <osmand:icon>public_bookcase</osmand:icon>
    </extensions>
  </wpt>
  <wpt lat="50.928179" lon="2.330514">
    <time>2021-08-24T19:43:56Z</time>
    <name>Catherine b8012</name>
    <desc></desc>
    <type>BoiteLire Hauts-de-France</type>
    <extensions>
      <osmand:address>La place, 59284 Pitgam, France</osmand:address>
      <osmand:color>#ff5020</osmand:color>
      <osmand:background>square</osmand:background>
      <osmand:icon>public_bookcase</osmand:icon>
    </extensions>
  </wpt>
  <wpt lat="50.4609438" lon="1.5917625">
    <time>2021-08-19T09:23:51Z</time>
    <name>Grignion ludovic b8007</name>
    <desc>Boite à livre sur le muret de la maison</desc>
    <type>BoiteLire Hauts-de-France</type>
    <extensions>
      <osmand:address>113 boulevard de stella plage, 62155 Merlimont plage, France</osmand:address>
      <osmand:color>#ff5020</osmand:color>
      <osmand:background>square</osmand:background>
      <osmand:icon>public_bookcase</osmand:icon>
    </extensions>
  </wpt>
  <wpt lat="50.0590207" lon="4.1046604">
    <time>2021-08-16T10:54:58Z</time>
    <name>Rosemonde b7998</name>
    <desc>à l intérieur de la cour de la maison médicale, une armoire blanche et rouge.</desc>
    <type>BoiteLire Hauts-de-France</type>
    <extensions>
      <osmand:address>Maison médicale albertine, 59132 Trélon, France</osmand:address>
      <osmand:color>#ff5020</osmand:color>
      <osmand:background>square</osmand:background>
      <osmand:icon>public_bookcase</osmand:icon>
    </extensions>
  </wpt>
  <wpt lat="50.5660995" lon="2.6079627">
    <time>2021-08-13T10:55:32Z</time>
    <name>Léo b7985</name>
    <desc>La boîte est dans le virage, au croisement de la rue du cauroy et de la route d hinges.</desc>
    <type>BoiteLire Hauts-de-France</type>
    <extensions>
      <osmand:address>1 route d hinges, 62920 Gonnehem, France</osmand:address>
      <osmand:color>#ff5020</osmand:color>
      <osmand:background>square</osmand:background>
      <osmand:icon>public_bookcase</osmand:icon>
    </extensions>
  </wpt>
  <wpt lat="50.3265999" lon="3.2393015">
    <time>2021-08-09T15:34:37Z</time>
    <name>Poteaux nathalie b7962</name>
    <desc>Petite maison posée sur gabion en milieu de hameau.</desc>
    <type>BoiteLire Hauts-de-France</type>
    <extensions>
      <osmand:address>8 hameau du moulin blanc, 59165 Auberchicourt, France</osmand:address>
      <osmand:color>#ff5020</osmand:color>
      <osmand:background>square</osmand:background>
      <osmand:icon>public_bookcase</osmand:icon>
    </extensions>
  </wpt>
  <wpt lat="50.6102388" lon="2.4955108">
    <time>2021-08-09T09:08:51Z</time>
    <name>Martine b7952</name>
    <desc>Face à l église, derrière la mairie.</desc>
    <type>BoiteLire Hauts-de-France</type>
    <extensions>
      <osmand:address>Rue des fusillés, 62330 Guarbecque, France</osmand:address>
      <osmand:color>#ff5020</osmand:color>
      <osmand:background>square</osmand:background>
      <osmand:icon>public_bookcase</osmand:icon>
    </extensions>
  </wpt>
  <wpt lat="50.1619212" lon="1.6033891">
    <time>2021-08-05T09:27:10Z</time>
    <name>Nodilo b7926</name>
    <desc>A l angle de la rue de l abbaye et de la place saint-benoit</desc>
    <type>BoiteLire Hauts-de-France</type>
    <extensions>
      <osmand:address>Square edgar degas, 80230 Saint-valery-sur-somme, France</osmand:address>
      <osmand:color>#ff5020</osmand:color>
      <osmand:background>square</osmand:background>
      <osmand:icon>public_bookcase</osmand:icon>
    </extensions>
  </wpt>
  <wpt lat="50.1778059" lon="1.6447918">
    <time>2021-08-05T09:27:01Z</time>
    <name>Nodilo b7925</name>
    <desc>Située le long de la voie ferrée du train touristique.</desc>
    <type>BoiteLire Hauts-de-France</type>
    <extensions>
      <osmand:address>Av romain michel, 80230 Saint-valery-sur-somme, France</osmand:address>
      <osmand:color>#ff5020</osmand:color>
      <osmand:background>square</osmand:background>
      <osmand:icon>public_bookcase</osmand:icon>
    </extensions>
  </wpt>
  <wpt lat="50.607688" lon="3.069654">
    <time>2021-08-02T17:05:10Z</time>
    <name>Véronique b7910</name>
    <desc>Une ancienne cabine téléphonique réhabilitée en cabine à livre. installée au niveau du jardin du centre social</desc>
    <type>BoiteLire Hauts-de-France</type>
    <extensions>
      <osmand:address>80 chemin rouge, 59155 Faches thumesnil, France</osmand:address>
      <osmand:color>#ff5020</osmand:color>
      <osmand:background>square</osmand:background>
      <osmand:icon>public_bookcase</osmand:icon>
    </extensions>
  </wpt>
  <wpt lat="50.1775899" lon="3.8291814">
    <time>2021-07-28T17:05:32Z</time>
    <name>Courant sabrina b7874</name>
    <desc>Elle se situe dans le parc de jeu à côté de la salle de sport</desc>
    <type>BoiteLire Hauts-de-France</type>
    <extensions>
      <osmand:address>Rue marcel ringeval, 59620 Leval, France</osmand:address>
      <osmand:color>#ff5020</osmand:color>
      <osmand:background>square</osmand:background>
      <osmand:icon>public_bookcase</osmand:icon>
    </extensions>
  </wpt>
  <wpt lat="49.859336" lon="3.9740364">
    <time>2021-07-26T15:18:23Z</time>
    <name>Sophie b7840</name>
    <desc>Derrière l église, à l'entrée de l'école .</desc>
    <type>BoiteLire Hauts-de-France</type>
    <extensions>
      <osmand:address>3 rue de vervins, 02140 La bouteille, France</osmand:address>
      <osmand:color>#ff5020</osmand:color>
      <osmand:background>square</osmand:background>
      <osmand:icon>public_bookcase</osmand:icon>
    </extensions>
  </wpt>
  <wpt lat="50.6336235" lon="3.0675389">
    <time>2021-07-26T15:17:03Z</time>
    <name>David b7833</name>
    <desc>Dans la partie piétonne, contre l un des grand bac de fleurs</desc>
    <type>BoiteLire Hauts-de-France</type>
    <extensions>
      <osmand:address>7 rue gustave delory, 59800 Lille, France</osmand:address>
      <osmand:color>#ff5020</osmand:color>
      <osmand:background>square</osmand:background>
      <osmand:icon>public_bookcase</osmand:icon>
    </extensions>
  </wpt>
  <wpt lat="50.3674776" lon="3.0803782">
    <time>2017-01-23T10:28:02Z</time>
    <name>Cathy b782</name>
    <desc>Située sous porche de douai mairie du beffroi.</desc>
    <type>BoiteLire Hauts-de-France</type>
    <extensions>
      <osmand:address>83 rue de la mairie, 59500 Douai, France</osmand:address>
      <osmand:color>#ff5020</osmand:color>
      <osmand:background>square</osmand:background>
      <osmand:icon>public_bookcase</osmand:icon>
    </extensions>
  </wpt>
  <wpt lat="50.725039" lon="3.105161">
    <time>2021-07-23T15:25:25Z</time>
    <name>Beeshop b7791</name>
    <desc>A côté d?un banc pres de l?institution de la croix blanche</desc>
    <type>BoiteLire Hauts-de-France</type>
    <extensions>
      <osmand:address>Croix blanche, 59910 Bondues, France</osmand:address>
      <osmand:color>#ff5020</osmand:color>
      <osmand:background>square</osmand:background>
      <osmand:icon>public_bookcase</osmand:icon>
    </extensions>
  </wpt>
  <wpt lat="50.5130387" lon="2.7838808">
    <time>2021-07-13T10:21:44Z</time>
    <name>Aaa b7755</name>
    <desc></desc>
    <type>BoiteLire Hauts-de-France</type>
    <extensions>
      <osmand:address>104 rue humblot, 62138 Auchy les mines, France</osmand:address>
      <osmand:color>#ff5020</osmand:color>
      <osmand:background>square</osmand:background>
      <osmand:icon>public_bookcase</osmand:icon>
    </extensions>
  </wpt>
  <wpt lat="49.0150051" lon="3.4014602">
    <time>2021-07-13T10:18:22Z</time>
    <name>Mélanie b7747</name>
    <desc>Boite à lire situé devant la salle des fêtes.</desc>
    <type>BoiteLire Hauts-de-France</type>
    <extensions>
      <osmand:address>Place de la mairie, 02400 Nogentel, France</osmand:address>
      <osmand:color>#ff5020</osmand:color>
      <osmand:background>square</osmand:background>
      <osmand:icon>public_bookcase</osmand:icon>
    </extensions>
  </wpt>
  <wpt lat="50.5846394" lon="2.4120926">
    <time>2021-07-09T16:47:34Z</time>
    <name>Bintein pierre b7734</name>
    <desc>Boîte à livre située devant l espace culturel de norrent-fontes</desc>
    <type>BoiteLire Hauts-de-France</type>
    <extensions>
      <osmand:address>13 rue jules ferry, 62120 Norrent-fontes, France</osmand:address>
      <osmand:color>#ff5020</osmand:color>
      <osmand:background>square</osmand:background>
      <osmand:icon>public_bookcase</osmand:icon>
    </extensions>
  </wpt>
  <wpt lat="50.528638" lon="3.175672">
    <time>2017-01-16T10:50:15Z</time>
    <name>Alice b772</name>
    <desc>Kiosque belle époque.</desc>
    <type>BoiteLire Hauts-de-France</type>
    <extensions>
      <osmand:address>Place de la gare, 59242 Templeuve, France</osmand:address>
      <osmand:color>#ff5020</osmand:color>
      <osmand:background>square</osmand:background>
      <osmand:icon>public_bookcase</osmand:icon>
    </extensions>
  </wpt>
  <wpt lat="49.6537772" lon="3.379082">
    <time>2021-07-02T16:23:29Z</time>
    <name>Dyn ci b7709</name>
    <desc>Sur le trottoir en face de la mairie, à coter de la place de l école de charmes</desc>
    <type>BoiteLire Hauts-de-France</type>
    <extensions>
      <osmand:address>9 rue aristide briand, 02800 Charmes, France</osmand:address>
      <osmand:color>#ff5020</osmand:color>
      <osmand:background>square</osmand:background>
      <osmand:icon>public_bookcase</osmand:icon>
    </extensions>
  </wpt>
  <wpt lat="49.6612968" lon="3.3725923">
    <time>2021-07-02T16:23:21Z</time>
    <name>Dyn ci b7708</name>
    <desc>Entre les deux hlm</desc>
    <type>BoiteLire Hauts-de-France</type>
    <extensions>
      <osmand:address>Résidence du necfort, 02800 La fere, France</osmand:address>
      <osmand:color>#ff5020</osmand:color>
      <osmand:background>square</osmand:background>
      <osmand:icon>public_bookcase</osmand:icon>
    </extensions>
  </wpt>
  <wpt lat="49.658245" lon="3.375016">
    <time>2021-07-02T16:23:05Z</time>
    <name>Dyn ci b7707</name>
    <desc>Le long des escaliers de l hlm, près du pont</desc>
    <type>BoiteLire Hauts-de-France</type>
    <extensions>
      <osmand:address>Allée de linières, 02800 La fere, France</osmand:address>
      <osmand:color>#ff5020</osmand:color>
      <osmand:background>square</osmand:background>
      <osmand:icon>public_bookcase</osmand:icon>
    </extensions>
  </wpt>
  <wpt lat="49.66421" lon="3.367705">
    <time>2021-07-02T16:22:56Z</time>
    <name>Dyn ci b7706</name>
    <desc></desc>
    <type>BoiteLire Hauts-de-France</type>
    <extensions>
      <osmand:address>Résidence du luxembourg, 02800 La fere, France</osmand:address>
      <osmand:color>#ff5020</osmand:color>
      <osmand:background>square</osmand:background>
      <osmand:icon>public_bookcase</osmand:icon>
    </extensions>
  </wpt>
  <wpt lat="50.9985864" lon="2.366522">
    <time>2021-07-02T16:22:39Z</time>
    <name>Do b7705</name>
    <desc>Sur la place de l?eglise</desc>
    <type>BoiteLire Hauts-de-France</type>
    <extensions>
      <osmand:address>188 avenue du général de gaulle, 59180 Cappelle la grande, France</osmand:address>
      <osmand:color>#ff5020</osmand:color>
      <osmand:background>square</osmand:background>
      <osmand:icon>public_bookcase</osmand:icon>
    </extensions>
  </wpt>
  <wpt lat="50.4898557" lon="3.0819785">
    <time>2021-06-29T10:12:04Z</time>
    <name>Tissot-charlod dominique b7692</name>
    <desc>Initiative personnel</desc>
    <type>BoiteLire Hauts-de-France</type>
    <extensions>
      <osmand:address>205, rue de l offrande, 59246 Mons-en-pévèle, France</osmand:address>
      <osmand:color>#ff5020</osmand:color>
      <osmand:background>square</osmand:background>
      <osmand:icon>public_bookcase</osmand:icon>
    </extensions>
  </wpt>
  <wpt lat="50.506562" lon="3.084051">
    <time>2021-06-29T10:11:52Z</time>
    <name>Tissot-charlod dominique b7691</name>
    <desc></desc>
    <type>BoiteLire Hauts-de-France</type>
    <extensions>
      <osmand:address>Dans l abri bus, arrêt de la mairie, 59551 Tourmignies, France</osmand:address>
      <osmand:color>#ff5020</osmand:color>
      <osmand:background>square</osmand:background>
      <osmand:icon>public_bookcase</osmand:icon>
    </extensions>
  </wpt>
  <wpt lat="50.6134077" lon="3.073225">
    <time>2017-01-13T10:17:19Z</time>
    <name>Recyclivre b767</name>
    <desc>2 étagères régulièrement pleines de lvires vous attendent dans nos locaux de 09h00 à 17h00 du lundi au vendredi</desc>
    <type>BoiteLire Hauts-de-France</type>
    <extensions>
      <osmand:address>99, rue du jardin des plantes, 59000 Lille, France</osmand:address>
      <osmand:color>#ff5020</osmand:color>
      <osmand:background>square</osmand:background>
      <osmand:icon>public_bookcase</osmand:icon>
    </extensions>
  </wpt>
  <wpt lat="49.390264" lon="2.430351">
    <time>2021-06-17T15:26:58Z</time>
    <name>Benoit chagnon b7646</name>
    <desc>Derriére l abris de bus</desc>
    <type>BoiteLire Hauts-de-France</type>
    <extensions>
      <osmand:address>Place de la république, 60600 Fitz james, France</osmand:address>
      <osmand:color>#ff5020</osmand:color>
      <osmand:background>square</osmand:background>
      <osmand:icon>public_bookcase</osmand:icon>
    </extensions>
  </wpt>
  <wpt lat="49.389307" lon="2.432948">
    <time>2021-06-17T15:26:50Z</time>
    <name>Benoit chagnon b7645</name>
    <desc>Au lavoir à l angle de la rue au dessus du 37 sur la carte</desc>
    <type>BoiteLire Hauts-de-France</type>
    <extensions>
      <osmand:address>Rue des petits prés, 60600 Fitz james, France</osmand:address>
      <osmand:color>#ff5020</osmand:color>
      <osmand:background>square</osmand:background>
      <osmand:icon>public_bookcase</osmand:icon>
    </extensions>
  </wpt>
  <wpt lat="50.47317" lon="2.716622">
    <time>2021-06-07T11:08:14Z</time>
    <name>Coquelle b7606</name>
    <desc></desc>
    <type>BoiteLire Hauts-de-France</type>
    <extensions>
      <osmand:address>Bd basly hlm, 62670 Mazingarbe, France</osmand:address>
      <osmand:color>#ff5020</osmand:color>
      <osmand:background>square</osmand:background>
      <osmand:icon>public_bookcase</osmand:icon>
    </extensions>
  </wpt>
  <wpt lat="50.5221682" lon="2.6818252">
    <time>2021-05-31T09:54:30Z</time>
    <name>Kevind b7571</name>
    <desc>Près de l ecolle maternelle colette</desc>
    <type>BoiteLire Hauts-de-France</type>
    <extensions>
      <osmand:address>Place roger salengro, 62660 Beuvry, France</osmand:address>
      <osmand:color>#ff5020</osmand:color>
      <osmand:background>square</osmand:background>
      <osmand:icon>public_bookcase</osmand:icon>
    </extensions>
  </wpt>
  <wpt lat="49.2653178" lon="2.4767024">
    <time>2021-05-25T12:33:19Z</time>
    <name>Alain b7545</name>
    <desc>Cabine téléphonique anglaise au croisement des rues barluet / dolet / protat</desc>
    <type>BoiteLire Hauts-de-France</type>
    <extensions>
      <osmand:address>Rue henri barluet, 60100 Creil, France</osmand:address>
      <osmand:color>#ff5020</osmand:color>
      <osmand:background>square</osmand:background>
      <osmand:icon>public_bookcase</osmand:icon>
    </extensions>
  </wpt>
  <wpt lat="49.2146689" lon="2.7832948">
    <time>2021-05-25T12:30:31Z</time>
    <name>Marie et pat b7540</name>
    <desc>Dans la cahuite, entre le petit étang et le cimetière</desc>
    <type>BoiteLire Hauts-de-France</type>
    <extensions>
      <osmand:address>Rue saint vincent, 60800 Le luat, France</osmand:address>
      <osmand:color>#ff5020</osmand:color>
      <osmand:background>square</osmand:background>
      <osmand:icon>public_bookcase</osmand:icon>
    </extensions>
  </wpt>
  <wpt lat="50.2089095" lon="3.8141519">
    <time>2021-05-21T11:48:58Z</time>
    <name>Berlaimont a b7531</name>
    <desc></desc>
    <type>BoiteLire Hauts-de-France</type>
    <extensions>
      <osmand:address>Rue claude bernard, 59145 Berlaimont, France</osmand:address>
      <osmand:color>#ff5020</osmand:color>
      <osmand:background>square</osmand:background>
      <osmand:icon>public_bookcase</osmand:icon>
    </extensions>
  </wpt>
  <wpt lat="49.9074981" lon="2.4999757">
    <time>2017-01-05T18:18:43Z</time>
    <name>Beaudelain aimée b753</name>
    <desc>Cette boite à lire est dans une salle de la mairie de fouilloy . ouverte le mardi matin de 10h30 à 12h et le vendredi après-midi de 14h à 15h30.</desc>
    <type>BoiteLire Hauts-de-France</type>
    <extensions>
      <osmand:address>14 rue jean jaures, 80800 Fouilloy, France</osmand:address>
      <osmand:color>#ff5020</osmand:color>
      <osmand:background>square</osmand:background>
      <osmand:icon>public_bookcase</osmand:icon>
    </extensions>
  </wpt>
  <wpt lat="49.220491" lon="3.246119">
    <time>2021-05-19T11:41:20Z</time>
    <name>Mathildea b7514</name>
    <desc>Boite a livres présente en journée et par beau temps, chez un particulier, maison aux volets bleus.</desc>
    <type>BoiteLire Hauts-de-France</type>
    <extensions>
      <osmand:address>Rue du lavoir, 02210 Chouy, France</osmand:address>
      <osmand:color>#ff5020</osmand:color>
      <osmand:background>square</osmand:background>
      <osmand:icon>public_bookcase</osmand:icon>
    </extensions>
  </wpt>
  <wpt lat="50.1211836" lon="4.0985346">
    <time>2021-05-19T11:31:34Z</time>
    <name>Freda b7505</name>
    <desc>Ancienne cabine téléphonique</desc>
    <type>BoiteLire Hauts-de-France</type>
    <extensions>
      <osmand:address>Mairie de willies, 4 rue de liessies, 59740 Willies, France</osmand:address>
      <osmand:color>#ff5020</osmand:color>
      <osmand:background>square</osmand:background>
      <osmand:icon>public_bookcase</osmand:icon>
    </extensions>
  </wpt>
  <wpt lat="50.1393503" lon="2.7151016">
    <time>2021-05-19T11:30:16Z</time>
    <name>Laurea b7503</name>
    <desc>La boîte à livres est installée dans l ancienne cabine téléphonique, rue du 11 novembre devant l'église du village</desc>
    <type>BoiteLire Hauts-de-France</type>
    <extensions>
      <osmand:address>Mairie.moyenneville@orange.fr, Moyennevill 62121, France</osmand:address>
      <osmand:color>#ff5020</osmand:color>
      <osmand:background>square</osmand:background>
      <osmand:icon>public_bookcase</osmand:icon>
    </extensions>
  </wpt>
  <wpt lat="50.1216294" lon="3.9269012">
    <time>2021-05-11T17:08:37Z</time>
    <name>Boitealivre b7481</name>
    <desc>La boite se situe dans la rue vauban , en face de l avenue du géneral de gaules et aussi en face du fidji , qui est dans l'avenue du pont rouge.</desc>
    <type>BoiteLire Hauts-de-France</type>
    <extensions>
      <osmand:address>rue vauban, 59440 Avesnes sur helpe, France</osmand:address>
      <osmand:color>#ff5020</osmand:color>
      <osmand:background>square</osmand:background>
      <osmand:icon>public_bookcase</osmand:icon>
    </extensions>
  </wpt>
  <wpt lat="49.3983649" lon="2.8033376">
    <time>2021-04-29T09:32:50Z</time>
    <name>Patrice m b7447</name>
    <desc>Située sur la droite de l abbaye</desc>
    <type>BoiteLire Hauts-de-France</type>
    <extensions>
      <osmand:address>parc de bayser, 60200 Compiègne, France</osmand:address>
      <osmand:color>#ff5020</osmand:color>
      <osmand:background>square</osmand:background>
      <osmand:icon>public_bookcase</osmand:icon>
    </extensions>
  </wpt>
  <wpt lat="49.901042" lon="2.5031996">
    <time>2021-04-27T17:57:04Z</time>
    <name>Chanoine b7443</name>
    <desc>Dans la cours de la mairie</desc>
    <type>BoiteLire Hauts-de-France</type>
    <extensions>
      <osmand:address>Place de la république , 80800 Fouilloy , France</osmand:address>
      <osmand:color>#ff5020</osmand:color>
      <osmand:background>square</osmand:background>
      <osmand:icon>public_bookcase</osmand:icon>
    </extensions>
  </wpt>
  <wpt lat="49.924795" lon="3.963102">
    <time>2021-04-23T15:37:58Z</time>
    <name>Mand b7417</name>
    <desc>Juste avant l axe vert</desc>
    <type>BoiteLire Hauts-de-France</type>
    <extensions>
      <osmand:address>Luzoir, 02445 Luzoir, France</osmand:address>
      <osmand:color>#ff5020</osmand:color>
      <osmand:background>square</osmand:background>
      <osmand:icon>public_bookcase</osmand:icon>
    </extensions>
  </wpt>
  <wpt lat="50.3458262" lon="1.7400784">
    <time>2021-04-22T10:44:56Z</time>
    <name>paulrue du château b7392</name>
    <desc>Situé en face de l auberge les contrebandiers</desc>
    <type>BoiteLire Hauts-de-France</type>
    <extensions>
      <osmand:address>Rue du château, 80120 Nampont saint martin, France</osmand:address>
      <osmand:color>#ff5020</osmand:color>
      <osmand:background>square</osmand:background>
      <osmand:icon>public_bookcase</osmand:icon>
    </extensions>
  </wpt>
  <wpt lat="50.125434" lon="3.691623">
    <time>2021-04-19T10:39:57Z</time>
    <name>mand b7384</name>
    <desc>près du canal</desc>
    <type>BoiteLire Hauts-de-France</type>
    <extensions>
      <osmand:address>Landrecies, 59550 Landrecies, France</osmand:address>
      <osmand:color>#ff5020</osmand:color>
      <osmand:background>square</osmand:background>
      <osmand:icon>public_bookcase</osmand:icon>
    </extensions>
  </wpt>
  <wpt lat="50.6379922" lon="3.0116365">
    <time>2021-04-19T10:31:27Z</time>
    <name>Gros wombat au museau tout duveteux b7377</name>
    <desc>En face de l hôtel de ville !</desc>
    <type>BoiteLire Hauts-de-France</type>
    <extensions>
      <osmand:address>85 avenue de la république, 59160 Lomme, France</osmand:address>
      <osmand:color>#ff5020</osmand:color>
      <osmand:background>square</osmand:background>
      <osmand:icon>public_bookcase</osmand:icon>
    </extensions>
  </wpt>
  <wpt lat="50.6710626" lon="2.3414961">
    <time></time>
    <name>Gilliers b736</name>
    <desc>Place de la mairie</desc>
    <type>BoiteLire Hauts-de-France</type>
    <extensions>
      <osmand:address>1 place de la mairie, 62120 Racquinghem, France</osmand:address>
      <osmand:color>#ff5020</osmand:color>
      <osmand:background>square</osmand:background>
      <osmand:icon>public_bookcase</osmand:icon>
    </extensions>
  </wpt>
  <wpt lat="50.4697104" lon="3.2429655">
    <time>2021-04-08T10:29:57Z</time>
    <name>Alice wattier b7351</name>
    <desc>Projet mené par le conseil municipal des enfants. 2 autres boîtes dans la ville, à la gare et au parc du millénium.</desc>
    <type>BoiteLire Hauts-de-France</type>
    <extensions>
      <osmand:address>Rue floris durez, 59310 Orchies, France</osmand:address>
      <osmand:color>#ff5020</osmand:color>
      <osmand:background>square</osmand:background>
      <osmand:icon>public_bookcase</osmand:icon>
    </extensions>
  </wpt>
  <wpt lat="50.6922101" lon="3.0523156">
    <time>2021-04-06T13:57:58Z</time>
    <name>Lorthiois b7339</name>
    <desc>Bibliothèque partagée dans l accueil du magasin vrac drive</desc>
    <type>BoiteLire Hauts-de-France</type>
    <extensions>
      <osmand:address>471 rue de quesnoy, 59118 Wambrechies, France</osmand:address>
      <osmand:color>#ff5020</osmand:color>
      <osmand:background>square</osmand:background>
      <osmand:icon>public_bookcase</osmand:icon>
    </extensions>
  </wpt>
  <wpt lat="50.6923592" lon="3.0503199">
    <time>2021-04-06T13:55:37Z</time>
    <name>Joaquim lorthiois b7323</name>
    <desc>La boîte à lire se situe à l intérieur du magasin.</desc>
    <type>BoiteLire Hauts-de-France</type>
    <extensions>
      <osmand:address>Vrac drive au 471 rue de quesnoy, 59118 Wambrechies, France</osmand:address>
      <osmand:color>#ff5020</osmand:color>
      <osmand:background>square</osmand:background>
      <osmand:icon>public_bookcase</osmand:icon>
    </extensions>
  </wpt>
  <wpt lat="50.946696" lon="1.756665">
    <time>2021-03-09T16:48:21Z</time>
    <name>Aurélien faillon b7314</name>
    <desc>Il s agit d'une boîte en bois située à côté de l'église de blériot plage. la boite est fermé par une porte vitrée qui est ouvrable en accès libre</desc>
    <type>BoiteLire Hauts-de-France</type>
    <extensions>
      <osmand:address>N50 57,499 e001 49,519, 62231 Blériot-plage, France</osmand:address>
      <osmand:color>#ff5020</osmand:color>
      <osmand:background>square</osmand:background>
      <osmand:icon>public_bookcase</osmand:icon>
    </extensions>
  </wpt>
  <wpt lat="49.4512032" lon="2.0945428">
    <time>2021-03-09T14:21:51Z</time>
    <name>Ben b7307</name>
    <desc>Boite située à côté d un banc, non loin de la roseraie.</desc>
    <type>BoiteLire Hauts-de-France</type>
    <extensions>
      <osmand:address>Parc marcel dassault, 60000 Beauvais, France</osmand:address>
      <osmand:color>#ff5020</osmand:color>
      <osmand:background>square</osmand:background>
      <osmand:icon>public_bookcase</osmand:icon>
    </extensions>
  </wpt>
  <wpt lat="49.415371" lon="2.101307">
    <time>2021-03-09T14:21:43Z</time>
    <name>Ben b7306</name>
    <desc>3 boîtes situées sur l ensemble du site, le long du parc.</desc>
    <type>BoiteLire Hauts-de-France</type>
    <extensions>
      <osmand:address>Maladrerie saint-lazare, 60000 Beauvais, France</osmand:address>
      <osmand:color>#ff5020</osmand:color>
      <osmand:background>square</osmand:background>
      <osmand:icon>public_bookcase</osmand:icon>
    </extensions>
  </wpt>
  <wpt lat="49.885422" lon="2.8083">
    <time>2021-03-08T10:01:25Z</time>
    <name>Raphal chanoine b7299</name>
    <desc>A coter de l?glise la marie dans l?ancien village</desc>
    <type>BoiteLire Hauts-de-France</type>
    <extensions>
      <osmand:address>A coter de l?glise la marie dans l?ancien village, 80200 Fay, France</osmand:address>
      <osmand:color>#ff5020</osmand:color>
      <osmand:background>square</osmand:background>
      <osmand:icon>public_bookcase</osmand:icon>
    </extensions>
  </wpt>
  <wpt lat="49.6956602" lon="2.7991146">
    <time>2021-03-08T09:52:28Z</time>
    <name>Chanoine b7278</name>
    <desc>Sur une maison après centrale</desc>
    <type>BoiteLire Hauts-de-France</type>
    <extensions>
      <osmand:address>Rue françois mitterand, 80700 Roye, France</osmand:address>
      <osmand:color>#ff5020</osmand:color>
      <osmand:background>square</osmand:background>
      <osmand:icon>public_bookcase</osmand:icon>
    </extensions>
  </wpt>
  <wpt lat="49.7794357" lon="2.6891629">
    <time>2021-02-22T15:15:27Z</time>
    <name>Chanoine b7248</name>
    <desc>Elle se situe juste à côté de la mairie à l entrée du cimetière</desc>
    <type>BoiteLire Hauts-de-France</type>
    <extensions>
      <osmand:address>18 rue de rouvroy, 80170 Warvillers, France</osmand:address>
      <osmand:color>#ff5020</osmand:color>
      <osmand:background>square</osmand:background>
      <osmand:icon>public_bookcase</osmand:icon>
    </extensions>
  </wpt>
  <wpt lat="49.7794913" lon="2.691284">
    <time>2021-02-22T15:14:46Z</time>
    <name>Laetitia chanoine b7247</name>
    <desc>Elle est située à la mairie sur le mur du cimetière au coeur du village</desc>
    <type>BoiteLire Hauts-de-France</type>
    <extensions>
      <osmand:address>Rue de rouvroy, 80170 Warvillers, France</osmand:address>
      <osmand:color>#ff5020</osmand:color>
      <osmand:background>square</osmand:background>
      <osmand:icon>public_bookcase</osmand:icon>
    </extensions>
  </wpt>
  <wpt lat="50.0030488" lon="2.6466256">
    <time>2021-02-01T14:15:26Z</time>
    <name>Tiphaine kleiber b7172</name>
    <desc>Petite boite au lettre dans le parc du centre ville</desc>
    <type>BoiteLire Hauts-de-France</type>
    <extensions>
      <osmand:address>Jardin public, Albert 80300, France</osmand:address>
      <osmand:color>#ff5020</osmand:color>
      <osmand:background>square</osmand:background>
      <osmand:icon>public_bookcase</osmand:icon>
    </extensions>
  </wpt>
  <wpt lat="50.0147724" lon="2.6573886">
    <time>2021-02-01T14:14:57Z</time>
    <name>Tiphaine kleiber b7170</name>
    <desc>Petite boîte à livre à l entrée du vélodrome, installée par le lions club</desc>
    <type>BoiteLire Hauts-de-France</type>
    <extensions>
      <osmand:address>Avenue charles quéret, 80300 Albert, France</osmand:address>
      <osmand:color>#ff5020</osmand:color>
      <osmand:background>square</osmand:background>
      <osmand:icon>public_bookcase</osmand:icon>
    </extensions>
  </wpt>
  <wpt lat="49.3426206" lon="2.6045568">
    <time></time>
    <name>Marine machu b717</name>
    <desc>Boîte à lire dans une ancienne cabine téléphonique près de la mairie et de la bibliothèque du village de saint martin longueau dans l'oise.</desc>
    <type>BoiteLire Hauts-de-France</type>
    <extensions>
      <osmand:address>8 rue de la république, 60700 Saint-martin-longueau, France</osmand:address>
      <osmand:color>#ff5020</osmand:color>
      <osmand:background>square</osmand:background>
      <osmand:icon>public_bookcase</osmand:icon>
    </extensions>
  </wpt>
  <wpt lat="49.8776661" lon="2.3200417">
    <time>2021-02-01T14:14:45Z</time>
    <name>Martine truffier b7169</name>
    <desc></desc>
    <type>BoiteLire Hauts-de-France</type>
    <extensions>
      <osmand:address>Martinetruffier@orange.fr, Amiens 80090, France</osmand:address>
      <osmand:color>#ff5020</osmand:color>
      <osmand:background>square</osmand:background>
      <osmand:icon>public_bookcase</osmand:icon>
    </extensions>
  </wpt>
  <wpt lat="50.6930818" lon="3.1845673">
    <time>2021-01-18T09:30:58Z</time>
    <name>Eguerre b7125</name>
    <desc></desc>
    <type>BoiteLire Hauts-de-France</type>
    <extensions>
      <osmand:address>Itslili22@gmail.com, 59100 Roubaix, France</osmand:address>
      <osmand:color>#ff5020</osmand:color>
      <osmand:background>square</osmand:background>
      <osmand:icon>public_bookcase</osmand:icon>
    </extensions>
  </wpt>
  <wpt lat="50.7888" lon="2.177183">
    <time>2021-01-18T09:29:28Z</time>
    <name>Hedin philippe b7121</name>
    <desc>Boite installee devant la mairie.</desc>
    <type>BoiteLire Hauts-de-France</type>
    <extensions>
      <osmand:address>Rue des arts, 62910 Moulle, France</osmand:address>
      <osmand:color>#ff5020</osmand:color>
      <osmand:background>square</osmand:background>
      <osmand:icon>public_bookcase</osmand:icon>
    </extensions>
  </wpt>
  <wpt lat="50.5826718" lon="3.0793905">
    <time></time>
    <name>Johann b707</name>
    <desc>La boite à lire se trouve devant le auchan à côté du magasin swarovski</desc>
    <type>BoiteLire Hauts-de-France</type>
    <extensions>
      <osmand:address>Chemin de templemars, 59155 Faches-thumesnil, France</osmand:address>
      <osmand:color>#ff5020</osmand:color>
      <osmand:background>square</osmand:background>
      <osmand:icon>public_bookcase</osmand:icon>
    </extensions>
  </wpt>
  <wpt lat="49.41591" lon="2.8191563">
    <time>2020-12-16T14:59:47Z</time>
    <name>Mylene wasielewski b7047</name>
    <desc>La boîte à lire est située sur l esplanade de l'utc abritée sous une terrasse du bâtiment</desc>
    <type>BoiteLire Hauts-de-France</type>
    <extensions>
      <osmand:address>Rue du port à bateaux, 60200 Compiegne, France</osmand:address>
      <osmand:color>#ff5020</osmand:color>
      <osmand:background>square</osmand:background>
      <osmand:icon>public_bookcase</osmand:icon>
    </extensions>
  </wpt>
  <wpt lat="50.28065346586332" lon="3.0566883087158208">
    <time>2020-12-14T09:30:29Z</time>
    <name>Egiane b7031</name>
    <desc>Située en face de l atelier d'egiane. en plein coeur des marais d'hamel. très utilisée et bien fournie.</desc>
    <type>BoiteLire Hauts-de-France</type>
    <extensions>
      <osmand:address>Allée des lilas, 59151 Hamel, France</osmand:address>
      <osmand:color>#ff5020</osmand:color>
      <osmand:background>square</osmand:background>
      <osmand:icon>public_bookcase</osmand:icon>
    </extensions>
  </wpt>
  <wpt lat="50.6268148" lon="3.0492613">
    <time>2020-12-10T16:35:20Z</time>
    <name>Mairie de quartier de lille-wazemmes b7026</name>
    <desc></desc>
    <type>BoiteLire Hauts-de-France</type>
    <extensions>
      <osmand:address>Halles de wazemmes place nouvelle aventure, 59000 Lille, France</osmand:address>
      <osmand:color>#ff5020</osmand:color>
      <osmand:background>square</osmand:background>
      <osmand:icon>public_bookcase</osmand:icon>
    </extensions>
  </wpt>
  <wpt lat="50.9427369" lon="1.7492416">
    <time>2020-12-07T15:41:08Z</time>
    <name>Annick b7018</name>
    <desc></desc>
    <type>BoiteLire Hauts-de-France</type>
    <extensions>
      <osmand:address>À côté de l église, 62231 Bleriot, France</osmand:address>
      <osmand:color>#ff5020</osmand:color>
      <osmand:background>square</osmand:background>
      <osmand:icon>public_bookcase</osmand:icon>
    </extensions>
  </wpt>
  <wpt lat="50.6223409" lon="3.0624279">
    <time>2020-11-23T08:30:08Z</time>
    <name>Crapaud pustuleux b6980</name>
    <desc>Une belle armoire blanche jouxtant le bar cantinal, puis plus bas un meuble à tiroir, le tout propre et beau, l intérieur aussi... pourvu que ça dure !</desc>
    <type>BoiteLire Hauts-de-France</type>
    <extensions>
      <osmand:address>105 boulevard victor hugo, 59000 Lille, France</osmand:address>
      <osmand:color>#ff5020</osmand:color>
      <osmand:background>square</osmand:background>
      <osmand:icon>public_bookcase</osmand:icon>
    </extensions>
  </wpt>
  <wpt lat="50.4803387" lon="3.2044935">
    <time>2020-11-23T08:29:58Z</time>
    <name>Mediathèque d auchy lez orchies b6978</name>
    <desc>Boite à lire accessible entre mairie et médiatheque</desc>
    <type>BoiteLire Hauts-de-France</type>
    <extensions>
      <osmand:address>42 rue du pont, 59210 Auchy lez orchies, France</osmand:address>
      <osmand:color>#ff5020</osmand:color>
      <osmand:background>square</osmand:background>
      <osmand:icon>public_bookcase</osmand:icon>
    </extensions>
  </wpt>
  <wpt lat="49.534236" lon="1.850054">
    <time>2020-11-23T08:28:09Z</time>
    <name>Yvette b6964</name>
    <desc></desc>
    <type>BoiteLire Hauts-de-France</type>
    <extensions>
      <osmand:address>Yvette.autricque@gmail.com, 60380 Gerberoy, France</osmand:address>
      <osmand:color>#ff5020</osmand:color>
      <osmand:background>square</osmand:background>
      <osmand:icon>public_bookcase</osmand:icon>
    </extensions>
  </wpt>
  <wpt lat="49.3477686" lon="2.9782558">
    <time>2020-11-04T15:56:18Z</time>
    <name>Thomas b6889</name>
    <desc>Boite a livres qui se situe dans le square juste derrière la mairie!</desc>
    <type>BoiteLire Hauts-de-France</type>
    <extensions>
      <osmand:address>Place de l hôtel de ville, 60350 Pierrefonds, France</osmand:address>
      <osmand:color>#ff5020</osmand:color>
      <osmand:background>square</osmand:background>
      <osmand:icon>public_bookcase</osmand:icon>
    </extensions>
  </wpt>
  <wpt lat="49.484127" lon="3.105941">
    <time>2020-11-02T08:19:11Z</time>
    <name>Thomas b6872</name>
    <desc>A droite de la mairie !</desc>
    <type>BoiteLire Hauts-de-France</type>
    <extensions>
      <osmand:address>Rue d audignicourt, 60400 Nampcel, France</osmand:address>
      <osmand:color>#ff5020</osmand:color>
      <osmand:background>square</osmand:background>
      <osmand:icon>public_bookcase</osmand:icon>
    </extensions>
  </wpt>
  <wpt lat="50.5204809" lon="2.435195">
    <time>2020-10-27T08:17:11Z</time>
    <name>Chr b6851</name>
    <desc></desc>
    <type>BoiteLire Hauts-de-France</type>
    <extensions>
      <osmand:address>Rue du 19 mars 1962, 62260 Ferfay, France</osmand:address>
      <osmand:color>#ff5020</osmand:color>
      <osmand:background>square</osmand:background>
      <osmand:icon>public_bookcase</osmand:icon>
    </extensions>
  </wpt>
  <wpt lat="50.3674544" lon="3.3405709">
    <time>2020-10-27T08:16:13Z</time>
    <name>Carole b6847</name>
    <desc></desc>
    <type>BoiteLire Hauts-de-France</type>
    <extensions>
      <osmand:address>City parc, 59171 Erre, France</osmand:address>
      <osmand:color>#ff5020</osmand:color>
      <osmand:background>square</osmand:background>
      <osmand:icon>public_bookcase</osmand:icon>
    </extensions>
  </wpt>
  <wpt lat="49.278309" lon="3.332941">
    <time>2020-10-26T08:47:11Z</time>
    <name>Quentin b6835</name>
    <desc>Situé sous l arrêt de bus</desc>
    <type>BoiteLire Hauts-de-France</type>
    <extensions>
      <osmand:address>Place de la mairie, 02210 Parcy-tigny, France</osmand:address>
      <osmand:color>#ff5020</osmand:color>
      <osmand:background>square</osmand:background>
      <osmand:icon>public_bookcase</osmand:icon>
    </extensions>
  </wpt>
  <wpt lat="49.2190133" lon="2.6113315">
    <time>2020-10-26T08:45:33Z</time>
    <name>Lisbeth b6824</name>
    <desc></desc>
    <type>BoiteLire Hauts-de-France</type>
    <extensions>
      <osmand:address>Place barrachin, 60300 Chamant, France</osmand:address>
      <osmand:color>#ff5020</osmand:color>
      <osmand:background>square</osmand:background>
      <osmand:icon>public_bookcase</osmand:icon>
    </extensions>
  </wpt>
  <wpt lat="50.3888056" lon="3.1398434">
    <time>2020-10-12T08:38:10Z</time>
    <name>Aurélie b6794</name>
    <desc>En face d une grande porte décorée de manière très originale ^^ boite à livres et cd/dvd</desc>
    <type>BoiteLire Hauts-de-France</type>
    <extensions>
      <osmand:address>2129 rue du bois de retz, 59450 Sin le noble, France</osmand:address>
      <osmand:color>#ff5020</osmand:color>
      <osmand:background>square</osmand:background>
      <osmand:icon>public_bookcase</osmand:icon>
    </extensions>
  </wpt>
  <wpt lat="50.3661394" lon="3.5062328">
    <time>2020-09-28T15:50:23Z</time>
    <name>Chloé b6761</name>
    <desc></desc>
    <type>BoiteLire Hauts-de-France</type>
    <extensions>
      <osmand:address>Parc dampierre, 59410 Anzin, France</osmand:address>
      <osmand:color>#ff5020</osmand:color>
      <osmand:background>square</osmand:background>
      <osmand:icon>public_bookcase</osmand:icon>
    </extensions>
  </wpt>
  <wpt lat="50.6699217" lon="3.1771112">
    <time>2020-09-22T15:32:54Z</time>
    <name>Mickael b6738</name>
    <desc>Devant l église saint paul</desc>
    <type>BoiteLire Hauts-de-France</type>
    <extensions>
      <osmand:address>1 place de verdun, 59510 Hem, France</osmand:address>
      <osmand:color>#ff5020</osmand:color>
      <osmand:background>square</osmand:background>
      <osmand:icon>public_bookcase</osmand:icon>
    </extensions>
  </wpt>
  <wpt lat="50.6863656" lon="3.1427702">
    <time>2020-09-07T15:41:38Z</time>
    <name>Zelasko b6696</name>
    <desc>Quartier capreau</desc>
    <type>BoiteLire Hauts-de-France</type>
    <extensions>
      <osmand:address>Parc pompidou mairie annexe, 59290 Wasquehal, France</osmand:address>
      <osmand:color>#ff5020</osmand:color>
      <osmand:background>square</osmand:background>
      <osmand:icon>public_bookcase</osmand:icon>
    </extensions>
  </wpt>
  <wpt lat="50.3057264" lon="2.6114008">
    <time>2020-09-07T15:41:23Z</time>
    <name>Steph b6695</name>
    <desc>Installée dans les locaux de la mairie</desc>
    <type>BoiteLire Hauts-de-France</type>
    <extensions>
      <osmand:address>Mairie rue de la poste, 62123 Habarcq, France</osmand:address>
      <osmand:color>#ff5020</osmand:color>
      <osmand:background>square</osmand:background>
      <osmand:icon>public_bookcase</osmand:icon>
    </extensions>
  </wpt>
  <wpt lat="50.3466321" lon="2.5374361">
    <time>2020-09-07T15:41:08Z</time>
    <name>Trefier b6694</name>
    <desc></desc>
    <type>BoiteLire Hauts-de-France</type>
    <extensions>
      <osmand:address>Rue jules de bonnevallet, 62690 Berles-monchel, France</osmand:address>
      <osmand:color>#ff5020</osmand:color>
      <osmand:background>square</osmand:background>
      <osmand:icon>public_bookcase</osmand:icon>
    </extensions>
  </wpt>
  <wpt lat="50.2613338" lon="3.5078432">
    <time>2020-09-07T15:40:40Z</time>
    <name>Joselyne b6693</name>
    <desc>1ère boîte à livres qui sera suivie d une autre pour notre village</desc>
    <type>BoiteLire Hauts-de-France</type>
    <extensions>
      <osmand:address>Les prairies du chateau, 59213 Vendegies sur ecaillon, France</osmand:address>
      <osmand:color>#ff5020</osmand:color>
      <osmand:background>square</osmand:background>
      <osmand:icon>public_bookcase</osmand:icon>
    </extensions>
  </wpt>
  <wpt lat="49.6272233" lon="2.6389302">
    <time>2020-09-07T15:39:45Z</time>
    <name>Devismes b b6690</name>
    <desc>InstallÉe par la ccgr</desc>
    <type>BoiteLire Hauts-de-France</type>
    <extensions>
      <osmand:address>Aire de jeux place du jeu de paume a piennes, 80500 Piennes-onvillers, France</osmand:address>
      <osmand:color>#ff5020</osmand:color>
      <osmand:background>square</osmand:background>
      <osmand:icon>public_bookcase</osmand:icon>
    </extensions>
  </wpt>
  <wpt lat="50.397311" lon="3.0462717">
    <time>2020-09-07T15:39:30Z</time>
    <name>Marimimi b6689</name>
    <desc>Quelques étagères où sont déposés les livres dans la galerie marchande du centre commercial carrefour douai-flers</desc>
    <type>BoiteLire Hauts-de-France</type>
    <extensions>
      <osmand:address>Galerie marchande du centre commercial carrefour douai-flers, 59128 Flers en escrebieux, France</osmand:address>
      <osmand:color>#ff5020</osmand:color>
      <osmand:background>square</osmand:background>
      <osmand:icon>public_bookcase</osmand:icon>
    </extensions>
  </wpt>
  <wpt lat="49.3919989" lon="3.1510018">
    <time>2020-09-07T15:38:58Z</time>
    <name>Nicolas rÉbÉrot b6688</name>
    <desc>Boîte à livres installée en 2020 à proximité de l aire de camping-car</desc>
    <type>BoiteLire Hauts-de-France</type>
    <extensions>
      <osmand:address>Rue du routy, 02290 Ressons le long, France</osmand:address>
      <osmand:color>#ff5020</osmand:color>
      <osmand:background>square</osmand:background>
      <osmand:icon>public_bookcase</osmand:icon>
    </extensions>
  </wpt>
  <wpt lat="49.3879656" lon="3.1385582">
    <time>2020-09-07T15:38:45Z</time>
    <name>Nicolas rÉbÉrot b6687</name>
    <desc>à proximité de l arrêt des car de chêneux</desc>
    <type>BoiteLire Hauts-de-France</type>
    <extensions>
      <osmand:address>11 rue du cleux, 02290 Ressons-le-long, France</osmand:address>
      <osmand:color>#ff5020</osmand:color>
      <osmand:background>square</osmand:background>
      <osmand:icon>public_bookcase</osmand:icon>
    </extensions>
  </wpt>
  <wpt lat="49.38754" lon="3.149237">
    <time>2020-09-07T15:38:22Z</time>
    <name>Nicolas rÉbÉrot b6686</name>
    <desc>Inaugurée en août 2020</desc>
    <type>BoiteLire Hauts-de-France</type>
    <extensions>
      <osmand:address>Allée de la trésorerie, 02290 Ressons-le-long, France</osmand:address>
      <osmand:color>#ff5020</osmand:color>
      <osmand:background>square</osmand:background>
      <osmand:icon>public_bookcase</osmand:icon>
    </extensions>
  </wpt>
  <wpt lat="49.3908114" lon="3.124959">
    <time>2020-09-07T15:38:05Z</time>
    <name>Nicolas rÉbÉrot b6685</name>
    <desc>Située dans un bosquet à l entrée du village</desc>
    <type>BoiteLire Hauts-de-France</type>
    <extensions>
      <osmand:address>79 rue du cleux, 02290 Ressons-le-long, France</osmand:address>
      <osmand:color>#ff5020</osmand:color>
      <osmand:background>square</osmand:background>
      <osmand:icon>public_bookcase</osmand:icon>
    </extensions>
  </wpt>
  <wpt lat="50.1572553" lon="2.4876808">
    <time>2020-09-07T15:37:43Z</time>
    <name>Candelier b6683</name>
    <desc>Installée pour la rentrée 2020, en pleine aire de repos</desc>
    <type>BoiteLire Hauts-de-France</type>
    <extensions>
      <osmand:address>Ecole la killienne, face au collège m.berger, 62760 Pas en artois, France</osmand:address>
      <osmand:color>#ff5020</osmand:color>
      <osmand:background>square</osmand:background>
      <osmand:icon>public_bookcase</osmand:icon>
    </extensions>
  </wpt>
  <wpt lat="50.6912726" lon="3.1604226">
    <time></time>
    <name>Jardin de traverse livres en liberté b668</name>
    <desc>Pour déposer pour consulter ou lire les horaires d ouvertures du jardin ont été revus élargis et se répartissent comme suit mercredi de 10 à 12 h et de 14 à 16 h - vendredi de 10 à 14 h - samedi de 10 à 12 et de 14 à 16 h.</desc>
    <type>BoiteLire Hauts-de-France</type>
    <extensions>
      <osmand:address>Rue du vivier, 59100 Roubaix, France</osmand:address>
      <osmand:color>#ff5020</osmand:color>
      <osmand:background>square</osmand:background>
      <osmand:icon>public_bookcase</osmand:icon>
    </extensions>
  </wpt>
  <wpt lat="51.0199704" lon="2.3459333">
    <time>2020-08-28T10:04:56Z</time>
    <name>Valérie strojwas b6617</name>
    <desc>Cette boîte est située devant ma maison. elle a été fabriquée et installée par des habitants du quartier.</desc>
    <type>BoiteLire Hauts-de-France</type>
    <extensions>
      <osmand:address>96 rue pitilion, 59640 Dunkerque, France</osmand:address>
      <osmand:color>#ff5020</osmand:color>
      <osmand:background>square</osmand:background>
      <osmand:icon>public_bookcase</osmand:icon>
    </extensions>
  </wpt>
  <wpt lat="50.691652" lon="2.884218">
    <time>2020-08-28T09:48:01Z</time>
    <name>Émile vandeputte b6580</name>
    <desc>Une boite à livre grand place 59200 tourcoing</desc>
    <type>BoiteLire Hauts-de-France</type>
    <extensions>
      <osmand:address>Grand place, 59280 Armentières, France</osmand:address>
      <osmand:color>#ff5020</osmand:color>
      <osmand:background>square</osmand:background>
      <osmand:icon>public_bookcase</osmand:icon>
    </extensions>
  </wpt>
  <wpt lat="49.8838658" lon="2.306193">
    <time></time>
    <name>Teddy b657</name>
    <desc>La boite a lire est au milieu du parc jean rostand près de l aire de jeux.</desc>
    <type>BoiteLire Hauts-de-France</type>
    <extensions>
      <osmand:address>Parc jean rostand, 80000 Amiens, France</osmand:address>
      <osmand:color>#ff5020</osmand:color>
      <osmand:background>square</osmand:background>
      <osmand:icon>public_bookcase</osmand:icon>
    </extensions>
  </wpt>
  <wpt lat="50.2319641" lon="2.1081826">
    <time>2020-08-21T16:49:42Z</time>
    <name>Fab b6548</name>
    <desc>Jolie boîte à lire bien remplie</desc>
    <type>BoiteLire Hauts-de-France</type>
    <extensions>
      <osmand:address>Rue du cheval, 062 Auxi le château, France</osmand:address>
      <osmand:color>#ff5020</osmand:color>
      <osmand:background>square</osmand:background>
      <osmand:icon>public_bookcase</osmand:icon>
    </extensions>
  </wpt>
  <wpt lat="50.622286" lon="3.0496473">
    <time>2020-08-11T15:51:17Z</time>
    <name>Leclercq b6522</name>
    <desc></desc>
    <type>BoiteLire Hauts-de-France</type>
    <extensions>
      <osmand:address>Magenta wazemme, 59000 Lille, France</osmand:address>
      <osmand:color>#ff5020</osmand:color>
      <osmand:background>square</osmand:background>
      <osmand:icon>public_bookcase</osmand:icon>
    </extensions>
  </wpt>
  <wpt lat="50.6378892" lon="3.1270356">
    <time></time>
    <name>Amelie b65</name>
    <desc>La boite à lire se situe juste à l'entrée de la mairie de quartier de flers bourg dans un meuble à porte vitrée.</desc>
    <type>BoiteLire Hauts-de-France</type>
    <extensions>
      <osmand:address>33 rue du general leclerc, 59650 Villeneuve d ascq, France</osmand:address>
      <osmand:color>#ff5020</osmand:color>
      <osmand:background>square</osmand:background>
      <osmand:icon>public_bookcase</osmand:icon>
    </extensions>
  </wpt>
  <wpt lat="49.5259587" lon="2.9267919">
    <time>2020-08-06T14:34:23Z</time>
    <name>Moukni b6492</name>
    <desc></desc>
    <type>BoiteLire Hauts-de-France</type>
    <extensions>
      <osmand:address>Place des tilleuls, 60170 Dreslincourt, France</osmand:address>
      <osmand:color>#ff5020</osmand:color>
      <osmand:background>square</osmand:background>
      <osmand:icon>public_bookcase</osmand:icon>
    </extensions>
  </wpt>
  <wpt lat="49.2999195" lon="2.642114">
    <time>2020-08-06T14:33:44Z</time>
    <name>Marginet b6490</name>
    <desc>Boite à livre dans un piano</desc>
    <type>BoiteLire Hauts-de-France</type>
    <extensions>
      <osmand:address>984 rue saint-gervais, 60700 Pontpoint, France</osmand:address>
      <osmand:color>#ff5020</osmand:color>
      <osmand:background>square</osmand:background>
      <osmand:icon>public_bookcase</osmand:icon>
    </extensions>
  </wpt>
  <wpt lat="50.709432" lon="2.229335">
    <time></time>
    <name>Virginia b649</name>
    <desc>Elle se situe derrière la mairie face à la place.</desc>
    <type>BoiteLire Hauts-de-France</type>
    <extensions>
      <osmand:address>Place jean jaurès , 62570 Wizernes , France</osmand:address>
      <osmand:color>#ff5020</osmand:color>
      <osmand:background>square</osmand:background>
      <osmand:icon>public_bookcase</osmand:icon>
    </extensions>
  </wpt>
  <wpt lat="50.6844208" lon="2.8874186">
    <time>2020-07-29T14:59:03Z</time>
    <name>Emile vanseputte b6445</name>
    <desc>Au rond-point, en face de la pharmacie</desc>
    <type>BoiteLire Hauts-de-France</type>
    <extensions>
      <osmand:address>Rue jean mace, 59280 Armentieres, France</osmand:address>
      <osmand:color>#ff5020</osmand:color>
      <osmand:background>square</osmand:background>
      <osmand:icon>public_bookcase</osmand:icon>
    </extensions>
  </wpt>
  <wpt lat="50.6976983" lon="2.8863266">
    <time>2020-07-29T14:58:24Z</time>
    <name>Emile vandeputte b6444</name>
    <desc></desc>
    <type>BoiteLire Hauts-de-France</type>
    <extensions>
      <osmand:address>1 rue du maréchal joffre, 59280 Armentieres, France</osmand:address>
      <osmand:color>#ff5020</osmand:color>
      <osmand:background>square</osmand:background>
      <osmand:icon>public_bookcase</osmand:icon>
    </extensions>
  </wpt>