<?xml version='1.0' encoding='UTF-8'?>
<gpx version="1.1" creator="JOSM GPX export" xmlns="http://www.topografix.com/GPX/1/1"
    xmlns:xsi="http://www.w3.org/2001/XMLSchema-instance"
    xsi:schemaLocation="http://www.topografix.com/GPX/1/1 http://www.topografix.com/GPX/1/1/gpx.xsd">
  <metadata>
    <author>
      <name>Binnette</name>
    </author>
    <copyright author="Binnette">
      <year>2020</year>
      <license>MIT</license>
    </copyright>
    <bounds minlat="44.1738698" minlon="2.1917692" maxlat="46.602226" maxlon="7.210225"/>
  </metadata>
  <wpt lat="45.55043662015167" lon="3.262483477592469">
    <name>Square Edith Piaf</name>
    <cmt>Amenity::entertainment:public_bookcase</cmt>
    <desc>au Pré Rond, près des jeux pour enfants</desc>
    <type>Boite à livre</type>
  </wpt>
  <wpt lat="45.712071099999996" lon="3.0692592">
    <name>9 rue de la gazelle</name>
    <cmt>Amenity::entertainment:public_bookcase</cmt>
    <desc>Cabine à lire dans le bourg</desc>
    <type>Boite à livre</type>
  </wpt>
  <wpt lat="45.0488677" lon="3.8835135000000003">
    <name>Place Saint-Clair</name>
    <cmt>Amenity::entertainment:public_bookcase</cmt>
    <desc>Au pied des marches de la petite place ombragée de la chapelle.</desc>
    <type>Boite à livre</type>
  </wpt>
  <wpt lat="45.768106999999986" lon="3.0794469999999996">
    <name>PLACE LITTRE</name>
    <cmt>Amenity::entertainment:public_bookcase</cmt>
    <type>Boite à livre</type>
  </wpt>
  <wpt lat="45.204335499999985" lon="4.0334176">
    <name>1 place boncompain</name>
    <cmt>Amenity::entertainment:public_bookcase</cmt>
    <desc>devant les commerces de proximité Vival, très belle initiative.</desc>
    <type>Boite à livre</type>
  </wpt>
  <wpt lat="46.1299276" lon="3.4240202999999996">
    <name>Grand marché couvert</name>
    <cmt>Amenity::entertainment:public_bookcase</cmt>
    <desc>Se situe à l&apos;intérieur du marché.</desc>
    <type>Boite à livre</type>
  </wpt>
  <wpt lat="45.65891252851657" lon="3.682029247283936">
    <name>église</name>
    <cmt>Amenity::entertainment:public_bookcase</cmt>
    <desc>la boite à  livres est située au centre bourg, prés de l église de Marat, abritée dans un abri bus en pierre et bien signalée par un écriteau en façade.</desc>
    <type>Boite à livre</type>
  </wpt>
  <wpt lat="45.061068899999995" lon="3.9051169999999993">
    <name>10 cours de la Liberté</name>
    <cmt>Amenity::entertainment:public_bookcase</cmt>
    <desc>Dans l accueil de La Couveuse - MPT de Chadrac, échangez, partagez, découvrez toutes sortes de livres dans La Boîte à Lire.</desc>
    <type>Boite à livre</type>
  </wpt>
  <wpt lat="45.87639589999999" lon="3.1173414000000004">
    <name>Devant la boulangerie</name>
    <cmt>Amenity::entertainment:public_bookcase</cmt>
    <type>Boite à livre</type>
  </wpt>
  <wpt lat="46.34624625351304" lon="2.4925661087036146">
    <name>Rue du ruisseau</name>
    <cmt>Amenity::entertainment:public_bookcase</cmt>
    <desc>Boite à livre au lieu dit Les Boueix</desc>
    <type>Boite à livre</type>
  </wpt>
  <wpt lat="46.025105999999994" lon="3.0974850000000003">
    <name>Jozerand</name>
    <cmt>Amenity::entertainment:public_bookcase</cmt>
    <desc>2 boîtes sous les abribus du village :-rue Saint Christophe face au château-sur le parking de l école</desc>
    <type>Boite à livre</type>
  </wpt>
  <wpt lat="45.54931580000001" lon="3.7405424">
    <name>41 boulevard Henri IV</name>
    <cmt>Amenity::entertainment:public_bookcase</cmt>
    <desc>Boite à Lire Lions Club, située devant l annexe de la mairie</desc>
    <type>Boite à livre</type>
  </wpt>
  <wpt lat="45.585538599133194" lon="3.091900348663331">
    <name>25 route des moulins</name>
    <cmt>Amenity::entertainment:public_bookcase</cmt>
    <desc>Dans la cabine téléphonique et l&apos;abris de bus</desc>
    <type>Boite à livre</type>
  </wpt>
  <wpt lat="45.72148399999999" lon="3.1935279000000003">
    <name>1 rue Cugnot</name>
    <cmt>Amenity::entertainment:public_bookcase</cmt>
    <desc>cette boite se trouve dans le parc près de l aire de jeux.C&apos;est une grande boite sur pieds en bois</desc>
    <type>Boite à livre</type>
  </wpt>
  <wpt lat="45.751443899999984" lon="3.0828613999999996">
    <name>Rue de la paix</name>
    <cmt>Amenity::entertainment:public_bookcase</cmt>
    <desc>La Petite Bibliothèque Libre de Beaumont</desc>
    <type>Boite à livre</type>
  </wpt>
  <wpt lat="45.667969500000005" lon="3.1690952000000006">
    <name>Avenue d occitanie</name>
    <cmt>Amenity::entertainment:public_bookcase</cmt>
    <desc>Ancienne cabine téléphonique, boîte à livres installée récemment, toutes sortes de livres, tout public</desc>
    <type>Boite à livre</type>
  </wpt>
  <wpt lat="45.551424" lon="3.3734239">
    <name>place de la liberté</name>
    <cmt>Amenity::entertainment:public_bookcase</cmt>
    <desc>sous un abris-bus, devant la maison du patrimoine</desc>
    <type>Boite à livre</type>
  </wpt>
  <wpt lat="46.364758399999985" lon="2.6218397">
    <name>Place Gerard Philipe</name>
    <cmt>Amenity::entertainment:public_bookcase</cmt>
    <desc>netter Schrank im Park</desc>
    <type>Boite à livre</type>
  </wpt>
  <wpt lat="44.927473000000006" lon="2.4454657">
    <name>avenue gambetta</name>
    <cmt>Amenity::entertainment:public_bookcase</cmt>
    <desc>Juste à coté de l&apos;arrêt de bus.</desc>
    <type>Boite à livre</type>
  </wpt>
  <wpt lat="46.586520099999994" lon="3.0583837">
    <name>PLace Qui Qu en grogne</name>
    <cmt>Amenity::entertainment:public_bookcase</cmt>
    <type>Boite à livre</type>
  </wpt>
  <wpt lat="45.2927384" lon="3.387563">
    <name>place de Paris</name>
    <cmt>Amenity::entertainment:public_bookcase</cmt>
    <desc>Pas très loin du monument aux morts.</desc>
    <type>Boite à livre</type>
  </wpt>
  <wpt lat="44.7693087" lon="3.8826565000000004">
    <name>Place de la Halle</name>
    <cmt>Amenity::entertainment:public_bookcase</cmt>
    <desc>Sur le chemin de Stevenson Sur la place du village, près de l&apos;office du tourisme, boîte orange Boite à lire Dans un des plus beaux villages de France.</desc>
    <type>Boite à livre</type>
  </wpt>
  <wpt lat="45.388868" lon="2.9240630000000003">
    <cmt>Amenity::entertainment:public_bookcase</cmt>
    <desc>Inattendue dans ce petit village, elle se trouve à la maison du parc.</desc>
    <type>Boite à livre</type>
  </wpt>
  <wpt lat="45.59282489999998" lon="3.7973039">
    <name>le bourg</name>
    <cmt>Amenity::entertainment:public_bookcase</cmt>
    <desc>ancienne cabine téléphonique, entre l église et l&apos;auberge</desc>
    <type>Boite à livre</type>
  </wpt>
  <wpt lat="45.29368419999998" lon="4.1718555">
    <name>14 rue de charbonnel</name>
    <cmt>Amenity::entertainment:public_bookcase</cmt>
    <desc>Boite a lire dans le café</desc>
    <type>Boite à livre</type>
  </wpt>
  <wpt lat="46.289059999999985" lon="2.7411989999999995">
    <name>rue de l hôtel de Ville</name>
    <cmt>Amenity::entertainment:public_bookcase</cmt>
    <desc>Fabriquée par le Conseil des jeunes et le Conseil des senior de la Ville de Commentry</desc>
    <type>Boite à livre</type>
  </wpt>
  <wpt lat="45.858313" lon="3.6355145999999996">
    <name>2 place de la mission</name>
    <cmt>Amenity::entertainment:public_bookcase</cmt>
    <desc>Les commerces de proximité VIVAL installent des boites à livres devant tous leurs commerces. Félicitations, très belle réalisation.</desc>
    <type>Boite à livre</type>
  </wpt>
  <wpt lat="45.143252999999994" lon="4.118601">
    <name>Rue de la gare</name>
    <cmt>Amenity::entertainment:public_bookcase</cmt>
    <type>Boite à livre</type>
  </wpt>
  <wpt lat="45.72285499999998" lon="3.342246">
    <name>rue Antoine Dischamps</name>
    <cmt>Amenity::entertainment:public_bookcase</cmt>
    <desc>Dans la Tour en face de la bibliothèque</desc>
    <type>Boite à livre</type>
  </wpt>
  <wpt lat="45.730689799999986" lon="3.1924387000000003">
    <name>Impasse des Dômes</name>
    <cmt>Amenity::entertainment:public_bookcase</cmt>
    <desc>Petite boîte très éclectique en face de la Maison du Citoyen. On y trouve pas mal de livres pratiques, de la littérature sentimentale, du polar et des récits type témoignages.</desc>
    <type>Boite à livre</type>
  </wpt>
  <wpt lat="46.189064099999975" lon="3.2615503">
    <name>1 Village des Combes</name>
    <cmt>Amenity::entertainment:public_bookcase</cmt>
    <desc>Elle est rouge, et sur le bord de notre maison</desc>
    <type>Boite à livre</type>
  </wpt>
  <wpt lat="45.732752099999985" lon="3.0651045">
    <name>5 Impasse du Mas</name>
    <cmt>Amenity::entertainment:public_bookcase</cmt>
    <desc>La boîte à livre se situe sur la place du marché</desc>
    <type>Boite à livre</type>
  </wpt>
  <wpt lat="45.72918429999999" lon="3.232891">
    <name>3, Place Onslow</name>
    <cmt>Amenity::entertainment:public_bookcase</cmt>
    <desc>cette boite à lire se trouve dans une cabine téléphoniqu en face de la mairie. Très bonne rotation, Livres récents et en très bon état.</desc>
    <type>Boite à livre</type>
  </wpt>
  <wpt lat="46.573909" lon="3.3631329999999995">
    <name>Route de Bourgogne D779</name>
    <cmt>Amenity::entertainment:public_bookcase</cmt>
    <desc>La boîte à lire se trouve sur un petit parking, proche de l entrée du parking d&apos;Aldi.</desc>
    <type>Boite à livre</type>
  </wpt>
  <wpt lat="45.545309999999986" lon="3.2462820000000003">
    <name>Place d&apos;Espagne</name>
    <cmt>Amenity::entertainment:public_bookcase</cmt>
    <desc>La boite est sur le parking, à un des angles de la halle aux grains, le long du bd Albert Buisson.</desc>
    <type>Boite à livre</type>
  </wpt>
  <wpt lat="45.68004599999998" lon="3.4415159999999996">
    <name>Place</name>
    <cmt>Amenity::entertainment:public_bookcase</cmt>
    <desc>Une cabine téléphonique située sur la place du village. Non loin de l église Sainte-Madeleine. Bien cachée sous les arbres.</desc>
    <type>Boite à livre</type>
  </wpt>
  <wpt lat="45.830342800000004" lon="3.0968289">
    <name>Parc Pierre Montgroux</name>
    <cmt>Amenity::entertainment:public_bookcase</cmt>
    <desc>Dans un cabanon collé tout contre la maison du parc Pierre-Montgroux.</desc>
    <type>Boite à livre</type>
  </wpt>
  <wpt lat="45.86291359999999" lon="3.3362416">
    <name>Rue de la liberté</name>
    <cmt>Amenity::entertainment:public_bookcase</cmt>
    <desc>A coté de la porte d entrée de la supérette au petit panier</desc>
    <type>Boite à livre</type>
  </wpt>
  <wpt lat="45.2925185" lon="3.42371">
    <name>Route de Bonnefont</name>
    <cmt>Amenity::entertainment:public_bookcase</cmt>
    <type>Boite à livre</type>
  </wpt>
  <wpt lat="45.739081699999986" lon="3.1965231">
    <name>place joseph gardet</name>
    <cmt>Amenity::entertainment:public_bookcase</cmt>
    <desc>Nouvelle boite à lire en bois, inaugurée il y a 2 jours. Se trouve au bout du grand parking de la place Joseph Gardet, à côté du feu de circulation.</desc>
    <type>Boite à livre</type>
  </wpt>
  <wpt lat="45.78388639999998" lon="3.1027770999999995">
    <name>1 Allée ancien combatant</name>
    <cmt>Amenity::entertainment:public_bookcase</cmt>
    <desc>Dans le parc frank bayle à côté des jeux enfants</desc>
    <type>Boite à livre</type>
  </wpt>
  <wpt lat="44.968431299999985" lon="3.8870144000000004">
    <name>Quai du Loir</name>
    <cmt>Amenity::entertainment:public_bookcase</cmt>
    <desc>Dans le cœur du village.</desc>
    <type>Boite à livre</type>
  </wpt>
  <wpt lat="45.919549200000006" lon="3.072925600000001">
    <name>office de tourisme</name>
    <cmt>Amenity::entertainment:public_bookcase</cmt>
    <type>Boite à livre</type>
  </wpt>
  <wpt lat="46.32196649999998" lon="3.0086343">
    <name>Place la mairie</name>
    <cmt>Amenity::entertainment:public_bookcase</cmt>
    <desc>Cette boîte à lire est bien à l abri sous un petit préau aux abords de la mairie et d&apos;un parking, et à deux pas du bar-restaurant.</desc>
    <type>Boite à livre</type>
  </wpt>
  <wpt lat="46.28883" lon="2.741899">
    <name>la rue accollée à la mairie</name>
    <cmt>Amenity::entertainment:public_bookcase</cmt>
    <type>Boite à livre</type>
  </wpt>
  <wpt lat="46.37983379999999" lon="3.5833083000000006">
    <name>2 route de Lapalisse</name>
    <cmt>Amenity::entertainment:public_bookcase</cmt>
    <desc>A la station avia 24/24</desc>
    <type>Boite à livre</type>
  </wpt>
  <wpt lat="45.9188509" lon="3.0616365">
    <name>Parc thermal</name>
    <cmt>Amenity::entertainment:public_bookcase</cmt>
    <desc>Dans ancienne librairie.Fonctionne d avril à fin septembre pendant la saison des cures.</desc>
    <type>Boite à livre</type>
  </wpt>
  <wpt lat="46.256335" lon="3.5131470000000005">
    <name>Place de la république</name>
    <cmt>Amenity::entertainment:public_bookcase</cmt>
    <desc>Ancienne cabine téléphonique</desc>
    <type>Boite à livre</type>
  </wpt>
  <wpt lat="45.7765594" lon="3.0513012000000006">
    <name>lycée de Chamalieres</name>
    <cmt>Amenity::entertainment:public_bookcase</cmt>
    <desc>Dans le hall du lycée, les élèves peuvent apporter leurs livres et en trouver d autres. Classiques, mangas, romans pour tous les gouts</desc>
    <type>Boite à livre</type>
  </wpt>
  <wpt lat="45.7525654" lon="3.0951367999999997">
    <name>562 avenue du masage</name>
    <cmt>Amenity::entertainment:public_bookcase</cmt>
    <desc>Sur le trottoir de l autre côté du Lidl</desc>
    <type>Boite à livre</type>
  </wpt>
  <wpt lat="44.9113153" lon="2.3651664">
    <name>7 place pierre mooissinac</name>
    <cmt>Amenity::entertainment:public_bookcase</cmt>
    <desc>devant les commerces de proximité Vival, très belle initiative.</desc>
    <type>Boite à livre</type>
  </wpt>
  <wpt lat="45.549489948799256" lon="3.7350296974182124">
    <name>LA GARE</name>
    <cmt>Amenity::entertainment:public_bookcase</cmt>
    <desc>INSTALLEE PAR LE LIONS CLUB AMBERT LIVRADOIS ET LA MUNICIPALITE D&apos;AMBERT</desc>
    <type>Boite à livre</type>
  </wpt>
  <wpt lat="45.6825766" lon="2.8416208">
    <name>Le bourg</name>
    <cmt>Amenity::entertainment:public_bookcase</cmt>
    <desc>Se situe sous le préau de la mairie dans des armoires en bois</desc>
    <type>Boite à livre</type>
  </wpt>
  <wpt lat="45.405192049057625" lon="3.3181124925613408">
    <name>Place DR Gigante</name>
    <cmt>Amenity::entertainment:public_bookcase</cmt>
    <desc>Dans l ancienne cabine téléphonique</desc>
    <type>Boite à livre</type>
  </wpt>
  <wpt lat="45.690471" lon="3.034123">
    <name>rue de l église</name>
    <cmt>Amenity::entertainment:public_bookcase</cmt>
    <desc>Une boite à lire insolite qui a utilisé un ancien outil à ferrer de paysannerie.  Les livres sont ainsi à l abri. A côté de l église , dans le centre du village. Avec un panneau livre-voyageur qui indique le chemin. C est aussi le départ d&apos;une très belle rando.</desc>
    <type>Boite à livre</type>
  </wpt>
  <wpt lat="46.58474569999999" lon="3.0566927">
    <name>Parc Thermal</name>
    <cmt>Amenity::entertainment:public_bookcase</cmt>
    <type>Boite à livre</type>
  </wpt>
  <wpt lat="46.28407374949172" lon="2.827005386352539">
    <name>Abri de bus</name>
    <cmt>Amenity::entertainment:public_bookcase</cmt>
    <desc>A l&apos;entrée de ce petit village en venant de colombier, sous l&apos;abri de bus</desc>
    <type>Boite à livre</type>
  </wpt>
  <wpt lat="45.98413699999998" lon="3.0866899000000005">
    <name>131 Avenue Etienne Clémentel</name>
    <cmt>Amenity::entertainment:public_bookcase</cmt>
    <desc>Boîte à lire installée dans la galerie d&apos;Intermarché.</desc>
    <type>Boite à livre</type>
  </wpt>
  <wpt lat="45.06306759999999" lon="4.1589604">
    <name>PLACE DE RECHARINGES</name>
    <cmt>Amenity::entertainment:public_bookcase</cmt>
    <desc>La boite à livre est située dans une ancienne cabine téléphonique.</desc>
    <type>Boite à livre</type>
  </wpt>
  <wpt lat="46.3087721" lon="3.2902579">
    <name>Les cours</name>
    <cmt>Amenity::entertainment:public_bookcase</cmt>
    <desc>Sur le parking des cours au feu. Je trouve toujours un petit quelque chose</desc>
    <type>Boite à livre</type>
  </wpt>
  <wpt lat="46.47055919999999" lon="3.2634577000000005">
    <name>10 place de la mairie</name>
    <cmt>Amenity::entertainment:public_bookcase</cmt>
    <desc>Devant tous les commerces de proximité Vival, très belle initiative</desc>
    <type>Boite à livre</type>
  </wpt>
  <wpt lat="45.46278949999999" lon="2.7961277">
    <cmt>Amenity::entertainment:public_bookcase</cmt>
    <desc>Face à l&apos;église - ouvrez l&apos;oeil!</desc>
    <type>Boite à livre</type>
  </wpt>
  <wpt lat="44.96725990000001" lon="2.1917692">
    <name>30 avenue des platanes</name>
    <cmt>Amenity::entertainment:public_bookcase</cmt>
    <desc>Ancienne cabine téléphonique en face de la pharmacie</desc>
    <type>Boite à livre</type>
  </wpt>
  <wpt lat="45.25148439999999" lon="3.1988354">
    <name>place de la fontaine</name>
    <cmt>Amenity::entertainment:public_bookcase</cmt>
    <desc>Réalisée par les enfants de l&apos;école Saint André, juste à côté.</desc>
    <type>Boite à livre</type>
  </wpt>
  <wpt lat="46.163626300000004" lon="3.4329761">
    <name>Place de l&apos;église</name>
    <cmt>Amenity::entertainment:public_bookcase</cmt>
    <type>Boite à livre</type>
  </wpt>
  <wpt lat="45.545111999999996" lon="3.239043">
    <name>rue auguste sensfelder</name>
    <cmt>Amenity::entertainment:public_bookcase</cmt>
    <desc>Juste à l&apos;angle de la rue Victor Hugo et de la rue Auguste Sensfelder.</desc>
    <type>Boite à livre</type>
  </wpt>
  <wpt lat="45.84949569999999" lon="3.0813501">
    <name>Route de Malauzat</name>
    <cmt>Amenity::entertainment:public_bookcase</cmt>
    <desc>Un très grand choix de romans pour cette boite à lire portative tourniquet présentoir sur le trottoir du commerce Vival.  Situé à côté du grand parking à l entrée de la vieille ville.</desc>
    <type>Boite à livre</type>
  </wpt>
  <wpt lat="44.922967599999986" lon="2.4370267">
    <name>95 Avenue de la République</name>
    <cmt>Amenity::entertainment:public_bookcase</cmt>
    <desc>Boite a lire située sur le trottoir  au niveau de l école Paul Doumer</desc>
    <type>Boite à livre</type>
  </wpt>
  <wpt lat="45.81806000000001" lon="3.446014">
    <name>Le bourg</name>
    <cmt>Amenity::entertainment:public_bookcase</cmt>
    <desc>A côté de la porte d&apos;entrée de la mairie.</desc>
    <type>Boite à livre</type>
  </wpt>
  <wpt lat="44.9144802" lon="2.4409473000000004">
    <name>41 AVENUE DES VOLONTAIRES</name>
    <cmt>Amenity::entertainment:public_bookcase</cmt>
    <desc>La boite à lire se situe au rond point entre simply market et leclerc en face cash express.</desc>
    <type>Boite à livre</type>
  </wpt>
  <wpt lat="46.28868799999999" lon="2.65977">
    <name>Square J.Desriot</name>
    <cmt>Amenity::entertainment:public_bookcase</cmt>
    <desc>Elle se situe à proximité des thermes.</desc>
    <type>Boite à livre</type>
  </wpt>
  <wpt lat="46.142306699999985" lon="3.4149594">
    <name>Allee des ailes</name>
    <cmt>Amenity::entertainment:public_bookcase</cmt>
    <desc>Elle se situe dans la galerie commerciale de Cora.</desc>
    <type>Boite à livre</type>
  </wpt>
  <wpt lat="45.744735499999976" lon="3.2166268000000002">
    <name>Allée Pierre de Coubertin</name>
    <cmt>Amenity::entertainment:public_bookcase</cmt>
    <desc>Boite à lire en bois située sur le parking du centre de loisirs à l entrée, vous ne pouvez pas la rater.  Située juste avant d&apos;aller au lac. C&apos;est le centre de loisirs qui la gère en déposant plusieurs livres à la fois. Très fournie, avec beaucoup de références différentes.</desc>
    <type>Boite à livre</type>
  </wpt>
  <wpt lat="45.89567583692329" lon="3.2253670692443848">
    <name>Parc du Pre Madame</name>
    <cmt>Amenity::entertainment:public_bookcase</cmt>
    <desc>Boîte à livres dans une ancienne cabine téléphonique dans le parc place du Pre Madame</desc>
    <type>Boite à livre</type>
  </wpt>
  <wpt lat="45.772352799999986" lon="3.0868831000000005">
    <name>Boulevard Vercingetorix</name>
    <cmt>Amenity::entertainment:public_bookcase</cmt>
    <desc>A l&apos;angle du bd vercingetorix et du bd lafayette, juste à coté de ce que les clermontois appelent la pyramide</desc>
    <type>Boite à livre</type>
  </wpt>
  <wpt lat="45.671327000000005" lon="3.235952">
    <name>saint maurice es allier</name>
    <cmt>Amenity::entertainment:public_bookcase</cmt>
    <desc>cette boite à lire se trouve encastrée dans le mur de la médiathèque. En face de l église, près du lavoir. Au centre du vieux bourg.Peu fournier, surtout des vieilles éditions de littérature blanche. Et des magazines people.</desc>
    <type>Boite à livre</type>
  </wpt>
  <wpt lat="45.969961699999985" lon="3.2573984999999994">
    <name>Place de l Église</name>
    <cmt>Amenity::entertainment:public_bookcase</cmt>
    <desc>Boite à livres gérée par la bibliothèque de Thuret. Dans le jardin de la mairie, dans un frigo.</desc>
    <type>Boite à livre</type>
  </wpt>
  <wpt lat="45.749724199999996" lon="3.0850194000000006">
    <name>8 rue Jean Jaurès</name>
    <cmt>Amenity::entertainment:public_bookcase</cmt>
    <desc>Poussez le portail du porche au numéro 8 de la rue Jean Jaurès pour accéder à la bibliothèque libre d une passionnée</desc>
    <type>Boite à livre</type>
  </wpt>
  <wpt lat="46.38043450000001" lon="3.3956902000000007">
    <name>rue du lavoir</name>
    <cmt>Amenity::entertainment:public_bookcase</cmt>
    <desc>Au bloc sanitaire</desc>
    <type>Boite à livre</type>
  </wpt>
  <wpt lat="46.60222599999999" lon="3.672779999999999">
    <name>Beaulon</name>
    <cmt>Amenity::entertainment:public_bookcase</cmt>
    <desc>La boîte se trouve sur la place de la mairie, en face de la boulangerie.</desc>
    <type>Boite à livre</type>
  </wpt>
  <wpt lat="45.934102215299625" lon="3.0915194749832158">
    <name>place Guillaume Douarre</name>
    <cmt>Amenity::entertainment:public_bookcase</cmt>
    <desc>Dans le parc de la mairie</desc>
    <type>Boite à livre</type>
  </wpt>
  <wpt lat="46.18544199999999" lon="3.162598">
    <name>non précisée</name>
    <cmt>Amenity::entertainment:public_bookcase</cmt>
    <desc>la boite se trouve sous le préau</desc>
    <type>Boite à livre</type>
  </wpt>
  <wpt lat="46.286437" lon="2.661127">
    <name>Rue du Capitaine Migat</name>
    <cmt>Amenity::entertainment:public_bookcase</cmt>
    <desc>La rue est demie piétonne et la boîte de couleur bleue se situe dans la partie haute</desc>
    <type>Boite à livre</type>
  </wpt>
  <wpt lat="45.1058717" lon="2.8978986">
    <name>Le bourg</name>
    <cmt>Amenity::entertainment:public_bookcase</cmt>
    <desc>A coté de la Mairie, dans une ancien abribus</desc>
    <type>Boite à livre</type>
  </wpt>
  <wpt lat="44.87984229999998" lon="2.3849855">
    <name>Ecole du Bex d Ytrac</name>
    <cmt>Amenity::entertainment:public_bookcase</cmt>
    <desc>Elle se trouve entre l école et l&apos;église, pleine à craquer, elle n&apos;attend que de nouveaux adeptes. Un banc est mis à disposition mais vous pouvez également vous installez dans l&apos;herbe ou sur les bancs derrière l&apos;église.</desc>
    <type>Boite à livre</type>
  </wpt>
  <wpt lat="45.26245379999999" lon="3.4546024">
    <name>Place saint André</name>
    <cmt>Amenity::entertainment:public_bookcase</cmt>
    <desc>Boite à livres dans une très jolie maisonnette en pierres</desc>
    <type>Boite à livre</type>
  </wpt>
  <wpt lat="45.73654599999998" lon="3.140883">
    <name>13 avenue du chateau</name>
    <cmt>Amenity::entertainment:public_bookcase</cmt>
    <desc>Cabine à lire à l angle de la rue et face à l&apos;église</desc>
    <type>Boite à livre</type>
  </wpt>
  <wpt lat="46.5983323" lon="2.6170183000000002">
    <name>Place de la mairie</name>
    <cmt>Amenity::entertainment:public_bookcase</cmt>
    <desc>Ancienne cabine téléphonique,  tout près de l école</desc>
    <type>Boite à livre</type>
  </wpt>
  <wpt lat="44.9887609" lon="2.4205666999999997">
    <name>angle promenade des sports , avenue des reaux</name>
    <cmt>Amenity::entertainment:public_bookcase</cmt>
    <desc>cabine téléphonique jaune</desc>
    <type>Boite à livre</type>
  </wpt>
  <wpt lat="45.666397499999995" lon="3.1938398">
    <name>Rue haute</name>
    <cmt>Amenity::entertainment:public_bookcase</cmt>
    <desc>Une boîte à lire dans une vieille cabine téléphonique peinte en rouge. Située dans une ancienne aire de jeux. A l entrée du village, près du musée archéologique.Bien fournie. Pour tous. Essentiellement des livres grand format.</desc>
    <type>Boite à livre</type>
  </wpt>
  <wpt lat="46.132135999999996" lon="3.456603">
    <name>Place Victor hugo</name>
    <cmt>Amenity::entertainment:public_bookcase</cmt>
    <desc>Une petite boîte à lire bien sympa où je trouve toujours mon bonheur.</desc>
    <type>Boite à livre</type>
  </wpt>
  <wpt lat="45.0428505" lon="3.8829575000000003">
    <name>à côté de la médiathèque</name>
    <cmt>Amenity::entertainment:public_bookcase</cmt>
    <type>Boite à livre</type>
  </wpt>
  <wpt lat="45.898933899999996" lon="3.0497329">
    <name>Devant la bibliothèque</name>
    <cmt>Amenity::entertainment:public_bookcase</cmt>
    <type>Boite à livre</type>
  </wpt>
  <wpt lat="46.16113799999999" lon="2.835108">
    <name>Mairie</name>
    <cmt>Amenity::entertainment:public_bookcase</cmt>
    <desc>Près de la mairie sous les halles couvertes</desc>
    <type>Boite à livre</type>
  </wpt>
  <wpt lat="44.91332249999999" lon="2.4554032">
    <name>41 Avenue Georges Pompidou</name>
    <cmt>Amenity::entertainment:public_bookcase</cmt>
    <desc>La Boîte à Lire s invite à l&apos;Hôtel Auréna !Que vous soyez client de l&apos;hôtel ou tout simplement visiteurs, chacun peut déposer et emprunter des livres gratuitement.</desc>
    <type>Boite à livre</type>
  </wpt>
  <wpt lat="45.03302599999999" lon="3.0948619999999996">
    <name>place des Mets</name>
    <cmt>Amenity::entertainment:public_bookcase</cmt>
    <desc>Réalisées par les services techniques municipaux et en partenariat avec le Lions Club de Saint-Flour</desc>
    <type>Boite à livre</type>
  </wpt>
  <wpt lat="46.32852170000001" lon="2.5785875000000003">
    <name>Avenue de Fontbouillant</name>
    <cmt>Amenity::entertainment:public_bookcase</cmt>
    <desc>Dans la MJC à côté de l accueil</desc>
    <type>Boite à livre</type>
  </wpt>
  <wpt lat="45.21972550000001" lon="2.3363965">
    <name>Avenue de Clermont</name>
    <cmt>Amenity::entertainment:public_bookcase</cmt>
    <desc>Boîte à lire fixée sur le mur à l&apos;angle de la rue des Roses et l&apos;avenue de Clermont</desc>
    <type>Boite à livre</type>
  </wpt>
  <wpt lat="46.046442000000006" lon="3.058341400000001">
    <name>Mairie de St Hilaire la croix, le bourg</name>
    <cmt>Amenity::entertainment:public_bookcase</cmt>
    <desc>Accessible tout le temps et située devant la mairie, elle a été construite par notre cantonnier qui a fait un boulot magnifique.</desc>
    <type>Boite à livre</type>
  </wpt>
  <wpt lat="45.41335719999998" lon="3.7245716999999994">
    <name>rue charles de Gaulle</name>
    <cmt>Amenity::entertainment:public_bookcase</cmt>
    <desc>Installee conjointement par le Lions club Ambert Livradois et la municipalité d Arlanc</desc>
    <type>Boite à livre</type>
  </wpt>
  <wpt lat="46.20169799999999" lon="3.431852">
    <name>Place de la libération</name>
    <cmt>Amenity::entertainment:public_bookcase</cmt>
    <desc>Boîte à livres toute récente, sur la place vers la salle Fernand Raynaud à Saint Germain des Fossés.</desc>
    <type>Boite à livre</type>
  </wpt>
  <wpt lat="46.30856879999997" lon="3.2926502">
    <name>Rue Marcellin Berthelot</name>
    <cmt>Amenity::entertainment:public_bookcase</cmt>
    <type>Boite à livre</type>
  </wpt>
  <wpt lat="45.05214999999999" lon="2.484748">
    <name>Place du Village</name>
    <cmt>Amenity::entertainment:public_bookcase</cmt>
    <desc>Bibliocabine</desc>
    <type>Boite à livre</type>
  </wpt>
  <wpt lat="45.0147259" lon="2.6675208">
    <name>48 grand rue</name>
    <cmt>Amenity::entertainment:public_bookcase</cmt>
    <desc>Petite boite sur le côté de la poste</desc>
    <type>Boite à livre</type>
  </wpt>
  <wpt lat="46.3115552" lon="3.4167655000000003">
    <name>Grand Place</name>
    <cmt>Amenity::entertainment:public_bookcase</cmt>
    <type>Boite à livre</type>
  </wpt>
  <wpt lat="45.863076899999996" lon="3.3019657">
    <name>35 Rue Maréchal de Turenne</name>
    <cmt>Amenity::entertainment:public_bookcase</cmt>
    <desc>Boîte à lire à côté du Vival, au niveau du parking.</desc>
    <type>Boite à livre</type>
  </wpt>
  <wpt lat="45.0337044" lon="3.1045624000000003">
    <name>25 avenue de la republique</name>
    <cmt>Amenity::entertainment:public_bookcase</cmt>
    <desc>La boite est dans le petit parc, à l&apos;entrée.</desc>
    <type>Boite à livre</type>
  </wpt>
  <wpt lat="46.56134250000001" lon="3.3388414000000006">
    <name>Parc devant gare SNCF</name>
    <cmt>Amenity::entertainment:public_bookcase</cmt>
    <type>Boite à livre</type>
  </wpt>
  <wpt lat="45.013650800000015" lon="2.6702346">
    <name>Rue de la Bédisse</name>
    <cmt>Amenity::entertainment:public_bookcase</cmt>
    <desc>à l&apos;entrée du camping dans une ancienne cabine téléphonique</desc>
    <type>Boite à livre</type>
  </wpt>
  <wpt lat="46.585384999999995" lon="3.0543380000000004">
    <name>Parc Jean Bignon</name>
    <cmt>Amenity::entertainment:public_bookcase</cmt>
    <type>Boite à livre</type>
  </wpt>
  <wpt lat="45.172681" lon="2.9706160000000006">
    <name>Le Bourg</name>
    <cmt>Amenity::entertainment:public_bookcase</cmt>
    <desc>Au coeur du village,  des livres confortablement installés dans une ancienne cabine téléphonique vous attendent.</desc>
    <type>Boite à livre</type>
  </wpt>
  <wpt lat="45.546876" lon="3.2345970000000004">
    <name>23 chemin des Jodonnes</name>
    <cmt>Amenity::entertainment:public_bookcase</cmt>
    <type>Boite à livre</type>
  </wpt>
  <wpt lat="45.82939249999999" lon="3.0784036">
    <name>149 rue de la République</name>
    <cmt>Amenity::entertainment:public_bookcase</cmt>
    <desc>devant la mairiegrande boîte à lire RESERVEE AUX ENFANTS !!!</desc>
    <type>Boite à livre</type>
  </wpt>
  <wpt lat="45.75591319999998" lon="3.6145746000000005">
    <name>mairie d&apos;aubusson</name>
    <cmt>Amenity::entertainment:public_bookcase</cmt>
    <desc>C est une grande give-box petits objets, vêtements et livres dans un renfoncement à côté de la mairie bien signalée.</desc>
    <type>Boite à livre</type>
  </wpt>
  <wpt lat="45.62476279999999" lon="3.3606421999999996">
    <name>77 D754</name>
    <cmt>Amenity::entertainment:public_bookcase</cmt>
    <desc>Cabine téléphonique sur la place de l Eglise</desc>
    <type>Boite à livre</type>
  </wpt>
  <wpt lat="45.775146899999996" lon="3.0748286000000005">
    <name>La montagne</name>
    <cmt>Amenity::entertainment:public_bookcase</cmt>
    <type>Boite à livre</type>
  </wpt>
  <wpt lat="44.91569669999999" lon="2.4210914">
    <name>24 rue jacques Prevert</name>
    <cmt>Amenity::entertainment:public_bookcase</cmt>
    <desc>Boîte située au niveau de l&apos;aire de jeu de l&apos;ecole ouverte de Belbex</desc>
    <type>Boite à livre</type>
  </wpt>
  <wpt lat="45.458431" lon="3.2506570000000004">
    <name>ZAC des Coustilles</name>
    <cmt>Amenity::entertainment:public_bookcase</cmt>
    <desc>Sur le parking du Super U</desc>
    <type>Boite à livre</type>
  </wpt>
  <wpt lat="45.872974899999996" lon="3.0704009999999995">
    <name>quartier des Chaneaux</name>
    <cmt>Amenity::entertainment:public_bookcase</cmt>
    <type>Boite à livre</type>
  </wpt>
  <wpt lat="45.938117199999986" lon="3.2198521999999996">
    <name>Rue des oies</name>
    <cmt>Amenity::entertainment:public_bookcase</cmt>
    <desc>Il s agit d&apos;une petite boîte à lire installée dans une rue très jolie du village. Il y a des ouvrages d&apos;auteurs du terroir.</desc>
    <type>Boite à livre</type>
  </wpt>
  <wpt lat="46.13748585954338" lon="3.436017036437989">
    <name>115 avenue Gilbert Roux</name>
    <cmt>Amenity::entertainment:public_bookcase</cmt>
    <desc>Le Kiosque à Pizzas. Station service de Carrefour</desc>
    <type>Boite à livre</type>
  </wpt>
  <wpt lat="46.238655832551544" lon="3.15183699131012">
    <name>Mairie</name>
    <cmt>Amenity::entertainment:public_bookcase</cmt>
    <desc>Située devant la mairie</desc>
    <type>Boite à livre</type>
  </wpt>
  <wpt lat="45.71479730000001" lon="3.1867387">
    <name>Avenue des Pandières</name>
    <cmt>Amenity::entertainment:public_bookcase</cmt>
    <desc>Boite à lire située au bout de La Coulée Verte. A côté de l aire de jeux les PandièresBien fournie. Essentiellement de la littérature blanche éditions très anciennes, des textes religieux chrétiens, des romances et de l&apos;espionnage.</desc>
    <type>Boite à livre</type>
  </wpt>
  <wpt lat="45.205095" lon="2.44025">
    <name>D22 le bourg devant la Mairie</name>
    <cmt>Amenity::entertainment:public_bookcase</cmt>
    <desc>Devant la Mairie</desc>
    <type>Boite à livre</type>
  </wpt>
  <wpt lat="45.042768" lon="3.8829360000000004">
    <name>Route du puy en velay</name>
    <cmt>Amenity::entertainment:public_bookcase</cmt>
    <desc>À côté du syndicat d initiative sur la nationale reliant AMBERT au PUY EN VELAY</desc>
    <type>Boite à livre</type>
  </wpt>
  <wpt lat="46.565491999999985" lon="3.3546360000000006">
    <name>Place de Bendorf</name>
    <cmt>Amenity::entertainment:public_bookcase</cmt>
    <desc>La boîte à lire est située à proximité de la Poste. C est une cabine téléphonique recyclée en boite à lire.</desc>
    <type>Boite à livre</type>
  </wpt>
  <wpt lat="45.926822399999985" lon="3.3961838999999996">
    <name>Le bourg</name>
    <cmt>Amenity::entertainment:public_bookcase</cmt>
    <type>Boite à livre</type>
  </wpt>
  <wpt lat="46.15289399999998" lon="3.064905">
    <name>Route de Lalizolles</name>
    <cmt>Amenity::entertainment:public_bookcase</cmt>
    <type>Boite à livre</type>
  </wpt>
  <wpt lat="45.756495099999995" lon="3.0824723">
    <name>rue robert Noël</name>
    <cmt>Amenity::entertainment:public_bookcase</cmt>
    <desc>boite à livres bleue</desc>
    <type>Boite à livre</type>
  </wpt>
  <wpt lat="46.135773" lon="3.058073">
    <name>Chemin des Contamines      Le MERCUROL</name>
    <cmt>Amenity::entertainment:public_bookcase</cmt>
    <type>Boite à livre</type>
  </wpt>
  <wpt lat="46.566117099999985" lon="3.3329151">
    <name>Place de l&apos;Hotel de ville</name>
    <cmt>Amenity::entertainment:public_bookcase</cmt>
    <desc>La boite à lire se situe en haut des marches, sur la gauche en regardant le bâtiment.</desc>
    <type>Boite à livre</type>
  </wpt>
  <wpt lat="46.30832479999998" lon="3.2937857000000004">
    <name>Office de tourisme</name>
    <cmt>Amenity::entertainment:public_bookcase</cmt>
    <desc>A gauche de l entrée de l&apos;Office de tourisme, à côté de l&apos;autre porte d&apos;entrée du bâtiment sous un renfoncement.</desc>
    <type>Boite à livre</type>
  </wpt>
  <wpt lat="44.854054000000005" lon="2.456862">
    <name>Senilhes</name>
    <cmt>Amenity::entertainment:public_bookcase</cmt>
    <desc>Contre la salle polyvalente, à côté des casiers à pain.Cette petite boîte à livre rouge a fait son apparition il y a quelques semaines.</desc>
    <type>Boite à livre</type>
  </wpt>
  <wpt lat="46.1900512332678" lon="6.318576335906984">
    <name>Place du village</name>
    <cmt>Amenity::entertainment:public_bookcase</cmt>
    <desc>Livres en libertés. Face à l&apos;école. Création en Mars 2018</desc>
    <type>Boite à livre</type>
  </wpt>
  <wpt lat="45.60250901510299" lon="5.172768831253053">
    <name>Bibliothèque</name>
    <cmt>Amenity::entertainment:public_bookcase</cmt>
    <desc>Dans le parc pour enfants collé a la bibliothèque</desc>
    <type>Boite à livre</type>
  </wpt>
  <wpt lat="45.96466339999999" lon="4.0097265">
    <name>Place des Chalands</name>
    <cmt>Amenity::entertainment:public_bookcase</cmt>
    <desc>Ancienne cabine téléphonique sur le petit parking,  en face du Restaurant.</desc>
    <type>Boite à livre</type>
  </wpt>
  <wpt lat="46.01783169999999" lon="5.5955523">
    <name>superette Champdor</name>
    <cmt>Amenity::entertainment:public_bookcase</cmt>
    <desc>Dans la supérette, un accueil formidable, une vendeuse super. LE RELAI DU CHATEAU</desc>
    <type>Boite à livre</type>
  </wpt>
  <wpt lat="46.11528499999998" lon="6.394302000000001">
    <name>Chef-Lieu</name>
    <cmt>Amenity::entertainment:public_bookcase</cmt>
    <desc>Cette boîte à lire fait partie des 11 boîtes à lire du réseau des bibliothèques Idélire de la Communauté de communes des 4 Rivières. Elle se trouve sur le mur de la mairie dans le chef-lieu du village.</desc>
    <type>Boite à livre</type>
  </wpt>
  <wpt lat="46.28182799999999" lon="6.0414258">
    <name>rue  saint Maurice</name>
    <cmt>Amenity::entertainment:public_bookcase</cmt>
    <desc>a côté de l ancienne poste</desc>
    <type>Boite à livre</type>
  </wpt>
  <wpt lat="46.152401" lon="5.6082736">
    <name>Place des Déportés</name>
    <cmt>Amenity::entertainment:public_bookcase</cmt>
    <desc>Boîte installé par le magasin vival</desc>
    <type>Boite à livre</type>
  </wpt>
  <wpt lat="45.72212040000001" lon="4.7821891">
    <name>rue de Merlo</name>
    <cmt>Amenity::entertainment:public_bookcase</cmt>
    <desc>Boîte construite et gérée par l Association du Quartier du Merlo, le CILQM. A l&apos;entée du Parc Naturel de l Yzeron, près de l&apos;aire de jeux</desc>
    <type>Boite à livre</type>
  </wpt>
  <wpt lat="45.785614100000004" lon="4.5750042">
    <name>Impasse de la combe</name>
    <cmt>Amenity::entertainment:public_bookcase</cmt>
    <desc>Petite boite de hameau</desc>
    <type>Boite à livre</type>
  </wpt>
  <wpt lat="45.61668889999999" lon="6.278916700000002">
    <name>50 place Pierre Grange</name>
    <cmt>Amenity::entertainment:public_bookcase</cmt>
    <desc>Installée dans une cabine téléphonique décorée, belle idée du foyer de vie  Le Solaret.</desc>
    <type>Boite à livre</type>
  </wpt>
  <wpt lat="44.34631440000001" lon="4.765810800000001">
    <name>10 Rue du Serre Blanc</name>
    <cmt>Amenity::entertainment:public_bookcase</cmt>
    <desc>Elle se situe dans le hall du bâtiment de mosaic à Saint Paul Trois châteaux</desc>
    <type>Boite à livre</type>
  </wpt>
  <wpt lat="45.755310300000005" lon="4.8882637">
    <name>place George Sand</name>
    <cmt>Amenity::entertainment:public_bookcase</cmt>
    <desc>Une initiative des conseils de quartier !</desc>
    <type>Boite à livre</type>
  </wpt>
  <wpt lat="45.71160729999999" lon="4.8855022">
    <name>55 rue Joannès Vallet</name>
    <cmt>Amenity::entertainment:public_bookcase</cmt>
    <type>Boite à livre</type>
  </wpt>
  <wpt lat="44.84556400000001" lon="5.620483">
    <name>Hôtel De Ville</name>
    <cmt>Amenity::entertainment:public_bookcase</cmt>
    <type>Boite à livre</type>
  </wpt>
  <wpt lat="45.34111099999999" lon="4.8503456">
    <name>celinejoubertmorcillo@gmail.com</name>
    <cmt>Amenity::entertainment:public_bookcase</cmt>
    <desc>Centre Social Les 4 Vents,  livres en liberté disponibles un joli meuble dans le hall d accueil.</desc>
    <type>Boite à livre</type>
  </wpt>
  <wpt lat="45.13667239999999" lon="5.6977336">
    <name>40 avenue Victor Hugo</name>
    <cmt>Amenity::entertainment:public_bookcase</cmt>
    <desc>sur la façade de l école Saint-Exupéry</desc>
    <type>Boite à livre</type>
  </wpt>
  <wpt lat="45.972955099999986" lon="5.3523834">
    <name>186 Rue Alexandre Bérard</name>
    <cmt>Amenity::entertainment:public_bookcase</cmt>
    <desc>Sur le parking de Biocoop.</desc>
    <type>Boite à livre</type>
  </wpt>
  <wpt lat="45.89444109999999" lon="6.695754">
    <name>900 route de Megeve</name>
    <cmt>Amenity::entertainment:public_bookcase</cmt>
    <desc>Situé au chalet des créateursGalerie boutique de créateurs</desc>
    <type>Boite à livre</type>
  </wpt>
  <wpt lat="45.343957" lon="5.5217868">
    <name>1 Le Grand Chemin</name>
    <cmt>Amenity::entertainment:public_bookcase</cmt>
    <desc>Dans une ancienne cabine téléphonique contre le parking</desc>
    <type>Boite à livre</type>
  </wpt>
  <wpt lat="44.427645" lon="4.872809299999999">
    <name>Centre du village RD 112</name>
    <cmt>Amenity::entertainment:public_bookcase</cmt>
    <desc>Boîte à Lire se trouvant sur en plein coeur du village sur la route principale départementale 112 à gauche en partant sur Saint-Donat boîte à lettres bien fourni pour tous les âges</desc>
    <type>Boite à livre</type>
  </wpt>
  <wpt lat="45.59135779999998" lon="5.9201385">
    <name>Scarabée</name>
    <cmt>Amenity::entertainment:public_bookcase</cmt>
    <desc>Boîte à lire située à Chambéry le haut juste à côté de la salle de spectacle du scarabée</desc>
    <type>Boite à livre</type>
  </wpt>
  <wpt lat="45.22804219999999" lon="5.791589200000001">
    <name>allée des Florentines</name>
    <cmt>Amenity::entertainment:public_bookcase</cmt>
    <desc>Boîte à lire des FlorentinesMise en place par la copropriétéJuste derrière les boîtes à lettres à l entrée de la copropriété.</desc>
    <type>Boite à livre</type>
  </wpt>
  <wpt lat="46.093911199999994" lon="5.448006200000001">
    <name>ST ALBAN</name>
    <cmt>Amenity::entertainment:public_bookcase</cmt>
    <desc>Sous le préau du four communal</desc>
    <type>Boite à livre</type>
  </wpt>
  <wpt lat="45.83341219999999" lon="4.911084300000001">
    <name>4811 Route de Strasbourg</name>
    <cmt>Amenity::entertainment:public_bookcase</cmt>
    <desc>Boite à livres de l école de Vancia</desc>
    <type>Boite à livre</type>
  </wpt>
  <wpt lat="45.07220259999998" lon="4.8397196">
    <name>gare</name>
    <cmt>Amenity::entertainment:public_bookcase</cmt>
    <desc>dans le hall de la gare</desc>
    <type>Boite à livre</type>
  </wpt>
  <wpt lat="45.3617366" lon="5.588148200000001">
    <name>Bld de la république</name>
    <cmt>Amenity::entertainment:public_bookcase</cmt>
    <desc>Magasin biocoop, à l intérieur.</desc>
    <type>Boite à livre</type>
  </wpt>
  <wpt lat="45.576368399999986" lon="5.9420146">
    <name>Rue de Longefand</name>
    <cmt>Amenity::entertainment:public_bookcase</cmt>
    <desc>Ancienne cabine téléphonique sur le parking</desc>
    <type>Boite à livre</type>
  </wpt>
  <wpt lat="45.70053419999999" lon="4.928672599999999">
    <name>Quartier Revaison</name>
    <cmt>Amenity::entertainment:public_bookcase</cmt>
    <type>Boite à livre</type>
  </wpt>
  <wpt lat="45.91355659999999" lon="6.132502100000001">
    <name>6 rue des Aravis</name>
    <cmt>Amenity::entertainment:public_bookcase</cmt>
    <desc>Très belle boîte à lire dans une cabine téléphonique, située à côté de l école primaire de la plaine.</desc>
    <type>Boite à livre</type>
  </wpt>
  <wpt lat="44.6371013" lon="4.2567994">
    <name>Rue Jean Moulin</name>
    <cmt>Amenity::entertainment:public_bookcase</cmt>
    <type>Boite à livre</type>
  </wpt>
  <wpt lat="45.706927199999974" lon="5.8905951">
    <name>rue Jules Pin, jardin vagabond</name>
    <cmt>Amenity::entertainment:public_bookcase</cmt>
    <desc>Ancienne cabine téléphonique située au bord d&apos;une allée dans le Jardin Vagabond</desc>
    <type>Boite à livre</type>
  </wpt>
  <wpt lat="45.73335868459384" lon="4.99729871749878">
    <name>Place de Ronshausen</name>
    <cmt>Amenity::entertainment:public_bookcase</cmt>
    <desc>Arbre à livres, situés dans le jardin des murmures</desc>
    <type>Boite à livre</type>
  </wpt>
  <wpt lat="46.1115464" lon="4.7311536">
    <name>rue Jean macé</name>
    <cmt>Amenity::entertainment:public_bookcase</cmt>
    <desc>Vers l école Jean Macé au  quartier de la gare</desc>
    <type>Boite à livre</type>
  </wpt>
  <wpt lat="45.77688619999999" lon="4.5537707">
    <name>Rue de la mairie</name>
    <cmt>Amenity::entertainment:public_bookcase</cmt>
    <desc>A l initiative de la mairie et des bénévoles de la bibliotheque</desc>
    <type>Boite à livre</type>
  </wpt>
  <wpt lat="45.94036779999998" lon="6.6420442">
    <name>Esplanade de Saint Martin</name>
    <cmt>Amenity::entertainment:public_bookcase</cmt>
    <desc>C est l&apos;une des 3 boites installées grâce à un partenariat entre la Ville et le Lions club.Elle est sous le préau à côté du parc de jeux.</desc>
    <type>Boite à livre</type>
  </wpt>
  <wpt lat="45.747700999999985" lon="4.2824065000000004">
    <name>Site Médiéval</name>
    <cmt>Amenity::entertainment:public_bookcase</cmt>
    <desc>Sur le parking du se Site Médiéval de Donzy  à 1,9 km du centre bourg de Salt en Donzy, en bordure d&apos;une petite rivière, la Charpassonne.</desc>
    <type>Boite à livre</type>
  </wpt>
  <wpt lat="45.55503659999999" lon="5.4833107">
    <name>Allée des platanes</name>
    <cmt>Amenity::entertainment:public_bookcase</cmt>
    <type>Boite à livre</type>
  </wpt>
  <wpt lat="45.76210579999998" lon="4.8557052">
    <name>17 Rue Dr Bouchut</name>
    <cmt>Amenity::entertainment:public_bookcase</cmt>
    <desc>Dans le centre commerciale de la part dieu, tour Oxygène au 1er niveau.</desc>
    <type>Boite à livre</type>
  </wpt>
  <wpt lat="46.24883369999999" lon="7.007791">
    <name>Chemin de la Croix de Javerne 1</name>
    <cmt>Amenity::entertainment:public_bookcase</cmt>
    <desc>Gérée et alimentée par mes soins, vous y trouverez de nombreux livres y compris des nouveautés. Blogueuse littéraire, je reçois beaucoup de livres que je me ferai un plaisir de partager avec vous.</desc>
    <type>Boite à livre</type>
  </wpt>
  <wpt lat="45.583549" lon="4.264216">
    <name>Chemin de Ecureuils</name>
    <cmt>Amenity::entertainment:public_bookcase</cmt>
    <desc>la boîte est accrochée au mur</desc>
    <type>Boite à livre</type>
  </wpt>
  <wpt lat="45.900779799999995" lon="4.700885">
    <name>Route de Lucenay</name>
    <cmt>Amenity::entertainment:public_bookcase</cmt>
    <desc>à côté de l arrêt de bus Morancé Bourgdans le sens Lyon-Villefrancheprès des bornes de recharge</desc>
    <type>Boite à livre</type>
  </wpt>
  <wpt lat="45.017592099999995" lon="5.2925089">
    <name>Square du 29 juin</name>
    <cmt>Amenity::entertainment:public_bookcase</cmt>
    <desc>Livre service dans un ancien frigo habillé d une cabane en bois situé sur une petite placette avec un banc pour lire sur place</desc>
    <type>Boite à livre</type>
  </wpt>
  <wpt lat="45.09362339999998" lon="5.047908199999999">
    <name>Place de la Mairie</name>
    <cmt>Amenity::entertainment:public_bookcase</cmt>
    <desc>Ancienne cabine téléphonique</desc>
    <type>Boite à livre</type>
  </wpt>
  <wpt lat="45.36981299999999" lon="6.3106107">
    <name>38 D76</name>
    <cmt>Amenity::entertainment:public_bookcase</cmt>
    <desc>Vitrine à côté de la porte d entrée de la mairie</desc>
    <type>Boite à livre</type>
  </wpt>
  <wpt lat="45.726659999999995" lon="4.8578828">
    <name>49 rue Professeur Roux</name>
    <cmt>Amenity::entertainment:public_bookcase</cmt>
    <type>Boite à livre</type>
  </wpt>
  <wpt lat="45.85232841947937" lon="5.128598213195803">
    <name>Route de geneve</name>
    <cmt>Amenity::entertainment:public_bookcase</cmt>
    <desc>Fabriquée par les enfants du periscolaire de la valbonne elle a permis de recycler un vieux frigo</desc>
    <type>Boite à livre</type>
  </wpt>
  <wpt lat="45.8791822" lon="4.8380001">
    <name>2bis rue rey loras</name>
    <cmt>Amenity::entertainment:public_bookcase</cmt>
    <desc>entree du joli parc de loisirs 50metres à droite très facile à trouver</desc>
    <type>Boite à livre</type>
  </wpt>
  <wpt lat="45.648498999999994" lon="5.858315999999999">
    <name>Rue des écoles</name>
    <cmt>Amenity::entertainment:public_bookcase</cmt>
    <desc>Juste en face de l&apos;école</desc>
    <type>Boite à livre</type>
  </wpt>
  <wpt lat="45.42884659999999" lon="5.7075767">
    <name>1, place de la Fontaine</name>
    <cmt>Amenity::entertainment:public_bookcase</cmt>
    <desc>Située juste en dessous de la mairie de Miribel, face à l église,  il s&apos;agit d&apos;une ancienne cabine téléphonique.</desc>
    <type>Boite à livre</type>
  </wpt>
  <wpt lat="45.36289279999999" lon="5.598165500000001">
    <name>5 Bd Edgar Kofler</name>
    <cmt>Amenity::entertainment:public_bookcase</cmt>
    <desc>Boîte à livres dans le hall d entrée de la médiathèque Philippe Vial.</desc>
    <type>Boite à livre</type>
  </wpt>
  <wpt lat="45.959032" lon="5.831543">
    <name>Passage place de la République</name>
    <cmt>Amenity::entertainment:public_bookcase</cmt>
    <type>Boite à livre</type>
  </wpt>
  <wpt lat="45.445657" lon="6.0987289">
    <name>Rue du Lavoir</name>
    <cmt>Amenity::entertainment:public_bookcase</cmt>
    <desc>Une grande étagère autour du bassin, libre accès 24h/24.</desc>
    <type>Boite à livre</type>
  </wpt>
  <wpt lat="46.034145999999986" lon="4.046902">
    <name>Parc Beaulieu</name>
    <cmt>Amenity::entertainment:public_bookcase</cmt>
    <desc>Petite boite à livre dans le Parc Beaulieu, nichée au pied du château, sous le porche.</desc>
    <type>Boite à livre</type>
  </wpt>
  <wpt lat="46.325701599999995" lon="6.0506238">
    <name>vertes campagnes</name>
    <cmt>Amenity::entertainment:public_bookcase</cmt>
    <desc>Dans le hall du carrefour market</desc>
    <type>Boite à livre</type>
  </wpt>
  <wpt lat="46.19355469999998" lon="6.2009578">
    <name>Place de Graveson</name>
    <cmt>Amenity::entertainment:public_bookcase</cmt>
    <desc>Plus d une dizainede boîtes à livres ont des été installées depuis 2015 par l?association 3 Chêne Culture sur le territoire des Trois Chênes, à   Chêne-Bougeries ,  Chêne-Bourg  et Thônex .</desc>
    <type>Boite à livre</type>
  </wpt>
  <wpt lat="46.3353344" lon="5.118486600000001">
    <name>56 place des sapins</name>
    <cmt>Amenity::entertainment:public_bookcase</cmt>
    <desc>Une joli boîte en fer bien garnie accrochée au mur de la maison numéro 59. L initiative de son habitante. Pas facile à trouver mais vaut le détour !!</desc>
    <type>Boite à livre</type>
  </wpt>
  <wpt lat="45.904839999999986" lon="5.1258169">
    <name>centre village</name>
    <cmt>Amenity::entertainment:public_bookcase</cmt>
    <type>Boite à livre</type>
  </wpt>
  <wpt lat="45.88463689999998" lon="5.2839199">
    <name>143 rue du Château</name>
    <cmt>Amenity::entertainment:public_bookcase</cmt>
    <desc>Dans le parc du château de Chazey  vers le panorama sur la rivière d&apos;Ain.</desc>
    <type>Boite à livre</type>
  </wpt>
  <wpt lat="45.490466999999995" lon="4.449389">
    <name>Parc de Fraisse</name>
    <cmt>Amenity::entertainment:public_bookcase</cmt>
    <desc>Boite à lire installée par la mairie</desc>
    <type>Boite à livre</type>
  </wpt>
  <wpt lat="46.203225299999986" lon="5.2195458">
    <name>Square des Qinconces</name>
    <cmt>Amenity::entertainment:public_bookcase</cmt>
    <desc>Inauguration récente à aller découvrir dans le parc</desc>
    <type>Boite à livre</type>
  </wpt>
  <wpt lat="45.932985999999985" lon="6.632136600000001">
    <name>Place du midi</name>
    <cmt>Amenity::entertainment:public_bookcase</cmt>
    <desc>C est l&apos;une des 3 boites installées grâce à un partenariat entre la Ville et le Lions club.Elle est dans le parc en face de la boulangerie de la Vallée.</desc>
    <type>Boite à livre</type>
  </wpt>
  <wpt lat="44.933161399999996" lon="4.892158">
    <name>place de la mairie</name>
    <cmt>Amenity::entertainment:public_bookcase</cmt>
    <desc>Sous les arcades place de la Mairie, bien à l abri . Des livres en français et aussi en anglais.</desc>
    <type>Boite à livre</type>
  </wpt>
  <wpt lat="45.90312899999999" lon="6.099516">
    <name>Rue des Pervenches</name>
    <cmt>Amenity::entertainment:public_bookcase</cmt>
    <desc>Boîte à livres du Lions Clubs dans le Square des Pervenches</desc>
    <type>Boite à livre</type>
  </wpt>
  <wpt lat="45.63966299999999" lon="6.0123239">
    <name>Les Déserts</name>
    <cmt>Amenity::entertainment:public_bookcase</cmt>
    <desc>A l&apos;arrêt de bus</desc>
    <type>Boite à livre</type>
  </wpt>
  <wpt lat="46.19181799999998" lon="6.224742">
    <name>Croix d&apos;Ambilly</name>
    <cmt>Amenity::entertainment:public_bookcase</cmt>
    <desc>Vous trouverez la boite à lire au Carrefour.</desc>
    <type>Boite à livre</type>
  </wpt>
  <wpt lat="45.323803999999996" lon="5.930932">
    <name>Place de la Mairie</name>
    <cmt>Amenity::entertainment:public_bookcase</cmt>
    <desc>A l&apos;intérieur, entrée Bibliothèque Municipale</desc>
    <type>Boite à livre</type>
  </wpt>
  <wpt lat="45.2593996" lon="5.2445985">
    <name>Grande Rue</name>
    <cmt>Amenity::entertainment:public_bookcase</cmt>
    <desc>En face de la réplique de la statue de la Liberté se trouve un magnifique frigo-boîte à livre, très bien garni : romans comme neufs, livres d enfants, beaux livres... Merci aux initiateurs du projet !</desc>
    <type>Boite à livre</type>
  </wpt>
  <wpt lat="44.93357429999997" lon="4.8697151000000005">
    <name>Espace Rémi Roure</name>
    <cmt>Amenity::entertainment:public_bookcase</cmt>
    <desc>Située au rez-de-chaussée de l espace Remi Roure, face au bureau de la MJC.</desc>
    <type>Boite à livre</type>
  </wpt>
  <wpt lat="45.86142759999999" lon="6.618133499999999">
    <name>Palais des sports</name>
    <cmt>Amenity::entertainment:public_bookcase</cmt>
    <desc>Cette boîte se trouve dans le hall d?accueil du Palais pour donner livres, magazines ou livres pour enfants.</desc>
    <type>Boite à livre</type>
  </wpt>
  <wpt lat="45.50549109999999" lon="4.5698108">
    <name>Place du général de Gaulle</name>
    <cmt>Amenity::entertainment:public_bookcase</cmt>
    <desc>Boîte à lire mise en place par le conseil municipal jeunes</desc>
    <type>Boite à livre</type>
  </wpt>
  <wpt lat="46.13577109999999" lon="6.269115299999999">
    <name>Grande rue</name>
    <cmt>Amenity::entertainment:public_bookcase</cmt>
    <desc>Petite boîte à livre en forme de petite maison sur un muret juste avant le tabac sur la Grande rue.</desc>
    <type>Boite à livre</type>
  </wpt>
  <wpt lat="46.08274099999999" lon="6.677681000000001">
    <name>Chef lieu, près de l Office du tourisme</name>
    <cmt>Amenity::entertainment:public_bookcase</cmt>
    <desc>Conçue et fabriquée par l Association Villages et partage</desc>
    <type>Boite à livre</type>
  </wpt>
  <wpt lat="45.89728493395676" lon="4.840748906135559">
    <name>mairie</name>
    <cmt>Amenity::entertainment:public_bookcase</cmt>
    <desc>Boite a côté de la mairie bien remplie. La bibliothèque met quelques livres des fois.</desc>
    <type>Boite à livre</type>
  </wpt>
  <wpt lat="45.118652278121495" lon="5.811456441879272">
    <name>Place Eugène Riband</name>
    <cmt>Amenity::entertainment:public_bookcase</cmt>
    <desc>Ancienne cabine téléphonique dans le petit square à côté de l&apos;église</desc>
    <type>Boite à livre</type>
  </wpt>
  <wpt lat="45.44234480000001" lon="4.401656300000001">
    <name>Esplanade de France</name>
    <cmt>Amenity::entertainment:public_bookcase</cmt>
    <desc>Devant le petit magasin Vival.</desc>
    <type>Boite à livre</type>
  </wpt>
  <wpt lat="45.59256189999998" lon="4.7672428">
    <name>Rue Yves Farge</name>
    <cmt>Amenity::entertainment:public_bookcase</cmt>
    <desc>Installée par la municipalité, à proximité de Pass Partoo Givors sur la ZA La Plaine Robinson,</desc>
    <type>Boite à livre</type>
  </wpt>
  <wpt lat="46.190684399999995" lon="7.210225">
    <name>Ch des carrières 6</name>
    <cmt>Amenity::entertainment:public_bookcase</cmt>
    <desc>A côté du distributeur de produits du terroir leemannfruits.ch</desc>
    <type>Boite à livre</type>
  </wpt>
  <wpt lat="46.05935539999998" lon="5.6055598">
    <name>125 Rue Principale</name>
    <cmt>Amenity::entertainment:public_bookcase</cmt>
    <desc>La table des livres voyageurs. Superbe endroit accessible et gratuit dans la mairie</desc>
    <type>Boite à livre</type>
  </wpt>
  <wpt lat="46.52485119999999" lon="6.630107">
    <name>Rue Pré-duMarché</name>
    <cmt>Amenity::entertainment:public_bookcase</cmt>
    <desc>Ancienne cabine téléphonique, au pied du clocher de la basilique Notre-Dame.</desc>
    <type>Boite à livre</type>
  </wpt>
  <wpt lat="44.64946119999998" lon="4.3210178">
    <name>Place de l école</name>
    <cmt>Amenity::entertainment:public_bookcase</cmt>
    <desc>boite à lire dans l&apos;ancienne cabine téléphonique</desc>
    <type>Boite à livre</type>
  </wpt>
  <wpt lat="45.182817999999976" lon="4.809449">
    <name>Rue du Rhône</name>
    <cmt>Amenity::entertainment:public_bookcase</cmt>
    <type>Boite à livre</type>
  </wpt>
  <wpt lat="45.93916979999999" lon="6.088017000000001">
    <name>Rue du Nantes</name>
    <cmt>Amenity::entertainment:public_bookcase</cmt>
    <desc>Sur le parking du square et de l église Saint-Pierre-Aux-Liens</desc>
    <type>Boite à livre</type>
  </wpt>
  <wpt lat="45.72466839999999" lon="5.2504457">
    <name>Cloître</name>
    <cmt>Amenity::entertainment:public_bookcase</cmt>
    <desc>La boîte à livre est dans le cloître même de cremieu</desc>
    <type>Boite à livre</type>
  </wpt>
  <wpt lat="45.76913629999999" lon="4.830148499999999">
    <name>Place Sathonay</name>
    <cmt>Amenity::entertainment:public_bookcase</cmt>
    <type>Boite à livre</type>
  </wpt>
  <wpt lat="46.19489169999998" lon="4.6057505">
    <name>Le Bourg</name>
    <cmt>Amenity::entertainment:public_bookcase</cmt>
    <desc>A côté de l&apos;arrêt de bus et de la table d&apos;orientation, à la sortie du village en direction de Monsols, elle existe depuis des années déjà.</desc>
    <type>Boite à livre</type>
  </wpt>
  <wpt lat="45.77595019999998" lon="4.966861899999999">
    <name>65 RUE GEORGES BIZET</name>
    <cmt>Amenity::entertainment:public_bookcase</cmt>
    <desc>Juste en face de l entrée de l&apos;espace Berthaudiere vers la prairie et le skate park</desc>
    <type>Boite à livre</type>
  </wpt>
  <wpt lat="45.5674962" lon="5.914546400000001">
    <name>2 avenue Jean Jaurès</name>
    <cmt>Amenity::entertainment:public_bookcase</cmt>
    <desc>Accessible aux horaires d&apos;ouverture de l&apos;établissement</desc>
    <type>Boite à livre</type>
  </wpt>
  <wpt lat="45.698938" lon="4.947071">
    <name>ZAC du Champ du Pont</name>
    <cmt>Amenity::entertainment:public_bookcase</cmt>
    <desc>Boite à l intérieur de la galerie marchande de Auchan.</desc>
    <type>Boite à livre</type>
  </wpt>
  <wpt lat="45.54680749999999" lon="5.5338724">
    <name>20 Rue Lavoisier</name>
    <cmt>Amenity::entertainment:public_bookcase</cmt>
    <desc>dans le parc aux enfants, devant la mairie</desc>
    <type>Boite à livre</type>
  </wpt>
  <wpt lat="44.514962000000004" lon="4.8199569">
    <name>Route d Allan</name>
    <cmt>Amenity::entertainment:public_bookcase</cmt>
    <desc>A l angle de la Route d&apos;Allan et du Boulevard du Levant : à coté du parc.</desc>
    <type>Boite à livre</type>
  </wpt>
  <wpt lat="46.0529899" lon="6.3291459">
    <name>Chef Lieu (ecole)</name>
    <cmt>Amenity::entertainment:public_bookcase</cmt>
    <desc>Dans un petit village à côté de La Roche sur foron, au coeur de la Haute Savoie, notre Ruche à livres s&apos;est accroché au mur du préau de l&apos;école du village. Projet monté il y a 1 an en famille, avec des matériaux de récupérations nous avons créé cette boîte à lire avec les talents de chacun et un esprit de solidarité et de citoyenneté!</desc>
    <type>Boite à livre</type>
  </wpt>
  <wpt lat="46.096314" lon="4.797837">
    <name>eddyetnadegegay@gmail.com</name>
    <cmt>Amenity::entertainment:public_bookcase</cmt>
    <desc>A coté de l école et du stade de Montceaux</desc>
    <type>Boite à livre</type>
  </wpt>
  <wpt lat="45.55646889999999" lon="5.3059722">
    <name>place du square</name>
    <cmt>Amenity::entertainment:public_bookcase</cmt>
    <desc>devant les commerces de proximité Vival, très belle initiative.</desc>
    <type>Boite à livre</type>
  </wpt>
  <wpt lat="45.7380878" lon="4.8519144">
    <name>17 rue Benoit Bernard</name>
    <cmt>Amenity::entertainment:public_bookcase</cmt>
    <desc>Il y a même une petite terrasse en bois pour les beaux jours.</desc>
    <type>Boite à livre</type>
  </wpt>
  <wpt lat="46.0238494" lon="5.9821613">
    <name>429 route du chef lieu</name>
    <cmt>Amenity::entertainment:public_bookcase</cmt>
    <desc>www.grainededahu.fr</desc>
    <type>Boite à livre</type>
  </wpt>
  <wpt lat="45.19706369999998" lon="5.7369936">
    <name>Place du docteur Girard</name>
    <cmt>Amenity::entertainment:public_bookcase</cmt>
    <desc>Contre le mur devant l église.</desc>
    <type>Boite à livre</type>
  </wpt>
  <wpt lat="45.83775099999998" lon="6.571761">
    <name>au centre du village sur RD 1212</name>
    <cmt>Amenity::entertainment:public_bookcase</cmt>
    <desc>une armoire à livres est située sur le côté gauche de l office de tourisme</desc>
    <type>Boite à livre</type>
  </wpt>
  <wpt lat="45.813651899999975" lon="4.7584863">
    <name>Chemin du peupliers</name>
    <cmt>Amenity::entertainment:public_bookcase</cmt>
    <desc>Au niveau de l arrêt de bus de la ligne 89 LES AULNES</desc>
    <type>Boite à livre</type>
  </wpt>
  <wpt lat="44.65636299999998" lon="4.366821">
    <name>3 Avenue Claude Expilly</name>
    <cmt>Amenity::entertainment:public_bookcase</cmt>
    <desc>à l&apos;entrée du parc côté casino sur la droite, juste avant le premier pont</desc>
    <type>Boite à livre</type>
  </wpt>
  <wpt lat="45.9553972" lon="4.6942564">
    <name>Chemin de Trézette</name>
    <cmt>Amenity::entertainment:public_bookcase</cmt>
    <desc>Boite a livre installée sur la petite place face au bureau de tabac</desc>
    <type>Boite à livre</type>
  </wpt>
  <wpt lat="45.29906179999998" lon="5.1130492">
    <name>Place de la Mairie</name>
    <cmt>Amenity::entertainment:public_bookcase</cmt>
    <desc>En face de la mairie, à côté des toilettes publiques</desc>
    <type>Boite à livre</type>
  </wpt>
  <wpt lat="45.445527500000004" lon="5.4042861">
    <name>2 Route de Grenoble</name>
    <cmt>Amenity::entertainment:public_bookcase</cmt>
    <desc>Belle boite à livres bien fournie et protégée, devant le Vival</desc>
    <type>Boite à livre</type>
  </wpt>
  <wpt lat="45.72848749999999" lon="5.650361">
    <name>Place de la mairie</name>
    <cmt>Amenity::entertainment:public_bookcase</cmt>
    <desc>Derrière l église.Livres très intéressants et en très bon état</desc>
    <type>Boite à livre</type>
  </wpt>
  <wpt lat="45.1785745" lon="5.7452548">
    <name>1 place de la commune 1871</name>
    <cmt>Amenity::entertainment:public_bookcase</cmt>
    <desc>La boite se situe dans le café associatif la piroguehttps://cafelapirogue.wixsite.com/cafelapirogue</desc>
    <type>Boite à livre</type>
  </wpt>
  <wpt lat="46.06705899999999" lon="6.312995000000001">
    <name>Place grenette</name>
    <cmt>Amenity::entertainment:public_bookcase</cmt>
    <type>Boite à livre</type>
  </wpt>
  <wpt lat="46.3721635" lon="6.483639500000001">
    <name>Médiathèque</name>
    <cmt>Amenity::entertainment:public_bookcase</cmt>
    <desc>Une caisse dans l&apos;enceinte de la médiathèque. Accessible aux heures d&apos;ouverture de celle-ci.</desc>
    <type>Boite à livre</type>
  </wpt>
  <wpt lat="45.767433699999984" lon="4.8377007">
    <name>3 quai jean Moulin</name>
    <cmt>Amenity::entertainment:public_bookcase</cmt>
    <desc>A l&apos;intérieur du magasin Bulko.</desc>
    <type>Boite à livre</type>
  </wpt>
  <wpt lat="45.06704289999997" lon="4.8664664">
    <name>Avenue des Lots</name>
    <cmt>Amenity::entertainment:public_bookcase</cmt>
    <desc>dans l entrée de l&apos;intermarché à côté du péage  de l&apos;A7 .</desc>
    <type>Boite à livre</type>
  </wpt>
  <wpt lat="44.39989450000001" lon="4.4011134">
    <name>Hameau La Combe</name>
    <cmt>Amenity::entertainment:public_bookcase</cmt>
    <desc>Le Livre Vagabond. Cabine téléphonique aménagée</desc>
    <type>Boite à livre</type>
  </wpt>
  <wpt lat="45.92155500000001" lon="6.396065">
    <name>Route de la Clusaz</name>
    <cmt>Amenity::entertainment:public_bookcase</cmt>
    <desc>Boite à livres placée dans l abribus situé devant l Office de Tourisme</desc>
    <type>Boite à livre</type>
  </wpt>
  <wpt lat="45.203675099999984" lon="4.8162442">
    <name>1 Place de la Mariette</name>
    <cmt>Amenity::entertainment:public_bookcase</cmt>
    <desc>Derrière le mur, à droite en se garant sur le parking</desc>
    <type>Boite à livre</type>
  </wpt>
  <wpt lat="45.81115230000001" lon="4.852778099999999">
    <name>Place du Vernay</name>
    <cmt>Amenity::entertainment:public_bookcase</cmt>
    <type>Boite à livre</type>
  </wpt>
  <wpt lat="45.49587929999999" lon="5.1504752">
    <name>108 chemin du Reposu</name>
    <cmt>Amenity::entertainment:public_bookcase</cmt>
    <desc>Devant le magasin  Un coin de terroir se trouvent plusieurs frigos contenant livres, CD et cassettes vidéo</desc>
    <type>Boite à livre</type>
  </wpt>
  <wpt lat="45.9432128" lon="6.1377294000000004">
    <name>route du Barrioz</name>
    <cmt>Amenity::entertainment:public_bookcase</cmt>
    <desc>Située dans une ancienne cabine téléphonique face à la mairie.</desc>
    <type>Boite à livre</type>
  </wpt>
  <wpt lat="45.761340000000004" lon="4.7768139">
    <name>Place Hyppolite Péragut</name>
    <cmt>Amenity::entertainment:public_bookcase</cmt>
    <type>Boite à livre</type>
  </wpt>
  <wpt lat="45.89037033985486" lon="6.241489648818971">
    <name>Route du Château</name>
    <cmt>Amenity::entertainment:public_bookcase</cmt>
    <desc>Sur le chemin de l école</desc>
    <type>Boite à livre</type>
  </wpt>
  <wpt lat="46.03855619999999" lon="4.058272">
    <name>rue Mulsant</name>
    <cmt>Amenity::entertainment:public_bookcase</cmt>
    <desc>Dans le Jardin des Senteurs</desc>
    <type>Boite à livre</type>
  </wpt>
  <wpt lat="45.3651054" lon="4.804886799999999">
    <name>Avenue Jean Jaurès, centre social</name>
    <cmt>Amenity::entertainment:public_bookcase</cmt>
    <desc>Grande boîte, avec un grand choix. Elle se trouve devant le centre social</desc>
    <type>Boite à livre</type>
  </wpt>
  <wpt lat="44.361593" lon="4.860011200000001">
    <name>4 Place Frédéric Mistral</name>
    <cmt>Amenity::entertainment:public_bookcase</cmt>
    <desc>La boîte est installée sur la façade de la mairie, sur le côté droit.</desc>
    <type>Boite à livre</type>
  </wpt>
  <wpt lat="46.40118759999998" lon="6.587497399999998">
    <name>place de l&apos;Eglise</name>
    <cmt>Amenity::entertainment:public_bookcase</cmt>
    <type>Boite à livre</type>
  </wpt>
  <wpt lat="44.945069099999984" lon="4.839622399999999">
    <name>Salle du Prieuré</name>
    <cmt>Amenity::entertainment:public_bookcase</cmt>
    <desc>Mignonne boîte à lire dans le halle de la salle du Prieuré.</desc>
    <type>Boite à livre</type>
  </wpt>
  <wpt lat="46.03935439999998" lon="5.408077800000001">
    <name>rue Dr Boccard</name>
    <cmt>Amenity::entertainment:public_bookcase</cmt>
    <desc>Boite à livre située en face de la pharmacie</desc>
    <type>Boite à livre</type>
  </wpt>
  <wpt lat="45.83132899999998" lon="4.0124339">
    <name>2 place de Verdun</name>
    <cmt>Amenity::entertainment:public_bookcase</cmt>
    <type>Boite à livre</type>
  </wpt>
  <wpt lat="45.3903813" lon="5.3540136">
    <name>Route de la Côte St André</name>
    <cmt>Amenity::entertainment:public_bookcase</cmt>
    <desc>Quelques étagères contre la salle de la Petite Gare à côté de la caserne des pompiers</desc>
    <type>Boite à livre</type>
  </wpt>
  <wpt lat="45.79041969492395" lon="4.997706413269043">
    <name>Chemin de contre-halage</name>
    <cmt>Amenity::entertainment:public_bookcase</cmt>
    <desc>En contrebas de la rue Dugay-Trouin, sur le chemin de contre-halage.</desc>
    <type>Boite à livre</type>
  </wpt>
  <wpt lat="45.749992799999994" lon="6.2541651">
    <name>Route du Bourgeal, la Mairie</name>
    <cmt>Amenity::entertainment:public_bookcase</cmt>
    <desc>Très jolie boite à livres située à l abris devant la Mairie</desc>
    <type>Boite à livre</type>
  </wpt>
  <wpt lat="45.8667479" lon="5.943845799999999">
    <name>Place Croisollet</name>
    <cmt>Amenity::entertainment:public_bookcase</cmt>
    <desc>Mis en place par et devant l&apos;espace Croisollet</desc>
    <type>Boite à livre</type>
  </wpt>
  <wpt lat="44.69918999999998" lon="5.097612999999999">
    <name>Place de la fontaine</name>
    <cmt>Amenity::entertainment:public_bookcase</cmt>
    <desc>Dans l ancienne cabine téléphonique</desc>
    <type>Boite à livre</type>
  </wpt>
  <wpt lat="45.074650699999985" lon="5.66028">
    <name>1662 route du vercors</name>
    <cmt>Amenity::entertainment:public_bookcase</cmt>
    <type>Boite à livre</type>
  </wpt>
  <wpt lat="45.834960499999994" lon="4.8464489">
    <name>52 Rue Gambetta</name>
    <cmt>Amenity::entertainment:public_bookcase</cmt>
    <desc>Boite à lire sur la place, devant le terrain de jeu, proche de la poste.</desc>
    <type>Boite à livre</type>
  </wpt>
  <wpt lat="46.1918681" lon="5.396082">
    <name>place de la mairie</name>
    <cmt>Amenity::entertainment:public_bookcase</cmt>
    <desc>Boite à lire située dans l abri bus</desc>
    <type>Boite à livre</type>
  </wpt>
  <wpt lat="45.72979010000001" lon="4.742817900000001">
    <name>3 Chemin du Fort</name>
    <cmt>Amenity::entertainment:public_bookcase</cmt>
    <desc>Boite à Lire accessible à tous à proximité du Marché et du Parc du Grillon. Réalisée par les Services Techniques municipaux et décorée par l artiste Mlle Terite.</desc>
    <type>Boite à livre</type>
  </wpt>
  <wpt lat="45.7558726" lon="4.8478133">
    <name>249 rue Vendome</name>
    <cmt>Amenity::entertainment:public_bookcase</cmt>
    <desc>devant l entrée de la MJC - salle des Rancy</desc>
    <type>Boite à livre</type>
  </wpt>
  <wpt lat="45.765721699999986" lon="4.7773353">
    <name>Gare d’Ecully-La-Demi-Lune</name>
    <cmt>Amenity::entertainment:public_bookcase</cmt>
    <type>Boite à livre</type>
  </wpt>
  <wpt lat="45.35909650000001" lon="5.606334699999999">
    <name>445 route du guillon à peu près</name>
    <cmt>Amenity::entertainment:public_bookcase</cmt>
    <desc>En face du stade de la dalmassiere et de l entrée de la MFR.</desc>
    <type>Boite à livre</type>
  </wpt>
  <wpt lat="46.1523291" lon="6.159059600000002">
    <name>Place de l?église</name>
    <cmt>Amenity::entertainment:public_bookcase</cmt>
    <desc>Boite située auprès de l?église</desc>
    <type>Boite à livre</type>
  </wpt>
  <wpt lat="45.766478899999996" lon="6.34553">
    <name>Route de la Flamme Olympique, Marlens</name>
    <cmt>Amenity::entertainment:public_bookcase</cmt>
    <desc>Grande boite à livres située dans l?ancien local à poubelles à coté du « banc du droit » et de la fontaine.</desc>
    <type>Boite à livre</type>
  </wpt>
  <wpt lat="45.7439344" lon="4.792232">
    <name>Chemin des Prés</name>
    <cmt>Amenity::entertainment:public_bookcase</cmt>
    <desc>Boîte à lire installée par la Mairie  construite par des élèves du collège de Ste-Foy-les-Lyon.</desc>
    <type>Boite à livre</type>
  </wpt>
  <wpt lat="45.90476" lon="5.678445">
    <name>place Brillat Savarin</name>
    <cmt>Amenity::entertainment:public_bookcase</cmt>
    <desc>dans la maison de pays rez de chaussée derrière les clostrats</desc>
    <type>Boite à livre</type>
  </wpt>
  <wpt lat="45.1296193" lon="5.6956024">
    <name>10 rue Mozart</name>
    <cmt>Amenity::entertainment:public_bookcase</cmt>
    <desc>sur la façade de la crèche Françoise Dolto</desc>
    <type>Boite à livre</type>
  </wpt>
  <wpt lat="45.685734499999995" lon="6.1365957">
    <name>Place René Cassin</name>
    <cmt>Amenity::entertainment:public_bookcase</cmt>
    <desc>Boîte à lire dans ancienne cabine téléphonique devant la poste</desc>
    <type>Boite à livre</type>
  </wpt>
  <wpt lat="45.191946399999985" lon="5.716880099999999">
    <name>place doyen gosse</name>
    <cmt>Amenity::entertainment:public_bookcase</cmt>
    <desc>accessible qu&apos;en période scolaire...</desc>
    <type>Boite à livre</type>
  </wpt>
  <wpt lat="45.4897022" lon="4.449592">
    <name>Parc Benoit Lauras</name>
    <cmt>Amenity::entertainment:public_bookcase</cmt>
    <desc>A l angle de l impasse du Parc, à l intérieur du parc</desc>
    <type>Boite à livre</type>
  </wpt>
  <wpt lat="45.67649044149504" lon="5.470531582832338">
    <name>100 Place des Halles</name>
    <cmt>Amenity::entertainment:public_bookcase</cmt>
    <desc>Petite boite à lire sous les halles</desc>
    <type>Boite à livre</type>
  </wpt>
  <wpt lat="45.991471" lon="4.718821">
    <name>Place des Arts</name>
    <cmt>Amenity::entertainment:public_bookcase</cmt>
    <type>Boite à livre</type>
  </wpt>
  <wpt lat="45.77642009999999" lon="4.8059408">
    <name>9 Rue Roquette</name>
    <cmt>Amenity::entertainment:public_bookcase</cmt>
    <desc>Devant le Centre Social et Culturel Pierrette Augier Lyon-Vaise</desc>
    <type>Boite à livre</type>
  </wpt>
  <wpt lat="45.58287000000001" lon="5.951278">
    <name>Route de Chesses</name>
    <cmt>Amenity::entertainment:public_bookcase</cmt>
    <type>Boite à livre</type>
  </wpt>
  <wpt lat="45.449809099999996" lon="4.8723182">
    <name>Place Arélis</name>
    <cmt>Amenity::entertainment:public_bookcase</cmt>
    <desc>Boîte à livres à étages. Se trouve devant la mairie</desc>
    <type>Boite à livre</type>
  </wpt>
  <wpt lat="45.713922299999986" lon="6.1063459">
    <name>D911</name>
    <cmt>Amenity::entertainment:public_bookcase</cmt>
    <desc>A côté de la poste dans une ancienne cabine téléphonique</desc>
    <type>Boite à livre</type>
  </wpt>
  <wpt lat="46.30454269999999" lon="6.441912499999999">
    <name>Place des Fontaines</name>
    <cmt>Amenity::entertainment:public_bookcase</cmt>
    <desc>Ancienne cabine téléphonique</desc>
    <type>Boite à livre</type>
  </wpt>
  <wpt lat="45.884086599999996" lon="6.103499000000001">
    <name>École Primaire des Cordeliers</name>
    <cmt>Amenity::entertainment:public_bookcase</cmt>
    <desc>Boîte en libre accès située devant l école.</desc>
    <type>Boite à livre</type>
  </wpt>
  <wpt lat="45.80343189999998" lon="4.8265165">
    <name>31 rue Claude Le Laboureur</name>
    <cmt>Amenity::entertainment:public_bookcase</cmt>
    <desc>J ai installé cette boite en 2018.</desc>
    <type>Boite à livre</type>
  </wpt>
  <wpt lat="45.96024099999999" lon="4.6481347">
    <name>18 Route de Theizé</name>
    <cmt>Amenity::entertainment:public_bookcase</cmt>
    <desc>Boite à lire sur la place entre le coiffeur et le restaurant la bascule</desc>
    <type>Boite à livre</type>
  </wpt>
  <wpt lat="45.927805000000006" lon="4.6034254">
    <name>rue pierre poitrasson</name>
    <cmt>Amenity::entertainment:public_bookcase</cmt>
    <desc>situé sur la place devant la chapelle, en face de l église.Un joli frigo recyclé en Biblio-Moiré.</desc>
    <type>Boite à livre</type>
  </wpt>
  <wpt lat="45.618070999999986" lon="6.146022">
    <name>Chemin des Contours, Epernay</name>
    <cmt>Amenity::entertainment:public_bookcase</cmt>
    <desc>La boîte à livres installée dans l?abribus à l?intersection de la Route des Bauges D911 et du Chemin des Contours.</desc>
    <type>Boite à livre</type>
  </wpt>
  <wpt lat="45.8163555" lon="6.0186852">
    <name>bourg</name>
    <cmt>Amenity::entertainment:public_bookcase</cmt>
    <type>Boite à livre</type>
  </wpt>
  <wpt lat="45.01331509999999" lon="4.844150499999999">
    <name>Place de la mairie</name>
    <cmt>Amenity::entertainment:public_bookcase</cmt>
    <desc>Boîte à livre dans une ancienne cabine téléphonique</desc>
    <type>Boite à livre</type>
  </wpt>
  <wpt lat="45.76034259999999" lon="4.771071000000002">
    <name>35 Avenue du 8 Mai 1945</name>
    <cmt>Amenity::entertainment:public_bookcase</cmt>
    <type>Boite à livre</type>
  </wpt>
  <wpt lat="46.168694799999976" lon="6.1198042">
    <name>Place des aviateurs</name>
    <cmt>Amenity::entertainment:public_bookcase</cmt>
    <type>Boite à livre</type>
  </wpt>
  <wpt lat="46.270803859356526" lon="5.089792013168336">
    <name>mairie</name>
    <cmt>Amenity::entertainment:public_bookcase</cmt>
    <desc>abri arrêt de bus</desc>
    <type>Boite à livre</type>
  </wpt>
  <wpt lat="45.079913699999985" lon="5.7352486">
    <name>132 avenue du Pavillon</name>
    <cmt>Amenity::entertainment:public_bookcase</cmt>
    <desc>Elle se trouve dans la pharmacie. C est une petite caisse en rentrant à gauche.</desc>
    <type>Boite à livre</type>
  </wpt>
  <wpt lat="46.084872000000004" lon="3.9825350000000004">
    <name>80-92 Rue de Trebande</name>
    <cmt>Amenity::entertainment:public_bookcase</cmt>
    <desc>Située à gauche du magasin Vival.</desc>
    <type>Boite à livre</type>
  </wpt>
  <wpt lat="45.5668602" lon="5.9192471">
    <name>Place de Genève</name>
    <cmt>Amenity::entertainment:public_bookcase</cmt>
    <desc>À l entrée du marché couvert  Halles de Chambéry.Opérée par les bénévoles de Savoie Récup</desc>
    <type>Boite à livre</type>
  </wpt>
  <wpt lat="45.3338231" lon="5.5691237">
    <name>route de Saint-Jean</name>
    <cmt>Amenity::entertainment:public_bookcase</cmt>
    <desc>A la sortie du parking de Carrefour Market, en direction de Coublevie</desc>
    <type>Boite à livre</type>
  </wpt>
  <wpt lat="45.1760543" lon="4.8159649">
    <name>Avenue Désiré Valette</name>
    <cmt>Amenity::entertainment:public_bookcase</cmt>
    <desc>Dans le hall du cinéma Le Galaure</desc>
    <type>Boite à livre</type>
  </wpt>
  <wpt lat="45.76987099999999" lon="5.191718999999999">
    <name>rue de la bourbre</name>
    <cmt>Amenity::entertainment:public_bookcase</cmt>
    <desc>La boite est devant le magasin Vival !</desc>
    <type>Boite à livre</type>
  </wpt>
  <wpt lat="45.705593699999994" lon="5.9085354">
    <name>Rue Docteur François Gaillard</name>
    <cmt>Amenity::entertainment:public_bookcase</cmt>
    <desc>Une des 10 cabanes à livres d Aix les Bains se trouve devant la mairie de quartier du Sierroz.</desc>
    <type>Boite à livre</type>
  </wpt>
  <wpt lat="45.66765800000001" lon="5.899918">
    <name>Chemin de Belledonne</name>
    <cmt>Amenity::entertainment:public_bookcase</cmt>
    <desc>Dans le parc        à côté de la Mairie</desc>
    <type>Boite à livre</type>
  </wpt>
  <wpt lat="45.47550089999998" lon="4.3499388">
    <name>Chemin de Montravel</name>
    <cmt>Amenity::entertainment:public_bookcase</cmt>
    <desc>A l&apos;intérieur du centre commercial Auchan, près de l&apos;entrée de la cafet</desc>
    <type>Boite à livre</type>
  </wpt>
  <wpt lat="45.790298299999996" lon="4.611887">
    <name>Place de l église</name>
    <cmt>Amenity::entertainment:public_bookcase</cmt>
    <desc>Il s agit d&apos;une jolie cabine téléphonique.</desc>
    <type>Boite à livre</type>
  </wpt>
  <wpt lat="46.537387699999975" lon="6.606413900000001">
    <name>Route du chasseur</name>
    <cmt>Amenity::entertainment:public_bookcase</cmt>
    <desc>Boîte à livre située sur une esplanade en herbe près du collège de l&apos;union.</desc>
    <type>Boite à livre</type>
  </wpt>
  <wpt lat="45.89344369999999" lon="4.8439">
    <name>mairie</name>
    <cmt>Amenity::entertainment:public_bookcase</cmt>
    <desc>boite à côté de la mairie bien remplie la bibliothèque  met quelques livres des fois</desc>
    <type>Boite à livre</type>
  </wpt>
  <wpt lat="45.94051894662554" lon="4.769176840782167">
    <name>194 avenue du docteur Bollet</name>
    <cmt>Amenity::entertainment:public_bookcase</cmt>
    <desc>située à l entrée du parking, côté rond point</desc>
    <type>Boite à livre</type>
  </wpt>
  <wpt lat="45.502093299999984" lon="6.5087279">
    <name>Maison de santé</name>
    <cmt>Amenity::entertainment:public_bookcase</cmt>
    <desc>A l étage</desc>
    <type>Boite à livre</type>
  </wpt>
  <wpt lat="45.53854947871805" lon="5.708878040313721">
    <name>rue du chef lieu</name>
    <cmt>Amenity::entertainment:public_bookcase</cmt>
    <desc>Prés de la mairie, devant l ecole. Réalisée par l&apos;équipe de la bibliothèque de Domessin dans le cadre d&apos;un projet mené par le syndicat mixte de l&apos;Avant Pays Savoyard</desc>
    <type>Boite à livre</type>
  </wpt>
  <wpt lat="45.92188949999999" lon="4.8801748">
    <name>20 Route du Chanay</name>
    <cmt>Amenity::entertainment:public_bookcase</cmt>
    <desc>C?est une grande étagère a côté du parking en face du boulanger</desc>
    <type>Boite à livre</type>
  </wpt>
  <wpt lat="44.6651663" lon="4.3648835">
    <name>Mairie</name>
    <cmt>Amenity::entertainment:public_bookcase</cmt>
    <type>Boite à livre</type>
  </wpt>
  <wpt lat="46.35043580000001" lon="6.3327432">
    <name>Rue du lavoire</name>
    <cmt>Amenity::entertainment:public_bookcase</cmt>
    <desc>Étagère placée dans l ancien lavoire.</desc>
    <type>Boite à livre</type>
  </wpt>
  <wpt lat="45.12674899999998" lon="5.527561000000001">
    <name>Place du village</name>
    <cmt>Amenity::entertainment:public_bookcase</cmt>
    <desc>Une boîte à livre dans une cabine téléphonique</desc>
    <type>Boite à livre</type>
  </wpt>
  <wpt lat="45.53384319999998" lon="5.7498188">
    <name>route du lac</name>
    <cmt>Amenity::entertainment:public_bookcase</cmt>
    <desc>Dans le batiment de l ecole de musique et de la poste en plein centre du village, et donc a l&apos;abri.</desc>
    <type>Boite à livre</type>
  </wpt>
  <wpt lat="45.77633099999999" lon="4.8109559">
    <name>35 quai Joseph Gillet</name>
    <cmt>Amenity::entertainment:public_bookcase</cmt>
    <desc>À l entrée du Petit Parc Serin</desc>
    <type>Boite à livre</type>
  </wpt>
  <wpt lat="45.7679787" lon="4.8195187">
    <name>14 quai Saint Vincent</name>
    <cmt>Amenity::entertainment:public_bookcase</cmt>
    <desc>Cette boite a Livre est situé dans l aire de jeux.Sur la grille du fond.</desc>
    <type>Boite à livre</type>
  </wpt>
  <wpt lat="44.73082070000001" lon="5.015291">
    <name>Place Soljenitsyne</name>
    <cmt>Amenity::entertainment:public_bookcase</cmt>
    <desc>A l&apos;intérieur du hall de la médiathèque</desc>
    <type>Boite à livre</type>
  </wpt>
  <wpt lat="45.491245" lon="5.3874019">
    <name>2 rue des Halles</name>
    <cmt>Amenity::entertainment:public_bookcase</cmt>
    <desc>Juste en face de la halle, dans une ancienne cabine publique</desc>
    <type>Boite à livre</type>
  </wpt>
  <wpt lat="46.11876899999999" lon="4.9565037">
    <name>40 place des halles</name>
    <cmt>Amenity::entertainment:public_bookcase</cmt>
    <desc>grande cabane à livres juste devant la crèche, en face des halles</desc>
    <type>Boite à livre</type>
  </wpt>
  <wpt lat="46.194544499999985" lon="6.2371938">
    <name>parc Olympe de Gouges</name>
    <cmt>Amenity::entertainment:public_bookcase</cmt>
    <desc>Boite installée par la Ville d Annemasse en 2016.</desc>
    <type>Boite à livre</type>
  </wpt>
  <wpt lat="45.477698199999985" lon="5.0993317000000005">
    <name>Le Village</name>
    <cmt>Amenity::entertainment:public_bookcase</cmt>
    <desc>Le Livre-service monté dans une cabine téléphonique,  super idée et bien achalandé!En plein centre du village près du four à pizza</desc>
    <type>Boite à livre</type>
  </wpt>
  <wpt lat="45.483099" lon="4.7887667">
    <name>chemin de Gravières</name>
    <cmt>Amenity::entertainment:public_bookcase</cmt>
    <desc>A l angle route de Lyon et chemin des gravière</desc>
    <type>Boite à livre</type>
  </wpt>
  <wpt lat="45.191462999999985" lon="5.7145295">
    <name>1 place de la Gare</name>
    <cmt>Amenity::entertainment:public_bookcase</cmt>
    <desc>Bibliothèque partagée en gare de Grenoble. Très pratique quand on a oublié son livre pour voyager !</desc>
    <type>Boite à livre</type>
  </wpt>
  <wpt lat="45.79738359999999" lon="4.2803368">
    <name>Place de l église</name>
    <cmt>Amenity::entertainment:public_bookcase</cmt>
    <desc>Elle est située en face du parking de l église à proximité de la mairie.</desc>
    <type>Boite à livre</type>
  </wpt>
  <wpt lat="44.61073600000001" lon="4.410715">
    <name>970 Route de Montélimar</name>
    <cmt>Amenity::entertainment:public_bookcase</cmt>
    <desc>La boîte est sur le mur d entrée à l&apos;extérieur de la Biocoop  Les Gatobio, zone  commerciale  Les Terres de Millets. Une soixantaines de livres, avec beaucoup de nouveautés...</desc>
    <type>Boite à livre</type>
  </wpt>
  <wpt lat="45.8817956" lon="6.322448300000001">
    <name>Place Avet</name>
    <cmt>Amenity::entertainment:public_bookcase</cmt>
    <desc>Librairie Papeterie des Aravis. Sur la façade de la librairie.</desc>
    <type>Boite à livre</type>
  </wpt>
  <wpt lat="46.295383499999986" lon="5.6819093">
    <name>1 Place de la Mairie</name>
    <cmt>Amenity::entertainment:public_bookcase</cmt>
    <desc>La boîte est accrochée à un lampadaire devant la mairie.</desc>
    <type>Boite à livre</type>
  </wpt>
  <wpt lat="46.0440973" lon="4.0366106">
    <name>Rue Jules Faron</name>
    <cmt>Amenity::entertainment:public_bookcase</cmt>
    <desc>Parc Dolto, entre le centre social et centre petite enfance</desc>
    <type>Boite à livre</type>
  </wpt>
  <wpt lat="45.34201999999999" lon="5.974206">
    <name>Gare de Goncelin</name>
    <cmt>Amenity::entertainment:public_bookcase</cmt>
    <desc>Dans le hall de la gare, 3 petites étagères.Accessible seulement aux horaires d&apos;ouverture du hall.</desc>
    <type>Boite à livre</type>
  </wpt>
  <wpt lat="44.53109099999999" lon="4.748962">
    <name>Boulevard du Président Albert Lebrun</name>
    <cmt>Amenity::entertainment:public_bookcase</cmt>
    <desc>Dans le hall d&apos;antrée</desc>
    <type>Boite à livre</type>
  </wpt>
  <wpt lat="46.382953999999984" lon="5.346038">
    <name>Coligny centre</name>
    <cmt>Amenity::entertainment:public_bookcase</cmt>
    <desc>Au centre de la ville sur la grande place niveau parking dans un renfoncement du mur.</desc>
    <type>Boite à livre</type>
  </wpt>
  <wpt lat="45.25557990000001" lon="5.0285125">
    <name>353 rue Etienne Vassy</name>
    <cmt>Amenity::entertainment:public_bookcase</cmt>
    <desc>Située à l entrée du parking P2 du Palais idéal, sous les arbres.</desc>
    <type>Boite à livre</type>
  </wpt>
  <wpt lat="45.32085270000002" lon="5.2299247">
    <name>542 Route du Tramway</name>
    <cmt>Amenity::entertainment:public_bookcase</cmt>
    <desc>Un grand congélateur à tiroirs devant la mairie</desc>
    <type>Boite à livre</type>
  </wpt>
  <wpt lat="46.1936266" lon="6.2313368">
    <name>Parc Montessuit</name>
    <cmt>Amenity::entertainment:public_bookcase</cmt>
    <desc>La boite à livres est une belle étagère en bois protégée de la pluie, située dans le parc Montessuit</desc>
    <type>Boite à livre</type>
  </wpt>
  <wpt lat="45.760268199999985" lon="4.8330347">
    <name>Rue Jean Fabre</name>
    <cmt>Amenity::entertainment:public_bookcase</cmt>
    <desc>La boite à livre se trouve juste à côté du jardin d&apos;enfant. Elle est tournée vers la place des Jacobins</desc>
    <type>Boite à livre</type>
  </wpt>
  <wpt lat="45.86365969999999" lon="6.1413965">
    <name>Route de l église</name>
    <cmt>Amenity::entertainment:public_bookcase</cmt>
    <desc>Située à quelques dizaines de mètres devant l église.</desc>
    <type>Boite à livre</type>
  </wpt>
  <wpt lat="45.801463799999986" lon="4.8628898">
    <name>Chemin de Crépieux, près du parking public</name>
    <cmt>Amenity::entertainment:public_bookcase</cmt>
    <type>Boite à livre</type>
  </wpt>
  <wpt lat="45.93107299999998" lon="6.106563">
    <name>Aeroport annecy mont-blanc</name>
    <cmt>Amenity::entertainment:public_bookcase</cmt>
    <desc>A l?extérieur du restaurant L Envol</desc>
    <type>Boite à livre</type>
  </wpt>
  <wpt lat="44.85585549999998" lon="4.8384315">
    <name>Camping de charme sur Rhône</name>
    <cmt>Amenity::entertainment:public_bookcase</cmt>
    <type>Boite à livre</type>
  </wpt>
  <wpt lat="45.68622520000001" lon="6.3951875000000005">
    <name>2 route de la biolle</name>
    <cmt>Amenity::entertainment:public_bookcase</cmt>
    <desc>Placée à l abris entre la mairie et la salle polyvalente, c&apos;est une bonne idée de la part de la mairie de Pallud.</desc>
    <type>Boite à livre</type>
  </wpt>
  <wpt lat="45.4320139" lon="6.021197699999999">
    <name>1 Avenue de la Gare</name>
    <cmt>Amenity::entertainment:public_bookcase</cmt>
    <desc>Une étagère dans le hall de la gare. Donc accessible selon les horaires du bâtiment.</desc>
    <type>Boite à livre</type>
  </wpt>
  <wpt lat="45.962628799999976" lon="5.344032500000001">
    <name>1 avenue de Mering</name>
    <cmt>Amenity::entertainment:public_bookcase</cmt>
    <desc>Au coin de la piscine</desc>
    <type>Boite à livre</type>
  </wpt>
  <wpt lat="45.840580028127846" lon="4.835143089294434">
    <name>Ecole</name>
    <cmt>Amenity::entertainment:public_bookcase</cmt>
    <desc>Devant l&apos;entrée de l&apos;école sur la droite. Du choix de temps en  temps.</desc>
    <type>Boite à livre</type>
  </wpt>
  <wpt lat="46.07773209999999" lon="5.3769412">
    <name>17 rue du Port</name>
    <cmt>Amenity::entertainment:public_bookcase</cmt>
    <desc>Boîte à lire + panier à objets de l&apos;association Les Objets Voyageurs. Livres pour petits et grands, panier garni de jouets. Venez vous servir ! La boîte est au fond d&apos;une impasse, mais vous avez le droit d&apos;y accéder.</desc>
    <type>Boite à livre</type>
  </wpt>
  <wpt lat="45.21060789999999" lon="5.7595177">
    <name>Place Charles de Gaulle</name>
    <cmt>Amenity::entertainment:public_bookcase</cmt>
    <desc>Boite réalisée par la ville de Corenc.</desc>
    <type>Boite à livre</type>
  </wpt>
  <wpt lat="45.50584311960757" lon="6.567807197570803">
    <name>Route de notre-Dame-du-Pré, Les Plaines</name>
    <cmt>Amenity::entertainment:public_bookcase</cmt>
    <desc>Livres posés sur le banc de l&apos;abribus au lieu-dit Les Plaines</desc>
    <type>Boite à livre</type>
  </wpt>
  <wpt lat="45.85264699999999" lon="4.583328">
    <name>Place des terreaux</name>
    <cmt>Amenity::entertainment:public_bookcase</cmt>
    <desc>Une ancienne cabine téléphonique transformée en boite à livres !</desc>
    <type>Boite à livre</type>
  </wpt>
  <wpt lat="46.011068888067946" lon="5.992548465728761">
    <name>23 route de marlioz</name>
    <cmt>Amenity::entertainment:public_bookcase</cmt>
    <desc>Au rond point de  Bonlieu, devant le magasin Aux caprices des saisons</desc>
    <type>Boite à livre</type>
  </wpt>
  <wpt lat="45.72623799999998" lon="6.299653">
    <name>face à la mairie</name>
    <cmt>Amenity::entertainment:public_bookcase</cmt>
    <desc>Située dans l&apos;arrêt de car face à la mairie.</desc>
    <type>Boite à livre</type>
  </wpt>
  <wpt lat="44.5325159" lon="4.7479083">
    <name>CARREFOUR Rond Point des Présidents</name>
    <cmt>Amenity::entertainment:public_bookcase</cmt>
    <desc>Dans la galerie marchande de Carrefour</desc>
    <type>Boite à livre</type>
  </wpt>
  <wpt lat="44.505921199999996" lon="4.2887977">
    <name>Abri bus, vers le centre, à côté de l ASA</name>
    <cmt>Amenity::entertainment:public_bookcase</cmt>
    <type>Boite à livre</type>
  </wpt>
  <wpt lat="45.804384599999985" lon="4.8836609">
    <name>place Canellas</name>
    <cmt>Amenity::entertainment:public_bookcase</cmt>
    <desc>Boite à Livre de Crépieux</desc>
    <type>Boite à livre</type>
  </wpt>
  <wpt lat="45.672343900000016" lon="6.3866025">
    <name>2 rue armand aubry</name>
    <cmt>Amenity::entertainment:public_bookcase</cmt>
    <desc>Adresse : Parc AubryCode postal : 73200Ville : ALBERTVILLECommentaires : Financée par le Lion s Club de Savoie</desc>
    <type>Boite à livre</type>
  </wpt>
  <wpt lat="45.3899628" lon="5.159258600000001">
    <name>Centre  village</name>
    <cmt>Amenity::entertainment:public_bookcase</cmt>
    <desc>Proche de la mairie</desc>
    <type>Boite à livre</type>
  </wpt>
  <wpt lat="45.7597289" lon="4.870913500000001">
    <name>Place Ferrandiere</name>
    <cmt>Amenity::entertainment:public_bookcase</cmt>
    <type>Boite à livre</type>
  </wpt>
  <wpt lat="44.337926399999986" lon="4.8662342">
    <name>Place de la mairie</name>
    <cmt>Amenity::entertainment:public_bookcase</cmt>
    <desc>Alphabib est une boite a livres géante , dans une cabine téléphonique .... Notre bibliothèque communale associative , la Baume du livre , contrôle régulièrement le fond et l anime</desc>
    <type>Boite à livre</type>
  </wpt>
  <wpt lat="45.732141499999976" lon="4.9132846">
    <name>195 Avenue Franklin Roosevelt</name>
    <cmt>Amenity::entertainment:public_bookcase</cmt>
    <desc>Une initiative des conseils de quartier ! Square George-Sand derrière le commissariat de police</desc>
    <type>Boite à livre</type>
  </wpt>
  <wpt lat="45.950867699999996" lon="5.6115398">
    <name>VIVAL Cormaranche en Bugey</name>
    <cmt>Amenity::entertainment:public_bookcase</cmt>
    <desc>devant le magasin, ouvert sur la rue</desc>
    <type>Boite à livre</type>
  </wpt>
  <wpt lat="46.28342370000001" lon="6.085031999999999">
    <name>rue de villard</name>
    <cmt>Amenity::entertainment:public_bookcase</cmt>
    <desc>près de la nouvelle école</desc>
    <type>Boite à livre</type>
  </wpt>
  <wpt lat="45.661318800000004" lon="4.9030165">
    <name>Rue Jean Macé</name>
    <cmt>Amenity::entertainment:public_bookcase</cmt>
    <desc>Dans le parc proche d Intermarché.</desc>
    <type>Boite à livre</type>
  </wpt>
  <wpt lat="45.68463559999999" lon="5.0462725">
    <name>14 rue de l église</name>
    <cmt>Amenity::entertainment:public_bookcase</cmt>
    <desc>La boite à livre est située dans la partie piétonne de la rue de l église, à l&apos;entrée du bois du baron.</desc>
    <type>Boite à livre</type>
  </wpt>
  <wpt lat="45.511353499999984" lon="6.5943389">
    <name>Auberge La Fruitiere</name>
    <cmt>Amenity::entertainment:public_bookcase</cmt>
    <desc>L&apos;ancienne cabine téléphonique transformée en boîte à lire. Sur le parking de l&apos;auberge La Fruitière.</desc>
    <type>Boite à livre</type>
  </wpt>
  <wpt lat="46.20213999999999" lon="5.431685">
    <name>Route principale</name>
    <cmt>Amenity::entertainment:public_bookcase</cmt>
    <desc>Se trouve dans l abri de bus, dans une armoire.</desc>
    <type>Boite à livre</type>
  </wpt>
  <wpt lat="45.721564" lon="4.781746">
    <name>Parc Naturel de l Yzeron, entrée rue de Merlo, près de l&apos;aire de jeux</name>
    <cmt>Amenity::entertainment:public_bookcase</cmt>
    <desc>Boîte construite et gérée par l Association du Quartier du Merlo, le CILQM. Bienvenue à tous les amateurs de lecture !</desc>
    <type>Boite à livre</type>
  </wpt>
  <wpt lat="45.433101799999996" lon="4.326824500000001">
    <name>rue Gambetta</name>
    <cmt>Amenity::entertainment:public_bookcase</cmt>
    <type>Boite à livre</type>
  </wpt>
  <wpt lat="45.73788219999999" lon="4.852134599999999">
    <name>100 route de Vienne</name>
    <cmt>Amenity::entertainment:public_bookcase</cmt>
    <type>Boite à livre</type>
  </wpt>
  <wpt lat="45.8353621" lon="6.1643923">
    <name>176 route du Laudon</name>
    <cmt>Amenity::entertainment:public_bookcase</cmt>
    <desc>Très belle boite à livres mise en place par Haute-Savoie Habitat et les habitants de la résidence Les Acacias, cette boite est située entre les immeubles Les Acacias</desc>
    <type>Boite à livre</type>
  </wpt>
  <wpt lat="45.9392024" lon="6.121883799999999">
    <name>100 route d Annecy</name>
    <cmt>Amenity::entertainment:public_bookcase</cmt>
    <desc>Située à l entrée du parking de la pharmacie.</desc>
    <type>Boite à livre</type>
  </wpt>
  <wpt lat="46.3525149" lon="6.354174">
    <name>RUE DES ECOLES</name>
    <cmt>Amenity::entertainment:public_bookcase</cmt>
    <type>Boite à livre</type>
  </wpt>
  <wpt lat="45.757460599999995" lon="4.865301">
    <name>Place Sainte Anne</name>
    <cmt>Amenity::entertainment:public_bookcase</cmt>
    <desc>Se trouve devant l entrée du parc</desc>
    <type>Boite à livre</type>
  </wpt>
  <wpt lat="45.91011499999998" lon="6.143825100000002">
    <name>9 rue des Pommaries</name>
    <cmt>Amenity::entertainment:public_bookcase</cmt>
    <desc>Installée par le Lions-Club à l intersection des rue des Pommaries et rue de l&apos;Aurore.</desc>
    <type>Boite à livre</type>
  </wpt>
  <wpt lat="45.224284199999985" lon="5.8982511">
    <name>La Chapelle</name>
    <cmt>Amenity::entertainment:public_bookcase</cmt>
    <desc>Prendre le petit chemin qui part du lieu de collecte des déchets, face à  l école</desc>
    <type>Boite à livre</type>
  </wpt>
  <wpt lat="46.17725179999999" lon="4.8149265">
    <name>Place Georges Agniel</name>
    <cmt>Amenity::entertainment:public_bookcase</cmt>
    <desc>Dans l ancienne cabine téléphonique près de la salle de la Lyre, avant le camping</desc>
    <type>Boite à livre</type>
  </wpt>
  <wpt lat="45.75489039999999" lon="4.812451500000001">
    <name>Place Saint Irénée</name>
    <cmt>Amenity::entertainment:public_bookcase</cmt>
    <type>Boite à livre</type>
  </wpt>
  <wpt lat="45.73665899999999" lon="4.289282">
    <name>Le Bourg</name>
    <cmt>Amenity::entertainment:public_bookcase</cmt>
    <desc>elle est placée sur le parking de l école du petit bourg, elle est double et régulièrement alimentée et visitée.</desc>
    <type>Boite à livre</type>
  </wpt>
  <wpt lat="44.44886379999999" lon="4.5980508">
    <name>Le village - Mairie</name>
    <cmt>Amenity::entertainment:public_bookcase</cmt>
    <desc>Ex extérieur, bien à l abri</desc>
    <type>Boite à livre</type>
  </wpt>
  <wpt lat="45.96717689999999" lon="6.089076200000001">
    <name>4890 route de Ferrières</name>
    <cmt>Amenity::entertainment:public_bookcase</cmt>
    <desc>Boite Lions Club située devant la mairie de Ferrières et tenue par l Association du quartier de Ferrières.</desc>
    <type>Boite à livre</type>
  </wpt>
  <wpt lat="46.234953999999995" lon="6.320762">
    <name>rue des allobroges</name>
    <cmt>Amenity::entertainment:public_bookcase</cmt>
    <desc>Abri avec panneau d affichage et carte de Saint Cergues vers le fleuriste Douceurs Florales</desc>
    <type>Boite à livre</type>
  </wpt>
  <wpt lat="46.106209499999984" lon="3.8936289000000004">
    <name>Le Bourg</name>
    <cmt>Amenity::entertainment:public_bookcase</cmt>
    <desc>Dans le bourg - A cote de l eglise - Entree du magasin Vival.</desc>
    <type>Boite à livre</type>
  </wpt>
  <wpt lat="45.765672199999976" lon="6.307208400000001">
    <name>30 rue de la croix</name>
    <cmt>Amenity::entertainment:public_bookcase</cmt>
    <desc>informelle et a l&apos;abri de la pluie, posez et prenez des livres tout au long de l&apos;annee</desc>
    <type>Boite à livre</type>
  </wpt>
  <wpt lat="45.5759628" lon="5.9725997">
    <name>Rue des Sablons</name>
    <cmt>Amenity::entertainment:public_bookcase</cmt>
    <desc>Devant la boucherie, rive gauche du pont.</desc>
    <type>Boite à livre</type>
  </wpt>
  <wpt lat="45.81707699999998" lon="6.020403">
    <name>16 Place du Trophée</name>
    <cmt>Amenity::entertainment:public_bookcase</cmt>
    <desc>Au café Aux Petits Galets.</desc>
    <type>Boite à livre</type>
  </wpt>