<?xml version='1.0' encoding='UTF-8'?>
<gpx version="1.1" creator="JOSM GPX export" xmlns="http://www.topografix.com/GPX/1/1"
    xmlns:xsi="http://www.w3.org/2001/XMLSchema-instance"
    xsi:schemaLocation="http://www.topografix.com/GPX/1/1 http://www.topografix.com/GPX/1/1/gpx.xsd">
  <metadata>
    <author>
      <name>Binnette</name>
    </author>
    <copyright author="Binnette">
      <year>2020</year>
      <license>MIT</license>
    </copyright>
    <bounds minlat="46.2040359" minlon="2.901637" maxlat="48.3230415" maxlon="7.145531"/>
  </metadata>
  <wpt lat="46.80873" lon="6.64431">
    <name>Rue haute</name>
    <cmt>Amenity::entertainment:public_bookcase</cmt>
    <desc>Petite boîte à lire  cachée dans le  petit passage, dans laquelle j&apos;ai déjà découvert quelques pépites.</desc>
    <type>Boite à livre</type>
  </wpt>
  <wpt lat="47.35950899999999" lon="4.672586">
    <name>Fontette</name>
    <cmt>Amenity::entertainment:public_bookcase</cmt>
    <desc>Dans le lavoir</desc>
    <type>Boite à livre</type>
  </wpt>
  <wpt lat="47.505583400000006" lon="7.0099188">
    <name>21 Avenue du général de Gaulle</name>
    <cmt>Amenity::entertainment:public_bookcase</cmt>
    <desc>Une petite boîte à livres est disponible au café de la gare</desc>
    <type>Boite à livre</type>
  </wpt>
  <wpt lat="47.31695440000001" lon="5.0330557">
    <name>Montée de Guise</name>
    <cmt>Amenity::entertainment:public_bookcase</cmt>
    <desc>C&apos;est avec enthousiasme que les boîtes à livres prennent vie à Dijon. Il s&apos;agit d&apos;un projet collectif mené par les habitants  la municipalité et des associations.</desc>
    <type>Boite à livre</type>
  </wpt>
  <wpt lat="46.927600000000005" lon="6.349001">
    <name>Rue de l&apos;église</name>
    <cmt>Amenity::entertainment:public_bookcase</cmt>
    <desc>Sur le mur proche de l&apos;entrée de l&apos;école primaire</desc>
    <type>Boite à livre</type>
  </wpt>
  <wpt lat="46.841260199999994" lon="4.4321008">
    <name>Le bourg</name>
    <cmt>Amenity::entertainment:public_bookcase</cmt>
    <desc>Cour de la boulangerie face au lac</desc>
    <type>Boite à livre</type>
  </wpt>
  <wpt lat="47.26698629999999" lon="3.1129959">
    <name>14 route de la mairie</name>
    <cmt>Amenity::entertainment:public_bookcase</cmt>
    <desc>C est la mangeoire à livres, située à la mairie et école de Vielmanay.</desc>
    <type>Boite à livre</type>
  </wpt>
  <wpt lat="47.39641879999999" lon="6.672131599999999">
    <name>9, rue des Fontaines</name>
    <cmt>Amenity::entertainment:public_bookcase</cmt>
    <desc>Grande boîte à livres couverte au centre du village.</desc>
    <type>Boite à livre</type>
  </wpt>
  <wpt lat="47.0085965" lon="3.1401484999999996">
    <name>Avenue Maurice Thorez</name>
    <cmt>Amenity::entertainment:public_bookcase</cmt>
    <desc>Boîte située dans le square</desc>
    <type>Boite à livre</type>
  </wpt>
  <wpt lat="46.81136599999999" lon="3.084213900000001">
    <name>Mairie</name>
    <cmt>Amenity::entertainment:public_bookcase</cmt>
    <type>Boite à livre</type>
  </wpt>
  <wpt lat="47.17872380000001" lon="3.0220525">
    <name>Place de L Europe</name>
    <cmt>Amenity::entertainment:public_bookcase</cmt>
    <type>Boite à livre</type>
  </wpt>
  <wpt lat="47.39323900000001" lon="6.497116999999999">
    <name>Rue porte des noyes</name>
    <cmt>Amenity::entertainment:public_bookcase</cmt>
    <desc>Proche camping</desc>
    <type>Boite à livre</type>
  </wpt>
  <wpt lat="47.33722809999998" lon="5.0415076">
    <name>4 Rue des Varennes</name>
    <cmt>Amenity::entertainment:public_bookcase</cmt>
    <desc>C&apos;est avec enthousiasme que les boîtes à livres prennent vie à Dijon. Il s&apos;agit d&apos;un projet collectif mené par les habitants  la municipalité et des associations.</desc>
    <type>Boite à livre</type>
  </wpt>
  <wpt lat="47.25475359999999" lon="6.0334868">
    <name>22 Rue résal</name>
    <cmt>Amenity::entertainment:public_bookcase</cmt>
    <type>Boite à livre</type>
  </wpt>
  <wpt lat="47.740458000000004" lon="3.5999560000000006">
    <name>magasin Atac</name>
    <cmt>Amenity::entertainment:public_bookcase</cmt>
    <desc>A l&apos;entrée  du magasin Atac à  champs sur yonne</desc>
    <type>Boite à livre</type>
  </wpt>
  <wpt lat="46.746873300000004" lon="5.9080314">
    <name>Place Camille  PROST</name>
    <cmt>Amenity::entertainment:public_bookcase</cmt>
    <type>Boite à livre</type>
  </wpt>
  <wpt lat="46.67187390000001" lon="4.6026241">
    <name>Parking face à la mairie</name>
    <cmt>Amenity::entertainment:public_bookcase</cmt>
    <desc>Dans une jolie petit maisonnette de pierre</desc>
    <type>Boite à livre</type>
  </wpt>
  <wpt lat="47.61039299999999" lon="3.1753559000000005">
    <name>Place de la Mairie</name>
    <cmt>Amenity::entertainment:public_bookcase</cmt>
    <desc>Boîte à livres installée par la mairie de Moutiers-en-Puisaye. Tous les livres sont les bienvenus mais n&apos;oubliez pas que cette boîte à livres s&apos;adresse aussi bien aux adultes qu&apos;aux enfants. A bientôt.</desc>
    <type>Boite à livre</type>
  </wpt>
  <wpt lat="46.57602120000001" lon="5.9556826">
    <name>8 place Charles Thevenin</name>
    <cmt>Amenity::entertainment:public_bookcase</cmt>
    <desc>Dans une ancienne cabine téléphonique, à côté de l école de musique.</desc>
    <type>Boite à livre</type>
  </wpt>
  <wpt lat="46.57283279999998" lon="5.438735">
    <name>Place de la Mairie</name>
    <cmt>Amenity::entertainment:public_bookcase</cmt>
    <desc>Boite joliment décorée et entretenue au centre de la place à côté  du monument aux morts.</desc>
    <type>Boite à livre</type>
  </wpt>
  <wpt lat="47.80178729999999" lon="4.0908788">
    <name>43 route nationale</name>
    <cmt>Amenity::entertainment:public_bookcase</cmt>
    <type>Boite à livre</type>
  </wpt>
  <wpt lat="48.184518699999984" lon="3.2790715000000006">
    <name>parc du moulin a tan</name>
    <cmt>Amenity::entertainment:public_bookcase</cmt>
    <type>Boite à livre</type>
  </wpt>
  <wpt lat="47.304077099999986" lon="5.0108822">
    <name>1 rue Eugène Bataillon</name>
    <cmt>Amenity::entertainment:public_bookcase</cmt>
    <desc>Accrochée devant l&apos;école Valendon.</desc>
    <type>Boite à livre</type>
  </wpt>
  <wpt lat="47.13160799999999" lon="4.486624">
    <name>Rue Auguste Dubois</name>
    <cmt>Amenity::entertainment:public_bookcase</cmt>
    <desc>Proche de la pharmacie de la tour.</desc>
    <type>Boite à livre</type>
  </wpt>
  <wpt lat="47.04263189999999" lon="5.4141809">
    <name>11 avenue kennedy</name>
    <cmt>Amenity::entertainment:public_bookcase</cmt>
    <type>Boite à livre</type>
  </wpt>
  <wpt lat="47.104943" lon="3.512034">
    <name>Rue du commerce</name>
    <cmt>Amenity::entertainment:public_bookcase</cmt>
    <desc>Réalisée par les jeunes, en partenariat avec la municipalité de St-Saulge et la bibliothèque, cette boîte à livres est à disposition de tous depuis l été 2016. C&apos;est la 2ème boîte à livres de la commune, l&apos;autre étant située Parc du Clos.</desc>
    <type>Boite à livre</type>
  </wpt>
  <wpt lat="46.305744399999995" lon="4.78553">
    <name>Place de l Abbé Antoine Ferret</name>
    <cmt>Amenity::entertainment:public_bookcase</cmt>
    <type>Boite à livre</type>
  </wpt>
  <wpt lat="47.61304559999999" lon="6.146451199999999">
    <name>Allée George Brassens</name>
    <cmt>Amenity::entertainment:public_bookcase</cmt>
    <desc>Boîte à lire dans une ancienne cabine téléphonique. Situer juste avant l&apos;air de jeux avec la table de ping-pong ??</desc>
    <type>Boite à livre</type>
  </wpt>
  <wpt lat="47.486647199999986" lon="6.925100600000001">
    <name>7 Passage Roger Salengro</name>
    <cmt>Amenity::entertainment:public_bookcase</cmt>
    <desc>A l entrée de la mairie, tout de suite à droite en bas de l&apos;escalier.</desc>
    <type>Boite à livre</type>
  </wpt>
  <wpt lat="47.230939299999996" lon="6.033395800000001">
    <name>Parc saint Étienne</name>
    <cmt>Amenity::entertainment:public_bookcase</cmt>
    <type>Boite à livre</type>
  </wpt>
  <wpt lat="47.63379599999999" lon="6.841792500000001">
    <name>Rue de Bruxelles</name>
    <cmt>Amenity::entertainment:public_bookcase</cmt>
    <type>Boite à livre</type>
  </wpt>
  <wpt lat="47.32643189999999" lon="5.0201399">
    <name>rue des Marmuzots</name>
    <cmt>Amenity::entertainment:public_bookcase</cmt>
    <type>Boite à livre</type>
  </wpt>
  <wpt lat="46.69180199999999" lon="5.370739000000001">
    <name>stade</name>
    <cmt>Amenity::entertainment:public_bookcase</cmt>
    <desc>petit chalet sortie de saillenard à gauche avant le stade, direction beaurepaire</desc>
    <type>Boite à livre</type>
  </wpt>
  <wpt lat="47.632380699999985" lon="6.1078871999999995">
    <name>2 Avenue des Rives du Lac</name>
    <cmt>Amenity::entertainment:public_bookcase</cmt>
    <desc>Située devant le restaurant, côté lac.</desc>
    <type>Boite à livre</type>
  </wpt>
  <wpt lat="47.32223309999999" lon="5.0423871">
    <name>Square des Ducs de Bourgogne</name>
    <cmt>Amenity::entertainment:public_bookcase</cmt>
    <desc>C&apos;est avec enthousiasme que les boîtes à livres prennent vie à Dijon. Il s&apos;agit projet collectif mené par les habitants  les associations et la municipalité.</desc>
    <type>Boite à livre</type>
  </wpt>
  <wpt lat="46.593085999999985" lon="4.07141">
    <name>Rue Rouget de Lisle</name>
    <cmt>Amenity::entertainment:public_bookcase</cmt>
    <desc>Toujours bien remplie et accessible très facilement , avec un banc juste à côté pour consulter, hésiter et choisir !</desc>
    <type>Boite à livre</type>
  </wpt>
  <wpt lat="47.6410706" lon="6.8386549">
    <name>Avenue du château d eau</name>
    <cmt>Amenity::entertainment:public_bookcase</cmt>
    <desc>Devant le centre culturel</desc>
    <type>Boite à livre</type>
  </wpt>
  <wpt lat="47.34207949999999" lon="5.9778454000000005">
    <name>Impasse de Bataille</name>
    <cmt>Amenity::entertainment:public_bookcase</cmt>
    <desc>Dans l abri de bus en bois,en face de l&apos;impasse Bataille</desc>
    <type>Boite à livre</type>
  </wpt>
  <wpt lat="47.42048379999998" lon="5.931914399999999">
    <name>Mairie oiselay</name>
    <cmt>Amenity::entertainment:public_bookcase</cmt>
    <desc>Place de la mairie</desc>
    <type>Boite à livre</type>
  </wpt>
  <wpt lat="46.65275700000001" lon="5.486366000000001">
    <name>Rue Prosper Sordet</name>
    <cmt>Amenity::entertainment:public_bookcase</cmt>
    <desc>Sur le mur de la mairie. A l&apos;initiative du Lions Club</desc>
    <type>Boite à livre</type>
  </wpt>
  <wpt lat="47.2914468" lon="5.7740984">
    <name>2 Rue de la Fontaine des Douis</name>
    <cmt>Amenity::entertainment:public_bookcase</cmt>
    <desc>Parking et parc de jeux en face de la Gendarmerie</desc>
    <type>Boite à livre</type>
  </wpt>
  <wpt lat="46.778614" lon="4.845121">
    <name>Place de la gare</name>
    <cmt>Amenity::entertainment:public_bookcase</cmt>
    <desc>Dans la salle d attente de la gare</desc>
    <type>Boite à livre</type>
  </wpt>
  <wpt lat="47.3199669" lon="5.0443205">
    <name>ue Legouz Gerland</name>
    <cmt>Amenity::entertainment:public_bookcase</cmt>
    <desc>C&apos;est avec enthousiasme que les boîtes à livres prennent vie à Dijon. Il s&apos;agit d&apos;un projet collectif mené par les habitants  la municipalité et des associations.</desc>
    <type>Boite à livre</type>
  </wpt>
  <wpt lat="47.2398938" lon="5.2210719">
    <name>4 Rue Aristide Briand</name>
    <cmt>Amenity::entertainment:public_bookcase</cmt>
    <desc>Boîte à lire installée devant l église.</desc>
    <type>Boite à livre</type>
  </wpt>
  <wpt lat="46.60044659999999" lon="6.1161595">
    <name>rue des Carias</name>
    <cmt>Amenity::entertainment:public_bookcase</cmt>
    <type>Boite à livre</type>
  </wpt>
  <wpt lat="47.193504000000004" lon="3.4563736000000005">
    <name>rue des Bouillons</name>
    <cmt>Amenity::entertainment:public_bookcase</cmt>
    <desc>Bel éventail de livres mis à disposition au Lavoir de Moussy, sur le chemin de Compostelle. Endroit calme, bucolique, une pause agréable...</desc>
    <type>Boite à livre</type>
  </wpt>
  <wpt lat="47.21558929999998" lon="5.9622852">
    <name>20 rue de Vigney</name>
    <cmt>Amenity::entertainment:public_bookcase</cmt>
    <type>Boite à livre</type>
  </wpt>
  <wpt lat="47.19971009999998" lon="6.0217984">
    <name>Rue de la fontaine</name>
    <cmt>Amenity::entertainment:public_bookcase</cmt>
    <desc>Bibliothèque de rue aménagée dans un ancien abribus à côté du restaurant Gladoux.</desc>
    <type>Boite à livre</type>
  </wpt>
  <wpt lat="48.1898873" lon="3.4020652">
    <name>Place de la Mairie</name>
    <cmt>Amenity::entertainment:public_bookcase</cmt>
    <desc>C est une valise accrochée à la porte d&apos;entre de la salle des fêtes. Il ne s&apos;agit pas de l&apos;entrée qui donne sur la rue, mais celle qui est accessible sur la droite.</desc>
    <type>Boite à livre</type>
  </wpt>
  <wpt lat="46.9918301" lon="6.934254100000002">
    <name>place du port</name>
    <cmt>Amenity::entertainment:public_bookcase</cmt>
    <desc>Très belle boite à livre à NEUCHATEL en SUISSE à l arrêt de bus</desc>
    <type>Boite à livre</type>
  </wpt>
  <wpt lat="46.62965439999999" lon="3.7573272999999996">
    <name>plan d eau</name>
    <cmt>Amenity::entertainment:public_bookcase</cmt>
    <desc>sur les berges du plan d eau</desc>
    <type>Boite à livre</type>
  </wpt>
  <wpt lat="48.197845099999995" lon="3.2676619000000002">
    <name>gare</name>
    <cmt>Amenity::entertainment:public_bookcase</cmt>
    <desc>petite boite situee juste a la sortie cote ville</desc>
    <type>Boite à livre</type>
  </wpt>
  <wpt lat="47.192372" lon="5.743646">
    <name>Hameau d Hyombre - D237</name>
    <cmt>Amenity::entertainment:public_bookcase</cmt>
    <desc>Dans l abri bus face à l&apos;ancien abreuvoir</desc>
    <type>Boite à livre</type>
  </wpt>
  <wpt lat="46.94845189999999" lon="7.0287751">
    <name>Rue de l&apos;ancienne ecole</name>
    <cmt>Amenity::entertainment:public_bookcase</cmt>
    <desc>La boite se trouve au numéro 5.</desc>
    <type>Boite à livre</type>
  </wpt>
  <wpt lat="46.71385999999998" lon="5.6446445">
    <name>Place de l église</name>
    <cmt>Amenity::entertainment:public_bookcase</cmt>
    <desc>Au centre de la place, à proximité de la fontaine, à côté des toilettes, un coin livres à banc donner</desc>
    <type>Boite à livre</type>
  </wpt>
  <wpt lat="47.24698260000002" lon="6.021739">
    <name>2 Avenue de la Paix</name>
    <cmt>Amenity::entertainment:public_bookcase</cmt>
    <desc>La gare viotte propose deux meubles rectangle, voir photo comme exemple, à la sortie nord et sortie sud pour y déposer des livres</desc>
    <type>Boite à livre</type>
  </wpt>
  <wpt lat="47.80178679999999" lon="4.0907742">
    <name>43 route Nationale</name>
    <cmt>Amenity::entertainment:public_bookcase</cmt>
    <desc>Devant l épicerie</desc>
    <type>Boite à livre</type>
  </wpt>
  <wpt lat="46.8341502" lon="4.8426199">
    <name>45 bis Rue du bourg</name>
    <cmt>Amenity::entertainment:public_bookcase</cmt>
    <desc>A côté de la boulangerie</desc>
    <type>Boite à livre</type>
  </wpt>
  <wpt lat="47.61276809999998" lon="5.972002900000001">
    <name>Place de la mairie</name>
    <cmt>Amenity::entertainment:public_bookcase</cmt>
    <type>Boite à livre</type>
  </wpt>
  <wpt lat="47.6389661" lon="6.864301900000001">
    <name>Rue Roussel</name>
    <cmt>Amenity::entertainment:public_bookcase</cmt>
    <desc>Fac droit aes</desc>
    <type>Boite à livre</type>
  </wpt>
  <wpt lat="47.054374599999996" lon="3.1709769">
    <name>Étang de niffond</name>
    <cmt>Amenity::entertainment:public_bookcase</cmt>
    <desc>Boîte située à proximité du marais.</desc>
    <type>Boite à livre</type>
  </wpt>
  <wpt lat="47.71181129999997" lon="7.015270900000001">
    <name>Place de la mairie</name>
    <cmt>Amenity::entertainment:public_bookcase</cmt>
    <desc>Face a la mairie et l ecole municipale.  Ancienne cabine téléphonique rouge</desc>
    <type>Boite à livre</type>
  </wpt>
  <wpt lat="46.51963490000001" lon="6.0232524">
    <name>rue de la Promenade</name>
    <cmt>Amenity::entertainment:public_bookcase</cmt>
    <desc>Cabine téléphonique</desc>
    <type>Boite à livre</type>
  </wpt>
  <wpt lat="47.81239089999999" lon="6.3804544">
    <name>Place du 8 mai 1945</name>
    <cmt>Amenity::entertainment:public_bookcase</cmt>
    <type>Boite à livre</type>
  </wpt>
  <wpt lat="47.36756290000001" lon="2.901637">
    <name>Villechaud, Rue des écoles</name>
    <cmt>Amenity::entertainment:public_bookcase</cmt>
    <desc>Boîtes cofinancées par le Lions club Cosne Puisaye et la ville de Cosne-Cours-sur-Loire dans le cadre du volet culturel du contrat de ville.</desc>
    <type>Boite à livre</type>
  </wpt>
  <wpt lat="47.664391400000014" lon="3.7392927">
    <name>Rue de la gare / rue des soupirs</name>
    <cmt>Amenity::entertainment:public_bookcase</cmt>
    <desc>En face de la gare</desc>
    <type>Boite à livre</type>
  </wpt>
  <wpt lat="46.99768089999999" lon="5.1468172">
    <name>Pharmacie Mercusot</name>
    <cmt>Amenity::entertainment:public_bookcase</cmt>
    <desc>Sortie de derrière, vers le matériel médical</desc>
    <type>Boite à livre</type>
  </wpt>
  <wpt lat="46.784155" lon="4.858441">
    <name>rue de la motte</name>
    <cmt>Amenity::entertainment:public_bookcase</cmt>
    <desc>Sur le parking, derrière la cathédrale St Vincent</desc>
    <type>Boite à livre</type>
  </wpt>
  <wpt lat="46.46569960000001" lon="5.7136118">
    <name>La mairie</name>
    <cmt>Amenity::entertainment:public_bookcase</cmt>
    <desc>Dans une cabine téléphonique, adossée à la mairie de la commune</desc>
    <type>Boite à livre</type>
  </wpt>
  <wpt lat="46.83342719999998" lon="7.0712846">
    <name>Place de l Eglise 3</name>
    <cmt>Amenity::entertainment:public_bookcase</cmt>
    <desc>En face de l Eglise du village de Grolley</desc>
    <type>Boite à livre</type>
  </wpt>
  <wpt lat="47.21210577562242" lon="3.5072135925292973">
    <name>D977bis</name>
    <cmt>Amenity::entertainment:public_bookcase</cmt>
    <desc>Source du SavoirDes livres sont à disposition dans un très joli lavoir à ciel ouvert au bord de la D977 bis. Beaucoup de livres reliés et de livres d espionnage.</desc>
    <type>Boite à livre</type>
  </wpt>
  <wpt lat="47.351073099999994" lon="5.039692100000001">
    <name>avenue Général Touzet du Vigier</name>
    <cmt>Amenity::entertainment:public_bookcase</cmt>
    <desc>Vers la place de la France Libre</desc>
    <type>Boite à livre</type>
  </wpt>
  <wpt lat="46.65688399999998" lon="4.673901">
    <name>bourg</name>
    <cmt>Amenity::entertainment:public_bookcase</cmt>
    <desc>Ancienne cabine telephonique</desc>
    <type>Boite à livre</type>
  </wpt>
  <wpt lat="47.327251699999984" lon="4.808507799999999">
    <name>28-30 rue de la gare</name>
    <cmt>Amenity::entertainment:public_bookcase</cmt>
    <desc>Boite à Lire de l association RISOMES à Malain, devant le café associatif.</desc>
    <type>Boite à livre</type>
  </wpt>
  <wpt lat="47.7929503" lon="3.5592036">
    <name>34 avenue Victor hugo</name>
    <cmt>Amenity::entertainment:public_bookcase</cmt>
    <desc>Une boîte à lire en haut de l avenue Victor Hugo à  Auxerre</desc>
    <type>Boite à livre</type>
  </wpt>
  <wpt lat="47.79693499999998" lon="3.5535253999999994">
    <name>30 rue Pierre et Marie Curie</name>
    <cmt>Amenity::entertainment:public_bookcase</cmt>
    <desc>Petite boîte à livres faites par des particuliers.Parfois il y a aussi des objets, des chaussures, vêtements... un bon endroit de troc !</desc>
    <type>Boite à livre</type>
  </wpt>
  <wpt lat="47.2413185" lon="6.0419552">
    <name>8 bis chemin des Monts de Bregille du Haut</name>
    <cmt>Amenity::entertainment:public_bookcase</cmt>
    <type>Boite à livre</type>
  </wpt>
  <wpt lat="46.990324300000005" lon="3.1551305000000003">
    <name>Parc Roger Salengro</name>
    <cmt>Amenity::entertainment:public_bookcase</cmt>
    <desc>Il en existe 2 dans la ville.</desc>
    <type>Boite à livre</type>
  </wpt>
  <wpt lat="47.5339113" lon="6.9211157">
    <name>Grande rue</name>
    <cmt>Amenity::entertainment:public_bookcase</cmt>
    <desc>La boîte se situe pas très loin du restaurant Le Mezirois, juste à côté du banc</desc>
    <type>Boite à livre</type>
  </wpt>
  <wpt lat="46.63671239999998" lon="5.50726">
    <name>place de la mairie</name>
    <cmt>Amenity::entertainment:public_bookcase</cmt>
    <desc>Deux boites à lire : une pour adulte et une pour enfant. Dans des anciennes ruches près de la boulangerie.</desc>
    <type>Boite à livre</type>
  </wpt>
  <wpt lat="47.74238290000002" lon="6.40902">
    <name>La Poste</name>
    <cmt>Amenity::entertainment:public_bookcase</cmt>
    <desc>Entrée  de la poste.Étagère</desc>
    <type>Boite à livre</type>
  </wpt>
  <wpt lat="46.79862550000001" lon="5.616693099999999">
    <name>108 rue de la liberté</name>
    <cmt>Amenity::entertainment:public_bookcase</cmt>
    <desc>La boite à livres est un placard métallique situé au niveau de l entrée de la salle des fêtes.</desc>
    <type>Boite à livre</type>
  </wpt>
  <wpt lat="47.461168400000005" lon="6.836735">
    <name>3 Place Emile Peugeot</name>
    <cmt>Amenity::entertainment:public_bookcase</cmt>
    <desc>A cote de la porte de la Librairie, sur une etagere, grand choix de livres enfants et adultes, quelques jeux de societe.</desc>
    <type>Boite à livre</type>
  </wpt>
  <wpt lat="47.15129159999999" lon="6.343195">
    <name>2 RUE DE LA PISCINE</name>
    <cmt>Amenity::entertainment:public_bookcase</cmt>
    <desc>Une boîte à livres est disponible dans le mgasin.</desc>
    <type>Boite à livre</type>
  </wpt>
  <wpt lat="46.39551959999999" lon="5.966676400000001">
    <name>Grand rue</name>
    <cmt>Amenity::entertainment:public_bookcase</cmt>
    <desc>La boite à livre se trouve dans la salle hors sac, dans les locaux du point info de Lamoura.</desc>
    <type>Boite à livre</type>
  </wpt>
  <wpt lat="47.320519099999984" lon="5.0391185">
    <name>17 Rue Jules Mercier</name>
    <cmt>Amenity::entertainment:public_bookcase</cmt>
    <desc>Boite à lire appartenant à la boutique Savonnerie Solsequia.</desc>
    <type>Boite à livre</type>
  </wpt>
  <wpt lat="47.4762361" lon="6.774633299999999">
    <name>6 Rue du 152 Ème Ri,</name>
    <cmt>Amenity::entertainment:public_bookcase</cmt>
    <desc>Juste à droite de l entrée de la médiatheque, en face de la place handicapés</desc>
    <type>Boite à livre</type>
  </wpt>
  <wpt lat="47.60266389999999" lon="6.135616000000001">
    <name>place d armes</name>
    <cmt>Amenity::entertainment:public_bookcase</cmt>
    <desc>Pour y déposer des livres ou magazines récents dont vous ne voulez plus.</desc>
    <type>Boite à livre</type>
  </wpt>
  <wpt lat="46.766398399999986" lon="4.8179875">
    <name>PLACE DU CARCAN</name>
    <cmt>Amenity::entertainment:public_bookcase</cmt>
    <desc>ARBRE à LIRE  à TAISEY</desc>
    <type>Boite à livre</type>
  </wpt>
  <wpt lat="47.318058000000015" lon="5.037733">
    <name>rue Sainte Anne</name>
    <cmt>Amenity::entertainment:public_bookcase</cmt>
    <desc>C&apos;est avec enthousiasme que les boîtes à livres prennent vie à Dijon. Il s agit d&apos;un projet collectif mené par les habitants  la municipalité et des associations.</desc>
    <type>Boite à livre</type>
  </wpt>
  <wpt lat="47.82183929999998" lon="6.3785883">
    <name>parc des thermes</name>
    <cmt>Amenity::entertainment:public_bookcase</cmt>
    <desc>Elle est située au parc des thermes</desc>
    <type>Boite à livre</type>
  </wpt>
  <wpt lat="46.83293280000001" lon="4.8065385">
    <name>24 grande rue</name>
    <cmt>Amenity::entertainment:public_bookcase</cmt>
    <desc>Boite à livre devant la mairie</desc>
    <type>Boite à livre</type>
  </wpt>
  <wpt lat="46.5121949" lon="4.6687016">
    <name>en Nolainge, en direction de Flagy, à côté du GAEC Parfums de terroir</name>
    <cmt>Amenity::entertainment:public_bookcase</cmt>
    <desc>boite à livres</desc>
    <type>Boite à livre</type>
  </wpt>
  <wpt lat="47.491219" lon="3.9092480000000007">
    <name>rue Maréchal Foch</name>
    <cmt>Amenity::entertainment:public_bookcase</cmt>
    <desc>La boîte est en métal et représente un livre ouvert, elle est située devant le cinéma Vauban. Les livres sont rangés sur les côtés, l&apos;ouverture est un peu délicate, n&apos;hésitez pas à tirer fort.</desc>
    <type>Boite à livre</type>
  </wpt>
  <wpt lat="46.2661609" lon="4.775196">
    <name>Rue de Méziat</name>
    <cmt>Amenity::entertainment:public_bookcase</cmt>
    <desc>Dans le lavoir</desc>
    <type>Boite à livre</type>
  </wpt>
  <wpt lat="47.81443329999999" lon="3.5571517999999998">
    <name>25 avenue de Châtenoy</name>
    <cmt>Amenity::entertainment:public_bookcase</cmt>
    <type>Boite à livre</type>
  </wpt>
  <wpt lat="46.67412999999999" lon="4.362979">
    <name>Place de la Mairie</name>
    <cmt>Amenity::entertainment:public_bookcase</cmt>
    <type>Boite à livre</type>
  </wpt>
  <wpt lat="47.52599689999999" lon="6.8256155000000005">
    <name>2, rue de Sochaux</name>
    <cmt>Amenity::entertainment:public_bookcase</cmt>
    <desc>dans la cabine télephonique</desc>
    <type>Boite à livre</type>
  </wpt>
  <wpt lat="47.3095266" lon="5.0164261">
    <name>Bd Eugène Fyot</name>
    <cmt>Amenity::entertainment:public_bookcase</cmt>
    <desc>C&apos;est avec enthousiasme que les boîtes à livres prennent vie à Dijon. Il s&apos;agit d&apos;un projet collectif mené par les habitants  la municipalité et des associations.</desc>
    <type>Boite à livre</type>
  </wpt>
  <wpt lat="46.845941999999994" lon="5.478691">
    <name>Negrello</name>
    <cmt>Amenity::entertainment:public_bookcase</cmt>
    <desc>Sur la place de la mairie</desc>
    <type>Boite à livre</type>
  </wpt>
  <wpt lat="46.71186589999999" lon="4.461925600000001">
    <name>Le Bourg</name>
    <cmt>Amenity::entertainment:public_bookcase</cmt>
    <desc>En face la boulangerie</desc>
    <type>Boite à livre</type>
  </wpt>
  <wpt lat="46.99725789999999" lon="3.6817827">
    <name>Barrage de Fleury</name>
    <cmt>Amenity::entertainment:public_bookcase</cmt>
    <desc>La boite sera mise en place pour l&apos;été 2017, fabriquée par des bénévoles de l&apos;association du Site de Fleury.</desc>
    <type>Boite à livre</type>
  </wpt>
  <wpt lat="47.412527099999984" lon="2.9287414000000003">
    <name>Rue du 14 Juillet</name>
    <cmt>Amenity::entertainment:public_bookcase</cmt>
    <desc>Projet lectureBoîtes cofinancées par le Lions club cosne puisaye et la ville de cosne-cours-sur-loire dans le cadre du volet culturel du contrat de ville.</desc>
    <type>Boite à livre</type>
  </wpt>
  <wpt lat="46.556050000000006" lon="4.567875000000001">
    <name>76  Route de ST GENGOUX</name>
    <cmt>Amenity::entertainment:public_bookcase</cmt>
    <desc>Au centre du bourg près du monument aux morts</desc>
    <type>Boite à livre</type>
  </wpt>
  <wpt lat="47.410358000000016" lon="2.923493">
    <name>Place de la Résistance</name>
    <cmt>Amenity::entertainment:public_bookcase</cmt>
    <desc>Projet lecture boîtes cofinancées par le lions club Cosne Puisaye et la ville de Cosne-Cours-sur-Loire dans le cadre du volet culturel du contrat de ville.</desc>
    <type>Boite à livre</type>
  </wpt>
  <wpt lat="47.6359585" lon="6.860291">
    <name>Parc de la République</name>
    <cmt>Amenity::entertainment:public_bookcase</cmt>
    <desc>Elle se trouve dans le parc de la République, proche de la Savoureuse.</desc>
    <type>Boite à livre</type>
  </wpt>
  <wpt lat="46.981585" lon="3.187564">
    <name>Boulevard Léon blum</name>
    <cmt>Amenity::entertainment:public_bookcase</cmt>
    <desc>Sur la place des courlis en face de la poste et de l ancien bureau de tabac</desc>
    <type>Boite à livre</type>
  </wpt>
  <wpt lat="46.65247042550299" lon="4.652538299560548">
    <name>Le Bourg</name>
    <cmt>Amenity::entertainment:public_bookcase</cmt>
    <desc>Ancienne cabine telephonique</desc>
    <type>Boite à livre</type>
  </wpt>
  <wpt lat="46.82293389999998" lon="4.600887">
    <name>Rue de l école</name>
    <cmt>Amenity::entertainment:public_bookcase</cmt>
    <desc>Dans une petite maisonnette à côté de la mairie, qui ressemble à un arrêt de bus</desc>
    <type>Boite à livre</type>
  </wpt>
  <wpt lat="47.0198589" lon="3.1577300000000004">
    <name>Place des droits de l homme</name>
    <cmt>Amenity::entertainment:public_bookcase</cmt>
    <type>Boite à livre</type>
  </wpt>
  <wpt lat="47.619351900500995" lon="6.847845911979676">
    <name>rue de Bavilliers</name>
    <cmt>Amenity::entertainment:public_bookcase</cmt>
    <desc>Abris bus en béton transformé en boite à lire</desc>
    <type>Boite à livre</type>
  </wpt>
  <wpt lat="47.32125220000001" lon="5.0455871">
    <name>place Saint Michel</name>
    <cmt>Amenity::entertainment:public_bookcase</cmt>
    <desc>C&apos;est avec enthousiasme que les boîtes à livres prennent vie à Dijon. Il s&apos;agit d&apos;un projet collectif mené par les habitants  la municipalité et des associations.</desc>
    <type>Boite à livre</type>
  </wpt>
  <wpt lat="46.481955000000006" lon="4.4394005">
    <name>Place du CHAMP DE FOIRE</name>
    <cmt>Amenity::entertainment:public_bookcase</cmt>
    <desc>En face de la boutique RESSOURCERIE</desc>
    <type>Boite à livre</type>
  </wpt>
  <wpt lat="46.6158745" lon="4.5829507">
    <name>Bourg</name>
    <cmt>Amenity::entertainment:public_bookcase</cmt>
    <desc>Elle se trouve juste sous l auberge, à côté de l église</desc>
    <type>Boite à livre</type>
  </wpt>
  <wpt lat="46.9753386" lon="4.6870452">
    <name>Hameau d Evelle</name>
    <cmt>Amenity::entertainment:public_bookcase</cmt>
    <desc>Ancienne Cabine téléphonique</desc>
    <type>Boite à livre</type>
  </wpt>
  <wpt lat="46.75069699999999" lon="5.895906">
    <name>Avenue Edouard HERRIOT</name>
    <cmt>Amenity::entertainment:public_bookcase</cmt>
    <type>Boite à livre</type>
  </wpt>
  <wpt lat="46.905643" lon="4.982807000000001">
    <name>mairie</name>
    <cmt>Amenity::entertainment:public_bookcase</cmt>
    <desc>Très grand abris à livres, un large choix et des ouvrages très modernes.</desc>
    <type>Boite à livre</type>
  </wpt>
  <wpt lat="46.988929799999994" lon="3.1570643">
    <name>Place Carnot</name>
    <cmt>Amenity::entertainment:public_bookcase</cmt>
    <desc>Boîte juste en face de la chambre du commerce</desc>
    <type>Boite à livre</type>
  </wpt>
  <wpt lat="47.02429820000001" lon="4.8375731">
    <name>Jardin boussard</name>
    <cmt>Amenity::entertainment:public_bookcase</cmt>
    <type>Boite à livre</type>
  </wpt>
  <wpt lat="47.81985469348565" lon="6.386919021606446">
    <name>Luxeuil</name>
    <cmt>Amenity::entertainment:public_bookcase</cmt>
    <desc>Étang de la poche.Boite a proximité du parking.</desc>
    <type>Boite à livre</type>
  </wpt>
  <wpt lat="48.00855299999999" lon="3.458551">
    <name>Hameau de la Fourchotte</name>
    <cmt>Amenity::entertainment:public_bookcase</cmt>
    <desc>Le puit</desc>
    <type>Boite à livre</type>
  </wpt>
  <wpt lat="47.04554699999999" lon="3.6334279999999994">
    <name>Le Bois de Seigne</name>
    <cmt>Amenity::entertainment:public_bookcase</cmt>
    <desc>La boite à lire se situe dans le restaurant Le Chardon et est accessible uniquement pendant les heures d&apos;ouverture du restaurant.</desc>
    <type>Boite à livre</type>
  </wpt>
  <wpt lat="47.611786399999986" lon="6.149335699999999">
    <name>35 avenue de la victoire</name>
    <cmt>Amenity::entertainment:public_bookcase</cmt>
    <desc>Petit boîte à livre. Type boîte au lettre en un peu plus grosse</desc>
    <type>Boite à livre</type>
  </wpt>
  <wpt lat="47.53800060000001" lon="6.4024504">
    <name>1 Grande rue</name>
    <cmt>Amenity::entertainment:public_bookcase</cmt>
    <desc>Livres pour adultes, enfants et magazines.</desc>
    <type>Boite à livre</type>
  </wpt>
  <wpt lat="48.131865" lon="3.487301">
    <name>sur la place pres du café dans une cabine téléphonique</name>
    <cmt>Amenity::entertainment:public_bookcase</cmt>
    <desc>la route departementale traverse cerisiers</desc>
    <type>Boite à livre</type>
  </wpt>
  <wpt lat="48.280454699999986" lon="3.2436807">
    <name>2 rue Sainte Marie</name>
    <cmt>Amenity::entertainment:public_bookcase</cmt>
    <desc>Sur la place du village près de la Mairie</desc>
    <type>Boite à livre</type>
  </wpt>
  <wpt lat="47.27111169999998" lon="6.0282445">
    <name>pôle d&apos;échange des Orchamps</name>
    <cmt>Amenity::entertainment:public_bookcase</cmt>
    <type>Boite à livre</type>
  </wpt>
  <wpt lat="47.10364099999998" lon="3.512025">
    <name>Parc du Clos</name>
    <cmt>Amenity::entertainment:public_bookcase</cmt>
    <desc>Réalisée par les jeunes du Coeur du Nivernais, en partenariat avec la municipalité de St-Saulge et la bibliothèque, cette boîte à livres est à disposition de tous depuis l été .</desc>
    <type>Boite à livre</type>
  </wpt>
  <wpt lat="47.24900739999999" lon="5.222538999999999">
    <name>18 Rue de la Vanoise</name>
    <cmt>Amenity::entertainment:public_bookcase</cmt>
    <desc>Située entre les écoles la Chenaie et Jules Ferry.</desc>
    <type>Boite à livre</type>
  </wpt>
  <wpt lat="47.138895" lon="3.201438">
    <name>1 Place de la Liberté</name>
    <cmt>Amenity::entertainment:public_bookcase</cmt>
    <desc>Boîte à livres gérée par la commune</desc>
    <type>Boite à livre</type>
  </wpt>
  <wpt lat="46.862553999999996" lon="4.356196">
    <name>Chemin des Cloix</name>
    <cmt>Amenity::entertainment:public_bookcase</cmt>
    <desc>La boite se trouve vers la digue de l&apos;étang des Cloix  en forêt.</desc>
    <type>Boite à livre</type>
  </wpt>
  <wpt lat="47.445115299999976" lon="6.2060148">
    <name>Place de la mairie</name>
    <cmt>Amenity::entertainment:public_bookcase</cmt>
    <desc>Boite a livre inaugurée samedi 26 octobre</desc>
    <type>Boite à livre</type>
  </wpt>
  <wpt lat="47.156243299999986" lon="5.746309700000002">
    <name>D673</name>
    <cmt>Amenity::entertainment:public_bookcase</cmt>
    <desc>Le long de la D673 entre la place Gaulard de la mairie et la rue du grand verger. Parking en face et sur la place Gaulard. Dans un ancien frigo repeint. Attention livres sur les 2 étages</desc>
    <type>Boite à livre</type>
  </wpt>
  <wpt lat="47.48625899999999" lon="6.9252">
    <name>1 rue Louis Pergaud</name>
    <cmt>Amenity::entertainment:public_bookcase</cmt>
    <desc>Dans le cabinet médical, au niveau du rez-de-chaussée bas, près de la porte du podologue.</desc>
    <type>Boite à livre</type>
  </wpt>
  <wpt lat="47.64169639999999" lon="6.835637799999998">
    <name>Rue Risler</name>
    <cmt>Amenity::entertainment:public_bookcase</cmt>
    <type>Boite à livre</type>
  </wpt>
  <wpt lat="47.15650109999999" lon="5.4838545">
    <name>6 rue des Vaux</name>
    <cmt>Amenity::entertainment:public_bookcase</cmt>
    <desc>Le petit frigo à livres.</desc>
    <type>Boite à livre</type>
  </wpt>
  <wpt lat="47.16233000000001" lon="6.729483999999999">
    <name>Place de l église</name>
    <cmt>Amenity::entertainment:public_bookcase</cmt>
    <type>Boite à livre</type>
  </wpt>
  <wpt lat="46.9593356" lon="4.912301700000001">
    <name>rue du parc</name>
    <cmt>Amenity::entertainment:public_bookcase</cmt>
    <desc>Entre la rue du Parc et la rue du Clozeau, vers le petit puits, à l&apos;ombre du verger.</desc>
    <type>Boite à livre</type>
  </wpt>
  <wpt lat="47.31411179999998" lon="5.0255621">
    <name>Quai Navier</name>
    <cmt>Amenity::entertainment:public_bookcase</cmt>
    <desc>Elle se situe avenue Jean Jaures à côté de la boulangerie du port du canal et au coin de l&apos;école Jean Jaures</desc>
    <type>Boite à livre</type>
  </wpt>
  <wpt lat="46.66048241598364" lon="4.622154235839845">
    <name>Le bourg route D28</name>
    <cmt>Amenity::entertainment:public_bookcase</cmt>
    <desc>Abri bus près de la mairie</desc>
    <type>Boite à livre</type>
  </wpt>
  <wpt lat="48.24843389999999" lon="3.325469599999999">
    <name>rue Victor Guichard</name>
    <cmt>Amenity::entertainment:public_bookcase</cmt>
    <desc>Installée près de la bibliothèque, de l&apos;école et de la mairie.</desc>
    <type>Boite à livre</type>
  </wpt>
  <wpt lat="46.770022999999995" lon="4.831199">
    <name>rue du Champ-Rosey</name>
    <cmt>Amenity::entertainment:public_bookcase</cmt>
    <desc>Elle est située à la piscine municipale.</desc>
    <type>Boite à livre</type>
  </wpt>
  <wpt lat="46.778605899999995" lon="6.641311800000001">
    <name>Place Pestalozzi</name>
    <cmt>Amenity::entertainment:public_bookcase</cmt>
    <desc>Situé devant la papeterie à côté du Temple</desc>
    <type>Boite à livre</type>
  </wpt>
  <wpt lat="47.16073499999999" lon="5.759978">
    <name>place Berthet</name>
    <cmt>Amenity::entertainment:public_bookcase</cmt>
    <desc>la boite à lire très sommaire est dans l abri bus place Berthet à côté des jeux pour enfants  Parking devant sur la route des forges partant de Fraisans menant à Chateauneuf  D226 techniquement dépendant de Dampierre mais excentrée En face des établissement Univers Emballage Coordonnées GPS  N47  09 492 E 005  45 541</desc>
    <type>Boite à livre</type>
  </wpt>
  <wpt lat="47.5810283" lon="6.7920453">
    <name>PLACE DE LA FONTAINE</name>
    <cmt>Amenity::entertainment:public_bookcase</cmt>
    <desc>véritable bibliothèque de rue réalisée par les habitants</desc>
    <type>Boite à livre</type>
  </wpt>
  <wpt lat="46.903722800000004" lon="5.0831313">
    <name>1 rue des Bords-du-Doubs</name>
    <cmt>Amenity::entertainment:public_bookcase</cmt>
    <desc>Sous le auvent de la mairie.</desc>
    <type>Boite à livre</type>
  </wpt>
  <wpt lat="47.31993840000001" lon="5.0243129">
    <name>Rue du Faubourg Raines</name>
    <cmt>Amenity::entertainment:public_bookcase</cmt>
    <desc>C&apos;est avec enthousiasme que les boîtes à livres prennent vie à Dijon. Il s&apos;agit d&apos;un projet collectif mené par les habitants  la municipalité et des associations.</desc>
    <type>Boite à livre</type>
  </wpt>
  <wpt lat="47.24567709999999" lon="6.027838299999999">
    <name>place Flore</name>
    <cmt>Amenity::entertainment:public_bookcase</cmt>
    <desc>Boite à livres mis en place par les services municipaux de la ville de Besançon.</desc>
    <type>Boite à livre</type>
  </wpt>
  <wpt lat="46.317530999999995" lon="4.792092">
    <name>Place de Levigny</name>
    <cmt>Amenity::entertainment:public_bookcase</cmt>
    <desc>À Charnay les Mâcon, quartier de Levigny-Le Bourg, contre le Lavoir</desc>
    <type>Boite à livre</type>
  </wpt>
  <wpt lat="47.280958999999996" lon="4.2366849">
    <name>BI1</name>
    <cmt>Amenity::entertainment:public_bookcase</cmt>
    <desc>La boîte à lire se situe dans le magasin BI1 à Saulieu.</desc>
    <type>Boite à livre</type>
  </wpt>
  <wpt lat="46.35961239999999" lon="5.4309623">
    <name>Rue de la Mairie</name>
    <cmt>Amenity::entertainment:public_bookcase</cmt>
    <desc>Petite maison près du tilleul</desc>
    <type>Boite à livre</type>
  </wpt>
  <wpt lat="47.82706219999999" lon="4.0810705">
    <name>Place de la Mairie</name>
    <cmt>Amenity::entertainment:public_bookcase</cmt>
    <type>Boite à livre</type>
  </wpt>
  <wpt lat="47.249117299999995" lon="6.0319484">
    <name>4 rue de l&apos;Église</name>
    <cmt>Amenity::entertainment:public_bookcase</cmt>
    <type>Boite à livre</type>
  </wpt>
  <wpt lat="47.235248799999994" lon="6.0250167">
    <name>10 rue de la Préfecture</name>
    <cmt>Amenity::entertainment:public_bookcase</cmt>
    <desc>Boite à livres mis en place par les services municipaux de la ville de Besançon.D autres vont suivre au cours du mois de mars pour être au nombre de 13.</desc>
    <type>Boite à livre</type>
  </wpt>
  <wpt lat="46.308457999999995" lon="4.8362635">
    <name>Place saint Antoine</name>
    <cmt>Amenity::entertainment:public_bookcase</cmt>
    <type>Boite à livre</type>
  </wpt>
  <wpt lat="46.805650699999994" lon="4.4206234">
    <name>11 PLACE SCHNEIDER</name>
    <cmt>Amenity::entertainment:public_bookcase</cmt>
    <desc>En face de l&apos;hôtel-restaurant LE CREUSOT HÔTEL</desc>
    <type>Boite à livre</type>
  </wpt>
  <wpt lat="46.730337" lon="5.583397">
    <name>Le Louverot</name>
    <cmt>Amenity::entertainment:public_bookcase</cmt>
    <desc>Étagère située sous le lavoir du village.</desc>
    <type>Boite à livre</type>
  </wpt>
  <wpt lat="47.24425489999999" lon="5.978439800000001">
    <name>29D chemin des Tilleroyes</name>
    <cmt>Amenity::entertainment:public_bookcase</cmt>
    <desc>En forme de maisonnette.</desc>
    <type>Boite à livre</type>
  </wpt>
  <wpt lat="47.34064099999999" lon="5.823649">
    <name>Grande rue</name>
    <cmt>Amenity::entertainment:public_bookcase</cmt>
    <desc>Contre l arrêt de bus à côté de la fontaine</desc>
    <type>Boite à livre</type>
  </wpt>
  <wpt lat="46.99909919999999" lon="4.8417789">
    <name>Beaune côté plage</name>
    <cmt>Amenity::entertainment:public_bookcase</cmt>
    <type>Boite à livre</type>
  </wpt>
  <wpt lat="47.33710969999998" lon="5.046417800000002">
    <name>rue Olympe de Gouge</name>
    <cmt>Amenity::entertainment:public_bookcase</cmt>
    <desc>C&apos;est avec enthousiasme que les boîtes à livres prennent vie à Dijon. Il s&apos;agit d&apos;un projet collectif mené par les habitants  la municipalité et des associations.</desc>
    <type>Boite à livre</type>
  </wpt>
  <wpt lat="46.74484759999998" lon="4.4736861">
    <name>24 RUE DE MACON</name>
    <cmt>Amenity::entertainment:public_bookcase</cmt>
    <desc>Sur le mur de clôture maison .</desc>
    <type>Boite à livre</type>
  </wpt>
  <wpt lat="47.68522480000001" lon="6.4987824">
    <name>Cécile</name>
    <cmt>Amenity::entertainment:public_bookcase</cmt>
    <desc>Elle se situe dans mon cabinet</desc>
    <type>Boite à livre</type>
  </wpt>
  <wpt lat="47.352714999999996" lon="6.361712000000001">
    <name>Place de la République</name>
    <cmt>Amenity::entertainment:public_bookcase</cmt>
    <desc>Bonjour, j ai déniché une nouvelle boîte à livres à Baume les dames, en plus de celle vers la mairie une seconde se trouve vers l&apos;office du tourisme, place de la république.Cordialement,Damien</desc>
    <type>Boite à livre</type>
  </wpt>
  <wpt lat="48.248561099999996" lon="3.2379008">
    <name>2 Rue de l&apos;Église</name>
    <cmt>Amenity::entertainment:public_bookcase</cmt>
    <desc>La Boîte à Lire est installée près de l&apos;entrée de la Mairie. Elle a été fabriquée par un habitant du Village.</desc>
    <type>Boite à livre</type>
  </wpt>
  <wpt lat="47.427870999999996" lon="2.9351989999999994">
    <name>Chemin du Pont Midou</name>
    <cmt>Amenity::entertainment:public_bookcase</cmt>
    <desc>Projet lecture, boîte cofinancée par le Lions club Cosne Puisaye et la ville de Cosne-Cours-sur-Loire dans le cadre du volet culturel du contrat de ville.</desc>
    <type>Boite à livre</type>
  </wpt>
  <wpt lat="46.82296899999999" lon="3.455146">
    <name>Port de La Jonction</name>
    <cmt>Amenity::entertainment:public_bookcase</cmt>
    <desc>La boite se trouve à l entrée du restaurant du Port de La Jonction.</desc>
    <type>Boite à livre</type>
  </wpt>
  <wpt lat="47.01360659999999" lon="3.1681938999999995">
    <name>Gymnase des saules</name>
    <cmt>Amenity::entertainment:public_bookcase</cmt>
    <desc>Elle se situe à l entrée du gymnase et est faite en bois.</desc>
    <type>Boite à livre</type>
  </wpt>
  <wpt lat="47.3275812" lon="5.048418">
    <name>Square Clemenceau</name>
    <cmt>Amenity::entertainment:public_bookcase</cmt>
    <desc>C&apos;est avec enthousiasme que les boîtes à livres prennent vie à Dijon. Il s&apos;agit d&apos;un projet collectif mené par les habitants  la municipalité et des associations.</desc>
    <type>Boite à livre</type>
  </wpt>
  <wpt lat="46.43946230000002" lon="5.340616200000001">
    <name>7 allée des capucins</name>
    <cmt>Amenity::entertainment:public_bookcase</cmt>
    <desc>La boîte à lire se situe devant la maison de l&apos;enfance. Des livres pour tous sont accessibles dans cette boîte décorée par les enfants.</desc>
    <type>Boite à livre</type>
  </wpt>
  <wpt lat="47.82021489350804" lon="6.376833915710449">
    <name>Thermes</name>
    <cmt>Amenity::entertainment:public_bookcase</cmt>
    <desc>Boîte à Lire dans le parc thermal</desc>
    <type>Boite à livre</type>
  </wpt>
  <wpt lat="46.6677606" lon="5.461082300000001">
    <name>25 rue du chalet</name>
    <cmt>Amenity::entertainment:public_bookcase</cmt>
    <desc>devant les commerces de proximité Vival, très belle initiative.</desc>
    <type>Boite à livre</type>
  </wpt>
  <wpt lat="47.41384470959041" lon="2.9314613342285165">
    <name>Place de la Gare</name>
    <cmt>Amenity::entertainment:public_bookcase</cmt>
    <desc>Boîtes cofinancées par le Lions club Cosne Puisaye et la ville de Cosne-Cours-sur-Loire dans le cadre du volet culturel du contrat de ville.</desc>
    <type>Boite à livre</type>
  </wpt>
  <wpt lat="46.2040359" lon="4.1179899">
    <name>Le bourg</name>
    <cmt>Amenity::entertainment:public_bookcase</cmt>
    <desc>Boîte intégrée dans un mur en pierre, à proximité de la bibliothèque. Avec, à proximité, un banc et un espace de tranquillité et de verdure propices à la lecture.</desc>
    <type>Boite à livre</type>
  </wpt>
  <wpt lat="47.62631299999998" lon="5.786629999999999">
    <name>Route de montagne saint Léger</name>
    <cmt>Amenity::entertainment:public_bookcase</cmt>
    <desc>Dans le parc de jeu pour enfant</desc>
    <type>Boite à livre</type>
  </wpt>
  <wpt lat="47.346538499999994" lon="5.058693500000001">
    <name>1 allée Lucien Hérard</name>
    <cmt>Amenity::entertainment:public_bookcase</cmt>
    <desc>Vers l&apos;Envers Baudelaire</desc>
    <type>Boite à livre</type>
  </wpt>
  <wpt lat="46.4210979" lon="4.822426600000001">
    <name>Place de la mairie</name>
    <cmt>Amenity::entertainment:public_bookcase</cmt>
    <desc>bibliotheque</desc>
    <type>Boite à livre</type>
  </wpt>
  <wpt lat="46.692625799999995" lon="4.1395728">
    <name>6 place maréchal de lattre tassigny</name>
    <cmt>Amenity::entertainment:public_bookcase</cmt>
    <type>Boite à livre</type>
  </wpt>
  <wpt lat="47.235501" lon="5.967865999999999">
    <name>chemins du Sanatorium</name>
    <cmt>Amenity::entertainment:public_bookcase</cmt>
    <desc>carrefour entre les chemins du Sanatorium et Courvoisier</desc>
    <type>Boite à livre</type>
  </wpt>
  <wpt lat="46.754089" lon="5.7454033">
    <name>12 grande rue</name>
    <cmt>Amenity::entertainment:public_bookcase</cmt>
    <desc>Des étagères se trouvent sous l abribus</desc>
    <type>Boite à livre</type>
  </wpt>
  <wpt lat="47.08660429999999" lon="3.1933694">
    <name>grande rue</name>
    <cmt>Amenity::entertainment:public_bookcase</cmt>
    <desc>Elle est installée depuis un an au niveau de la promenade Jean-Pierre Harris. Une deuxième boite sera installée fin mars vers les jeux a côté des écoles.</desc>
    <type>Boite à livre</type>
  </wpt>
  <wpt lat="47.308321100000015" lon="4.709030800000001">
    <name>Rue Ferdinand Mercusot</name>
    <cmt>Amenity::entertainment:public_bookcase</cmt>
    <desc>À la mairie</desc>
    <type>Boite à livre</type>
  </wpt>
  <wpt lat="47.342742499999986" lon="5.1907367">
    <name>Rue de la Mairie</name>
    <cmt>Amenity::entertainment:public_bookcase</cmt>
    <desc>Devant l école maternelle</desc>
    <type>Boite à livre</type>
  </wpt>
  <wpt lat="47.10312699999998" lon="5.883235">
    <name>Place de la mairie</name>
    <cmt>Amenity::entertainment:public_bookcase</cmt>
    <type>Boite à livre</type>
  </wpt>
  <wpt lat="47.6296238" lon="4.3358414">
    <name>rue Michel Servet</name>
    <cmt>Amenity::entertainment:public_bookcase</cmt>
    <desc>Centre aquatique Amphitrite</desc>
    <type>Boite à livre</type>
  </wpt>
  <wpt lat="47.66544699999999" lon="5.875762">
    <name>sortie du village</name>
    <cmt>Amenity::entertainment:public_bookcase</cmt>
    <desc>Situé à la sortie du village à une intersection</desc>
    <type>Boite à livre</type>
  </wpt>
  <wpt lat="47.039503" lon="5.104147500000001">
    <name>mairie</name>
    <cmt>Amenity::entertainment:public_bookcase</cmt>
    <desc>Une boite à lire devant la mairie</desc>
    <type>Boite à livre</type>
  </wpt>
  <wpt lat="47.425938400000014" lon="6.069805">
    <name>37 rue du Général Charles de Gaulle</name>
    <cmt>Amenity::entertainment:public_bookcase</cmt>
    <desc>Sur le parking de l école maternelle, derrière un banc en bois</desc>
    <type>Boite à livre</type>
  </wpt>
  <wpt lat="47.522116899999986" lon="6.9124395">
    <name>1 rue Francois Mitterand</name>
    <cmt>Amenity::entertainment:public_bookcase</cmt>
    <desc>Dans le hall de la mairie</desc>
    <type>Boite à livre</type>
  </wpt>
  <wpt lat="47.2396664" lon="6.0274233">
    <name>Square Saint Amour</name>
    <cmt>Amenity::entertainment:public_bookcase</cmt>
    <desc>A l entrée du square coté Café de la  Poste</desc>
    <type>Boite à livre</type>
  </wpt>
  <wpt lat="47.45344450000002" lon="6.541778899999999">
    <name>12 Bis rue Principale</name>
    <cmt>Amenity::entertainment:public_bookcase</cmt>
    <desc>Une boîte à livres est fixée sur la façade de la boulangerie de mancenansCordialement,guillame</desc>
    <type>Boite à livre</type>
  </wpt>
  <wpt lat="47.51245209999999" lon="6.799303999999999">
    <name>Avenue des alliés</name>
    <cmt>Amenity::entertainment:public_bookcase</cmt>
    <desc>Entrée de la Mediatheque</desc>
    <type>Boite à livre</type>
  </wpt>
  <wpt lat="47.1392015" lon="4.8442177">
    <name>Mairie</name>
    <cmt>Amenity::entertainment:public_bookcase</cmt>
    <desc>Jolie boîte à lire juste devant la mairie, choix de livres intéressant et varié, vous y trouverez même quelques bons DVD !</desc>
    <type>Boite à livre</type>
  </wpt>
  <wpt lat="46.397401999999985" lon="4.864222">
    <name>le bourg, Azé</name>
    <cmt>Amenity::entertainment:public_bookcase</cmt>
    <desc>à l intérieur du bâtiment de la mairie mais accessible en permanence : il faut entrer dans le porche couvert qui traverse le bâtiment en direction de la cour de l&apos;école, porte vitrée juste à droite de la porte du secrétariat de mairie</desc>
    <type>Boite à livre</type>
  </wpt>
  <wpt lat="47.95114709999999" lon="3.878492800000001">
    <name>Place du Commerce</name>
    <cmt>Amenity::entertainment:public_bookcase</cmt>
    <desc>Elle se trouve à coté de l épicerie Vival et elle est toujours  bien garnie.Elle a été installée par l&apos;enseigne du commerce. Vous pourriez demander une photo au gérant du Vival éventuellement au 03.86.75.47.08</desc>
    <type>Boite à livre</type>
  </wpt>
  <wpt lat="48.2939828" lon="3.4008370000000006">
    <name>Ruelle de la Croix Blanche</name>
    <cmt>Amenity::entertainment:public_bookcase</cmt>
    <desc>Une cabane à livre construite avec plusieurs essences de bois locaux, par un bénévole passionné de menuiserie. Située à l entrée de l&apos;école, près d&apos;une aire de jeux et de bacs potagers partagés.</desc>
    <type>Boite à livre</type>
  </wpt>
  <wpt lat="46.94780800000001" lon="6.448637">
    <name>Rue Raymond Poincaré</name>
    <cmt>Amenity::entertainment:public_bookcase</cmt>
    <desc>Boîte à livres de l association Y a dquoi faire, sous l&apos;abribus</desc>
    <type>Boite à livre</type>
  </wpt>
  <wpt lat="47.2091939" lon="5.68321">
    <name>Rue du Closardot</name>
    <cmt>Amenity::entertainment:public_bookcase</cmt>
    <desc>Près d une maison</desc>
    <type>Boite à livre</type>
  </wpt>
  <wpt lat="46.76767209999999" lon="4.8344241">
    <name>Parc Comtesse-Keller, rue Auguste Martin</name>
    <cmt>Amenity::entertainment:public_bookcase</cmt>
    <desc>8 boîtes à lire en forme de nichoirs réparties dans le parc.</desc>
    <type>Boite à livre</type>
  </wpt>
  <wpt lat="47.26373761524136" lon="4.552781581878663">
    <name>Parc de jeux</name>
    <cmt>Amenity::entertainment:public_bookcase</cmt>
    <desc>Belle boite à livres, bien fournie</desc>
    <type>Boite à livre</type>
  </wpt>
  <wpt lat="47.214593099999995" lon="5.969835">
    <name>5 rue Louis Garnier</name>
    <cmt>Amenity::entertainment:public_bookcase</cmt>
    <desc>Dans le hall de la piscine La Fayette</desc>
    <type>Boite à livre</type>
  </wpt>
  <wpt lat="47.352422100000005" lon="6.361681199999999">
    <name>1 place de la république</name>
    <cmt>Amenity::entertainment:public_bookcase</cmt>
    <desc>Bonjour,une erreur s est glissée sur la carte... A baume les dames il y a deux boîte à livres:- 1 place de la république, et non place de la république et 3 place de la république comme le laisse penser les indications sur la carte-  8 Rue de Provence vers la maison de la mission local, voir le fichierJ&apos;ai dû vous induire en erreur en vous donnant les adresses.Cordialement,Guillaume</desc>
    <type>Boite à livre</type>
  </wpt>
  <wpt lat="46.62328099999999" lon="3.745964">
    <name>rue des forges</name>
    <cmt>Amenity::entertainment:public_bookcase</cmt>
    <desc>Boite sur le trottoir en face du tabac presse</desc>
    <type>Boite à livre</type>
  </wpt>
  <wpt lat="47.3909528" lon="6.991837000000001">
    <name>Route de Besancon</name>
    <cmt>Amenity::entertainment:public_bookcase</cmt>
    <desc>Sur le bord de la route, plutôt bien en vue</desc>
    <type>Boite à livre</type>
  </wpt>
  <wpt lat="47.647514" lon="6.835197">
    <name>Via d&apos;Auxelles</name>
    <cmt>Amenity::entertainment:public_bookcase</cmt>
    <desc>A côté des écoles</desc>
    <type>Boite à livre</type>
  </wpt>
  <wpt lat="47.80136309999999" lon="3.5276765000000005">
    <name>Rue de Bruxelles</name>
    <cmt>Amenity::entertainment:public_bookcase</cmt>
    <desc>Boite à lire dans la galerie du magasin Bi1</desc>
    <type>Boite à livre</type>
  </wpt>
  <wpt lat="46.65452160000002" lon="5.5993857">
    <name>4 rue Haute</name>
    <cmt>Amenity::entertainment:public_bookcase</cmt>
    <desc>Dans une cabine téléphonique. Sur la place à côté d un parking, de la mairie, de la poste et de l&apos;église.</desc>
    <type>Boite à livre</type>
  </wpt>
  <wpt lat="46.97662400000001" lon="4.687674">
    <name>Evelle</name>
    <cmt>Amenity::entertainment:public_bookcase</cmt>
    <desc>Bonjour,Avec ma mère qui habite le village, nous avons fait une boîte à lire dans l ancienne cabine téléphonique du hameau d&apos;Evelle en Côte d&apos;Or. Elle existe depuis deux ans, elle n&apos;est pas parfaite, mais elle a le mérite d&apos;exister!Bravo pour vos actions!</desc>
    <type>Boite à livre</type>
  </wpt>
  <wpt lat="47.3686788" lon="3.2796784999999997">
    <name>Grande rue</name>
    <cmt>Amenity::entertainment:public_bookcase</cmt>
    <desc>Ancienne cabine téléphonique du village aménagée en bibliothèque.</desc>
    <type>Boite à livre</type>
  </wpt>
  <wpt lat="47.8018505" lon="3.5275566">
    <name>Magasin ATAC Rue de Bruxelles</name>
    <cmt>Amenity::entertainment:public_bookcase</cmt>
    <desc>En entrant dans le magasin, prendre l allée tout de suite à droite menant au magasin de la presse. La boite est située dans un renfoncement sur la gauche</desc>
    <type>Boite à livre</type>
  </wpt>
  <wpt lat="47.48760859999999" lon="5.946130900000001">
    <name>Mairie</name>
    <cmt>Amenity::entertainment:public_bookcase</cmt>
    <desc>Se trouve sur une petite place au centre du village</desc>
    <type>Boite à livre</type>
  </wpt>
  <wpt lat="47.23999849999999" lon="5.2219565">
    <name>16 avenue général de gaule</name>
    <cmt>Amenity::entertainment:public_bookcase</cmt>
    <desc>Cabine à lire</desc>
    <type>Boite à livre</type>
  </wpt>
  <wpt lat="47.7980889" lon="3.5770008">
    <name>parc Roscoff</name>
    <cmt>Amenity::entertainment:public_bookcase</cmt>
    <desc>Cette boîte à lire se trouve dans l&apos;allée entre le parc Roscoff et le parking Roscoff, dans le prolongement de l&apos;allée Saint-Amarin.</desc>
    <type>Boite à livre</type>
  </wpt>
  <wpt lat="46.835439599999994" lon="6.3997907000000005">
    <name>36 Grande Rue</name>
    <cmt>Amenity::entertainment:public_bookcase</cmt>
    <desc>Ancienne cabine téléphonique transformée en boite à lire.</desc>
    <type>Boite à livre</type>
  </wpt>
  <wpt lat="47.26951700000001" lon="6.007928700000002">
    <name>49 chemin de Valentin</name>
    <cmt>Amenity::entertainment:public_bookcase</cmt>
    <type>Boite à livre</type>
  </wpt>
  <wpt lat="46.62857000000001" lon="4.620325">
    <name>MAM Les étoiles de mères</name>
    <cmt>Amenity::entertainment:public_bookcase</cmt>
    <type>Boite à livre</type>
  </wpt>
  <wpt lat="46.93399348317481" lon="3.26045036315918">
    <name>Square de la mairie</name>
    <cmt>Amenity::entertainment:public_bookcase</cmt>
    <desc>Près des marches de la salle Pierre Mendès France.</desc>
    <type>Boite à livre</type>
  </wpt>
  <wpt lat="46.6184039" lon="4.8150806">
    <name>Le bourg</name>
    <cmt>Amenity::entertainment:public_bookcase</cmt>
    <desc>En face de l école</desc>
    <type>Boite à livre</type>
  </wpt>
  <wpt lat="46.801624199999985" lon="5.3757343">
    <name>le bourg</name>
    <cmt>Amenity::entertainment:public_bookcase</cmt>
    <desc>Petite cabane à oiseaux qui est en fait une belle boîte à lire où les livres vont et viennent au fil des humeurs...</desc>
    <type>Boite à livre</type>
  </wpt>
  <wpt lat="47.31897859999999" lon="5.0079864">
    <name>allée de Grenoble</name>
    <cmt>Amenity::entertainment:public_bookcase</cmt>
    <desc>C&apos;est avec enthousiasme que les boîtes à livres prennent vie à Dijon. Il s&apos;agit d&apos;un projet collectif mené par les habitants  la municipalité et des associations.</desc>
    <type>Boite à livre</type>
  </wpt>
  <wpt lat="47.6214281" lon="4.3338809">
    <name>Place Gambetta</name>
    <cmt>Amenity::entertainment:public_bookcase</cmt>
    <desc>À l entrée du marché couvert</desc>
    <type>Boite à livre</type>
  </wpt>
  <wpt lat="47.176801299999994" lon="3.0189135">
    <name>Place du général de gaulle</name>
    <cmt>Amenity::entertainment:public_bookcase</cmt>
    <desc>Boîte à livres située devant le magasin de vêtements.</desc>
    <type>Boite à livre</type>
  </wpt>
  <wpt lat="47.23916039999998" lon="5.223898299999999">
    <name>33 avenue du Général de Gaulle</name>
    <cmt>Amenity::entertainment:public_bookcase</cmt>
    <desc>Entre l école primaire Paul Bert et l&apos;école maternelle Jacques Prévert</desc>
    <type>Boite à livre</type>
  </wpt>
  <wpt lat="46.253217099999986" lon="4.7925912">
    <name>Carrefour</name>
    <cmt>Amenity::entertainment:public_bookcase</cmt>
    <type>Boite à livre</type>
  </wpt>
  <wpt lat="47.35076079999998" lon="5.0428805">
    <name>23 rue Charles Baudelaire</name>
    <cmt>Amenity::entertainment:public_bookcase</cmt>
    <type>Boite à livre</type>
  </wpt>
  <wpt lat="47.63576699999999" lon="6.891892">
    <name>Rue des Saules</name>
    <cmt>Amenity::entertainment:public_bookcase</cmt>
    <desc>A proximité de l ancien lavoir</desc>
    <type>Boite à livre</type>
  </wpt>
  <wpt lat="47.54648369999998" lon="6.9344657000000005">
    <name>3 place du marché</name>
    <cmt>Amenity::entertainment:public_bookcase</cmt>
    <desc>située sur un mur de la Mairie, à côté des boîtes à lettres jaunes de la Poste. Inaugurée le samedi 2 juin 2018</desc>
    <type>Boite à livre</type>
  </wpt>
  <wpt lat="46.94475649999999" lon="4.3023454">
    <name>rue du Vieux Colombier</name>
    <cmt>Amenity::entertainment:public_bookcase</cmt>
    <desc>La cabane à livres est située sur le terrain d&apos;un verger conservatoire non loin d&apos;un quartier historique d&apos;Autun.</desc>
    <type>Boite à livre</type>
  </wpt>
  <wpt lat="47.447825399999985" lon="5.6309781">
    <name>13 rue SImon Gauthiot</name>
    <cmt>Amenity::entertainment:public_bookcase</cmt>
    <desc>C&apos;est une étagère à l&apos;intérieur de la Mairie. Elle est accessible pendant les horaires d&apos;ouverture de la Mairie</desc>
    <type>Boite à livre</type>
  </wpt>
  <wpt lat="47.526141399999986" lon="6.826908">
    <name>17, rue des Près</name>
    <cmt>Amenity::entertainment:public_bookcase</cmt>
    <desc>Dans l armoire entre les conteneurs de tri et Carrefour Express</desc>
    <type>Boite à livre</type>
  </wpt>
  <wpt lat="47.3003764" lon="5.9533576">
    <name>rue des pierrottes</name>
    <cmt>Amenity::entertainment:public_bookcase</cmt>
    <desc>Boite a lire en bordure de rue, sur le terrain privé d&apos;un écrivain au village.</desc>
    <type>Boite à livre</type>
  </wpt>
  <wpt lat="47.22595539999999" lon="4.9698172">
    <name>9 Rue Richebourg</name>
    <cmt>Amenity::entertainment:public_bookcase</cmt>
    <desc>Grande boîte à livres située juste devant le Vival dans le haut de Gevrey.</desc>
    <type>Boite à livre</type>
  </wpt>
  <wpt lat="47.31055499999999" lon="5.003446">
    <name>rue du Père Charles de Foucauld</name>
    <cmt>Amenity::entertainment:public_bookcase</cmt>
    <desc>C&apos;est avec enthousiasme que les boîtes à livres prennent vie à Dijon. Il s&apos;agit d&apos;un projet collectif mené par les habitants  la municipalité et des associations.</desc>
    <type>Boite à livre</type>
  </wpt>
  <wpt lat="46.734948999999986" lon="5.920462">
    <name>avenue Jean JAURES</name>
    <cmt>Amenity::entertainment:public_bookcase</cmt>
    <type>Boite à livre</type>
  </wpt>
  <wpt lat="47.9556392" lon="3.5363114000000007">
    <name>Place de l église</name>
    <cmt>Amenity::entertainment:public_bookcase</cmt>
    <desc>Derrière un arbre près du parking</desc>
    <type>Boite à livre</type>
  </wpt>
  <wpt lat="46.95641392879584" lon="6.011699438095093">
    <name>Sur la croix</name>
    <cmt>Amenity::entertainment:public_bookcase</cmt>
    <desc>Arrêt de bus</desc>
    <type>Boite à livre</type>
  </wpt>
  <wpt lat="46.76914999999999" lon="4.8280701">
    <name>Place Jean Jaurès</name>
    <cmt>Amenity::entertainment:public_bookcase</cmt>
    <type>Boite à livre</type>
  </wpt>
  <wpt lat="47.32695" lon="5.0451742">
    <name>Place de la république</name>
    <cmt>Amenity::entertainment:public_bookcase</cmt>
    <type>Boite à livre</type>
  </wpt>
  <wpt lat="46.774523099999996" lon="6.2825483">
    <name>7 grande rue</name>
    <cmt>Amenity::entertainment:public_bookcase</cmt>
    <desc>Boite située devant la mairie.</desc>
    <type>Boite à livre</type>
  </wpt>
  <wpt lat="47.0433421" lon="6.150002200000001">
    <name>3 bis, Grande Rue</name>
    <cmt>Amenity::entertainment:public_bookcase</cmt>
    <desc>Située sur la grande rue, près de la mairie</desc>
    <type>Boite à livre</type>
  </wpt>
  <wpt lat="47.3485356" lon="5.057507900000001">
    <name>14 avenue Franklin Roosevelt</name>
    <cmt>Amenity::entertainment:public_bookcase</cmt>
    <desc>Vers la maison de la petite enfance</desc>
    <type>Boite à livre</type>
  </wpt>
  <wpt lat="47.289027299999994" lon="3.8186606999999997">
    <name>Place François MITTERRAND</name>
    <cmt>Amenity::entertainment:public_bookcase</cmt>
    <desc>La boite à lire au niveau du Marché Couvert.</desc>
    <type>Boite à livre</type>
  </wpt>
  <wpt lat="47.1058802" lon="4.6702591">
    <name>place de l hotel de ville</name>
    <cmt>Amenity::entertainment:public_bookcase</cmt>
    <type>Boite à livre</type>
  </wpt>
  <wpt lat="47.388957999999995" lon="2.9247546">
    <name>Rue du Général Binot</name>
    <cmt>Amenity::entertainment:public_bookcase</cmt>
    <desc>Projet LECTURE Boîtes cofinancées par le Lions Club Cosne Puisaye et la Ville de Cosne-Cours-sur-Loire Dans le cadre du volet culturel du contrat de Ville.</desc>
    <type>Boite à livre</type>
  </wpt>
  <wpt lat="46.62490779999998" lon="5.492361399999999">
    <name>185 rue du pré haut</name>
    <cmt>Amenity::entertainment:public_bookcase</cmt>
    <desc>grande et belle boite a livres tres fournie, beaucoup de choix</desc>
    <type>Boite à livre</type>
  </wpt>
  <wpt lat="48.323041499999995" lon="3.1045315999999996">
    <name>17 Gr Grande Rue</name>
    <cmt>Amenity::entertainment:public_bookcase</cmt>
    <desc>Nouvelle boîte à livres à Chaumont</desc>
    <type>Boite à livre</type>
  </wpt>
  <wpt lat="47.23796920000001" lon="5.977119400000001">
    <name>6 chemin des Tilleroyes</name>
    <cmt>Amenity::entertainment:public_bookcase</cmt>
    <type>Boite à livre</type>
  </wpt>
  <wpt lat="46.99909739585045" lon="3.393123149871826">
    <name>Médiathèque</name>
    <cmt>Amenity::entertainment:public_bookcase</cmt>
    <desc>La médiathèque reprends et donne des livres qui ne peuvent être mis en rayon.</desc>
    <type>Boite à livre</type>
  </wpt>
  <wpt lat="47.317272" lon="4.999643">
    <name>Rue des Marcs d&apos;Or</name>
    <cmt>Amenity::entertainment:public_bookcase</cmt>
    <desc>Au niveau de l&apos;esplanade des marcs d&apos;ors. La boite est ccrochée à son arbre  à l&apos;intersection rue de bel air / rue des marcs d&apos;or.</desc>
    <type>Boite à livre</type>
  </wpt>
  <wpt lat="46.76784299999998" lon="4.835215">
    <name>Parc Comtesse-Keller, rue Auguste Martin</name>
    <cmt>Amenity::entertainment:public_bookcase</cmt>
    <desc>8 boîtes à lire en forme de nichoirs réparties sur les arbres du parc.</desc>
    <type>Boite à livre</type>
  </wpt>
  <wpt lat="47.50610360000001" lon="6.912042800000001">
    <name>18 grande Rue</name>
    <cmt>Amenity::entertainment:public_bookcase</cmt>
    <desc>Sur la façade du Petit Casino Vival à droite.</desc>
    <type>Boite à livre</type>
  </wpt>
  <wpt lat="48.1981352" lon="3.2823449">
    <name>7 Rue Voltaire</name>
    <cmt>Amenity::entertainment:public_bookcase</cmt>
    <desc>Sous le porche de la librairie Calligramme..</desc>
    <type>Boite à livre</type>
  </wpt>
  <wpt lat="47.268366999999984" lon="6.086852899999999">
    <name>Rue de Besançon</name>
    <cmt>Amenity::entertainment:public_bookcase</cmt>
    <desc>La boîte se trouve à l entrée du village, à côté de l&apos;arrêt de bus.</desc>
    <type>Boite à livre</type>
  </wpt>
  <wpt lat="47.32026630000001" lon="5.0267015">
    <name>14 Rue Jehan de Marville</name>
    <cmt>Amenity::entertainment:public_bookcase</cmt>
    <desc>C&apos;est avec enthousiasme que les boîtes à livres prennent vie à Dijon. Il s&apos;agit d&apos;un projet collectif mené par les habitants  la municipalité et des associations.</desc>
    <type>Boite à livre</type>
  </wpt>
  <wpt lat="46.630089999999996" lon="4.4778269">
    <name>Pla ce du chateau</name>
    <cmt>Amenity::entertainment:public_bookcase</cmt>
    <desc>En face du parking de la maison de retraite PLACE DU CHATEAU</desc>
    <type>Boite à livre</type>
  </wpt>
  <wpt lat="46.61311810000001" lon="4.4987993">
    <name>Le bourg route D105</name>
    <cmt>Amenity::entertainment:public_bookcase</cmt>
    <desc>Cour de l&apos;école</desc>
    <type>Boite à livre</type>
  </wpt>
  <wpt lat="46.61857479999999" lon="3.7731760999999997">
    <name>rue de l&apos;horloge</name>
    <cmt>Amenity::entertainment:public_bookcase</cmt>
    <desc>Arrivant de la rue du clocher, a droite du petit square.</desc>
    <type>Boite à livre</type>
  </wpt>
  <wpt lat="47.3125495" lon="5.044525800000001">
    <name>Cours du général de Gaulle</name>
    <cmt>Amenity::entertainment:public_bookcase</cmt>
    <desc>Entrée principale du Parc de la Colombière Boite double, adulte et enfant</desc>
    <type>Boite à livre</type>
  </wpt>
  <wpt lat="46.783352699999995" lon="4.8488105">
    <name>square Chabas, Boulevard de la république</name>
    <cmt>Amenity::entertainment:public_bookcase</cmt>
    <desc>elle se trouve dans le petit parc</desc>
    <type>Boite à livre</type>
  </wpt>
  <wpt lat="47.3109037" lon="5.104127299999999">
    <name>CC Carrefour Quetigny - Avenue de Bourgogne</name>
    <cmt>Amenity::entertainment:public_bookcase</cmt>
    <desc>Pomme de Pain QUETIGNY</desc>
    <type>Boite à livre</type>
  </wpt>
  <wpt lat="47.056091999999985" lon="6.6012849000000005">
    <name>rue de la Chaussée</name>
    <cmt>Amenity::entertainment:public_bookcase</cmt>
    <desc>A l initiative du Lions Club, une boîte à livres vient d&apos;être installée par les services de la ville, en face de la médiathèque, dans la rue de la Chaussée.</desc>
    <type>Boite à livre</type>
  </wpt>
  <wpt lat="47.128681299999975" lon="3.1025182">
    <name>8, Place des Résistants</name>
    <cmt>Amenity::entertainment:public_bookcase</cmt>
    <desc>Une belle boîte à livres créée par les enfants de l Accueil de Loisirs et les Services Techniques.</desc>
    <type>Boite à livre</type>
  </wpt>
  <wpt lat="46.575508499999984" lon="5.9608667">
    <name>2 rue des Pesieres</name>
    <cmt>Amenity::entertainment:public_bookcase</cmt>
    <desc>Juste à l&apos;entrée de l&apos;école, une boîte à lire spécialisée dans les livres pour enfants</desc>
    <type>Boite à livre</type>
  </wpt>
  <wpt lat="47.316131499999976" lon="5.042490899999999">
    <name>Place Wilson</name>
    <cmt>Amenity::entertainment:public_bookcase</cmt>
    <desc>C&apos;est avec enthousiasme que les boîtes à livres prennent vie à Dijon. Il s&apos;agit d&apos;un projet collectif mené par les habitants  la municipalité et des associations.</desc>
    <type>Boite à livre</type>
  </wpt>
  <wpt lat="47.82164719999999" lon="6.375365999999999">
    <name>Rue Clémenceau</name>
    <cmt>Amenity::entertainment:public_bookcase</cmt>
    <desc>BAL dans une ancienne cabine téléphonique rouge</desc>
    <type>Boite à livre</type>
  </wpt>
  <wpt lat="47.49643679999998" lon="4.6222997">
    <name>3 rue de l&apos;église</name>
    <cmt>Amenity::entertainment:public_bookcase</cmt>
    <desc>Deux boîtes à livres, une pour les petits et l?autre pour les grands. Installe et inaugure le 24 MARS 2018 à l?an suite d?un projet de deux collégiens du village. Retrouvez la page Facebook de la boîte à livres : Boîtes à livres de Thenissey</desc>
    <type>Boite à livre</type>
  </wpt>
  <wpt lat="46.601967999999985" lon="5.828704">
    <name>Centre village</name>
    <cmt>Amenity::entertainment:public_bookcase</cmt>
    <type>Boite à livre</type>
  </wpt>
  <wpt lat="47.318144" lon="4.094637">
    <name>La vieille auberge du lac bar hôtel restaurant La Bourg</name>
    <cmt>Amenity::entertainment:public_bookcase</cmt>
    <desc>La boîte à lire est située sur le côté du mur de l auberge.</desc>
    <type>Boite à livre</type>
  </wpt>
  <wpt lat="46.43795809999999" lon="4.6617668">
    <name>entre le parking du Prado et l hôtel Cluny Séjour</name>
    <cmt>Amenity::entertainment:public_bookcase</cmt>
    <type>Boite à livre</type>
  </wpt>
  <wpt lat="47.25563969999999" lon="6.01661">
    <name>9 T rue Jean Wyrsch</name>
    <cmt>Amenity::entertainment:public_bookcase</cmt>
    <type>Boite à livre</type>
  </wpt>
  <wpt lat="47.33150639999999" lon="5.0381381">
    <name>1 Ter Rue de Beaune</name>
    <cmt>Amenity::entertainment:public_bookcase</cmt>
    <desc>Cette boîte à lire est située dans une MJC. Elle est accessible à tout le monde aux heures d ouverture. On y trouve des livres pour les petits  certes  mais aussi pour les plus grands !</desc>
    <type>Boite à livre</type>
  </wpt>
  <wpt lat="47.559971999999995" lon="3.323623">
    <name>Grande rue de Sougères</name>
    <cmt>Amenity::entertainment:public_bookcase</cmt>
    <desc>Boîte aux livres créée à l&apos;initiative de l association  TERRES et PIERRES  inaugurée le 24 mars 2018.</desc>
    <type>Boite à livre</type>
  </wpt>
  <wpt lat="47.267709799999984" lon="5.7790755">
    <name>Devant la mairie</name>
    <cmt>Amenity::entertainment:public_bookcase</cmt>
    <desc>Très belle boîte à lire ... super sympa !!!</desc>
    <type>Boite à livre</type>
  </wpt>
  <wpt lat="46.83676400000001" lon="4.663571">
    <name>Aluze</name>
    <cmt>Amenity::entertainment:public_bookcase</cmt>
    <desc>Boite a lire sous l arret de bus</desc>
    <type>Boite à livre</type>
  </wpt>
  <wpt lat="46.80543529999999" lon="4.4231665">
    <name>PARC DE LA VERRERIE</name>
    <cmt>Amenity::entertainment:public_bookcase</cmt>
    <desc>Espace jeux pour enfants</desc>
    <type>Boite à livre</type>
  </wpt>
  <wpt lat="46.559775" lon="5.421977">
    <name>Maynal</name>
    <cmt>Amenity::entertainment:public_bookcase</cmt>
    <desc>Sous l&apos;abri de bus situé vers la place proche d&apos;une fontaine.</desc>
    <type>Boite à livre</type>
  </wpt>
  <wpt lat="47.149633300000005" lon="6.268689">
    <name>2 rue des Granges</name>
    <cmt>Amenity::entertainment:public_bookcase</cmt>
    <desc>Petite  Boite à Lire pour voyageurs sous les arches de la mairie/école</desc>
    <type>Boite à livre</type>
  </wpt>
  <wpt lat="46.56625189999999" lon="4.4074977">
    <name>bourg</name>
    <cmt>Amenity::entertainment:public_bookcase</cmt>
    <desc>Se situe au niveau du Bourg</desc>
    <type>Boite à livre</type>
  </wpt>
  <wpt lat="48.001180199999986" lon="3.7181436000000003">
    <name>magasin atac entree de saint florentin</name>
    <cmt>Amenity::entertainment:public_bookcase</cmt>
    <desc>à l interieur du magasin</desc>
    <type>Boite à livre</type>
  </wpt>
  <wpt lat="47.2547668447272" lon="6.02027177810669">
    <name>Parc Buffon</name>
    <cmt>Amenity::entertainment:public_bookcase</cmt>
    <type>Boite à livre</type>
  </wpt>
  <wpt lat="46.3172953" lon="4.8371524">
    <name>Centre social milles fenêtres Marbe</name>
    <cmt>Amenity::entertainment:public_bookcase</cmt>
    <desc>Je suis l initiatrice de cette boîte mini bibliothèque consultable aux heures d&apos;ouverture du CS</desc>
    <type>Boite à livre</type>
  </wpt>
  <wpt lat="47.219178899999996" lon="5.9736673">
    <name>7 rue Pablo Picasso</name>
    <cmt>Amenity::entertainment:public_bookcase</cmt>
    <type>Boite à livre</type>
  </wpt>
  <wpt lat="47.741730699999984" lon="6.8275971">
    <name>Rue Maginot</name>
    <cmt>Amenity::entertainment:public_bookcase</cmt>
    <type>Boite à livre</type>
  </wpt>
  <wpt lat="47.330661899999996" lon="5.032897">
    <name>Place Paul Bert</name>
    <cmt>Amenity::entertainment:public_bookcase</cmt>
    <desc>En face de la pharmacie rue de Montchpet</desc>
    <type>Boite à livre</type>
  </wpt>
  <wpt lat="46.54775930000002" lon="4.6850973">
    <name>Place de lecole</name>
    <cmt>Amenity::entertainment:public_bookcase</cmt>
    <type>Boite à livre</type>
  </wpt>
  <wpt lat="47.30764809999998" lon="5.024861">
    <name>Avenue Jean Jaurès</name>
    <cmt>Amenity::entertainment:public_bookcase</cmt>
    <desc>C&apos;est avec enthousiasme que les boîtes à livres prennent vie à Dijon. Il s&apos;agit d&apos;un projet collectif mené par les habitants  la municipalité et des associations.</desc>
    <type>Boite à livre</type>
  </wpt>
  <wpt lat="47.31352439999998" lon="5.0134912">
    <name>124 Avenue Gustave Eiffel</name>
    <cmt>Amenity::entertainment:public_bookcase</cmt>
    <desc>Elle se situe à l&apos;entrée du jardin du Château de Larrey. En bois  il y a pas mal de flux entrant et sortant.</desc>
    <type>Boite à livre</type>
  </wpt>
  <wpt lat="46.74898700000001" lon="4.811993">
    <name>Rue des marronniers</name>
    <cmt>Amenity::entertainment:public_bookcase</cmt>
    <desc>Nichoirs à lire à CORTELIN</desc>
    <type>Boite à livre</type>
  </wpt>
  <wpt lat="46.617899999999985" lon="3.767542">
    <name>parc thermal</name>
    <cmt>Amenity::entertainment:public_bookcase</cmt>
    <desc>La boite en bois se trouve dans le parc thermal, derrière le complexe spa Celtô. Près de l hotel thermal.</desc>
    <type>Boite à livre</type>
  </wpt>
  <wpt lat="46.21379599999999" lon="4.764208">
    <name>Les Grandes Terres</name>
    <cmt>Amenity::entertainment:public_bookcase</cmt>
    <desc>A l&apos;intérieur du supermarché Bi1n, anciennement Atac</desc>
    <type>Boite à livre</type>
  </wpt>
  <wpt lat="46.78976419999998" lon="6.523451599999999">
    <name>Rue du chemin neuf 6</name>
    <cmt>Amenity::entertainment:public_bookcase</cmt>
    <desc>La boîte se situe sur le petit mur qui longe le jardin.</desc>
    <type>Boite à livre</type>
  </wpt>
  <wpt lat="46.307754800000005" lon="4.6004265">
    <name>Place de la Poste</name>
    <cmt>Amenity::entertainment:public_bookcase</cmt>
    <desc>La boîte est située juste à côté de la Poste, face à l&apos;office de tourisme.</desc>
    <type>Boite à livre</type>
  </wpt>
  <wpt lat="46.953028200000006" lon="5.5013028">
    <name>2 chemin des mares</name>
    <cmt>Amenity::entertainment:public_bookcase</cmt>
    <desc>devant les commerces de proximité Vival, très belle initiative.</desc>
    <type>Boite à livre</type>
  </wpt>
  <wpt lat="47.51521949999997" lon="7.0015646">
    <name>Faubourg de Belfort</name>
    <cmt>Amenity::entertainment:public_bookcase</cmt>
    <desc>Intermarché, dans le sas de sortie, un grand choix de livre !</desc>
    <type>Boite à livre</type>
  </wpt>
  <wpt lat="46.875109900000005" lon="4.738921099999999">
    <name>32 place sainte marie</name>
    <cmt>Amenity::entertainment:public_bookcase</cmt>
    <desc>Boîte à livre située devant le commerce Vival</desc>
    <type>Boite à livre</type>
  </wpt>
  <wpt lat="46.783644999999986" lon="4.849897">
    <name>Boulevard de la république</name>
    <cmt>Amenity::entertainment:public_bookcase</cmt>
    <desc>Dans le square Chabas.</desc>
    <type>Boite à livre</type>
  </wpt>
  <wpt lat="47.2386045" lon="5.227582700000001">
    <name>5 chemin guyot</name>
    <cmt>Amenity::entertainment:public_bookcase</cmt>
    <desc>Boite installée à côté du collège</desc>
    <type>Boite à livre</type>
  </wpt>
  <wpt lat="47.3433137" lon="5.0432367">
    <name>1bis rue Maupassant</name>
    <cmt>Amenity::entertainment:public_bookcase</cmt>
    <desc>Vers le groupe scolaire Alain Millot</desc>
    <type>Boite à livre</type>
  </wpt>
  <wpt lat="46.77437939999998" lon="6.2823101">
    <name>7 Grande Rue</name>
    <cmt>Amenity::entertainment:public_bookcase</cmt>
    <desc>Contre le mur de la Mairie</desc>
    <type>Boite à livre</type>
  </wpt>
  <wpt lat="47.414696" lon="7.0710500000000005">
    <name>Rue mont-joie</name>
    <cmt>Amenity::entertainment:public_bookcase</cmt>
    <type>Boite à livre</type>
  </wpt>
  <wpt lat="47.177334300000005" lon="3.0211898">
    <name>Place Saint-Pierre</name>
    <cmt>Amenity::entertainment:public_bookcase</cmt>
    <type>Boite à livre</type>
  </wpt>
  <wpt lat="46.720075" lon="5.578867400000001">
    <name>Place de la fontaine</name>
    <cmt>Amenity::entertainment:public_bookcase</cmt>
    <desc>La boite à livres est une cabine téléphonique, située sur la place du village.</desc>
    <type>Boite à livre</type>
  </wpt>
  <wpt lat="46.833200999999995" lon="3.458032">
    <name>Allé Marcel Merle</name>
    <cmt>Amenity::entertainment:public_bookcase</cmt>
    <desc>La boite à lire se situe vers le stade, près du camping.</desc>
    <type>Boite à livre</type>
  </wpt>
  <wpt lat="46.71360000000001" lon="4.585584">
    <name>Le Martrat</name>
    <cmt>Amenity::entertainment:public_bookcase</cmt>
    <type>Boite à livre</type>
  </wpt>
  <wpt lat="47.49243039999999" lon="3.9230719">
    <name>rue de Lyon</name>
    <cmt>Amenity::entertainment:public_bookcase</cmt>
    <desc>Devant le cinéma Vauban</desc>
    <type>Boite à livre</type>
  </wpt>
  <wpt lat="47.352579299999995" lon="6.361861200000001">
    <name>3 Place de la République</name>
    <cmt>Amenity::entertainment:public_bookcase</cmt>
    <desc>La boîte est à droite de la porte de la mairie de baum-les-dames</desc>
    <type>Boite à livre</type>
  </wpt>
  <wpt lat="47.2323696944486" lon="6.299307346343995">
    <name>Rue de la riotte</name>
    <cmt>Amenity::entertainment:public_bookcase</cmt>
    <desc>à l&apos;angle de la rue de l&apos;eglise</desc>
    <type>Boite à livre</type>
  </wpt>
  <wpt lat="46.80190379999998" lon="7.145531">
    <name>34 Avenue Beauregard</name>
    <cmt>Amenity::entertainment:public_bookcase</cmt>
    <desc>à côté de la boulangerie Lauper</desc>
    <type>Boite à livre</type>
  </wpt>
  <wpt lat="46.320510999999996" lon="4.816955">
    <name>81 rue de la Liberté</name>
    <cmt>Amenity::entertainment:public_bookcase</cmt>
    <desc>Boîte à livres du côté de Flacé, rattachée au magasin Vival</desc>
    <type>Boite à livre</type>
  </wpt>
  <wpt lat="47.801372999999984" lon="6.059092">
    <name>Ecole</name>
    <cmt>Amenity::entertainment:public_bookcase</cmt>
    <desc>Situé dans un lavoir à côté de l ecole</desc>
    <type>Boite à livre</type>
  </wpt>
  <wpt lat="47.498390699999995" lon="3.9062736000000005">
    <name>Centre commercial Auchan</name>
    <cmt>Amenity::entertainment:public_bookcase</cmt>
    <desc>Auchan a mis à disposition ses invendus au public avec l esprit de la boîte à lire. On peut également en déposer. Il y a un peu de tout, mais très souvent des livres âgés...</desc>
    <type>Boite à livre</type>
  </wpt>
  <wpt lat="46.517023599999995" lon="6.0242033">
    <name>160 rue de la République</name>
    <cmt>Amenity::entertainment:public_bookcase</cmt>
    <desc>Implantée Square à la Diane</desc>
    <type>Boite à livre</type>
  </wpt>
  <wpt lat="46.98363397396173" lon="3.1533658504486084">
    <name>quai des marinier</name>
    <cmt>Amenity::entertainment:public_bookcase</cmt>
    <desc>face au square edouard millien</desc>
    <type>Boite à livre</type>
  </wpt>
  <wpt lat="47.4706037" lon="6.9633799">
    <name>rue de l Eglise</name>
    <cmt>Amenity::entertainment:public_bookcase</cmt>
    <desc>Dans la rue de l Eglise, il y a une armoire dans l&apos;abri bus en bois. Beaucoup de choix ... livres, revues jardinage, CD et même vinyls</desc>
    <type>Boite à livre</type>
  </wpt>
  <wpt lat="46.67634899999998" lon="4.383414">
    <name>Boulevard du Plessis, aux abords du lac</name>
    <cmt>Amenity::entertainment:public_bookcase</cmt>
    <type>Boite à livre</type>
  </wpt>
  <wpt lat="47.473456999999996" lon="6.580399">
    <name>place des tilleuls</name>
    <cmt>Amenity::entertainment:public_bookcase</cmt>
    <desc>Une boîte à livres se trouve sur la place des tilleuls dans le village d étrappeCordialement,guillaume</desc>
    <type>Boite à livre</type>
  </wpt>
  <wpt lat="46.77333179999999" lon="4.8333541">
    <name>Place du Pont - Paron</name>
    <cmt>Amenity::entertainment:public_bookcase</cmt>
    <desc>Abri à lire.</desc>
    <type>Boite à livre</type>
  </wpt>
  <wpt lat="47.315188" lon="5.0567226000000005">
    <name>Parc des Argentières</name>
    <cmt>Amenity::entertainment:public_bookcase</cmt>
    <type>Boite à livre</type>
  </wpt>
  <wpt lat="46.57656010000001" lon="5.4362827">
    <name>Maximarché</name>
    <cmt>Amenity::entertainment:public_bookcase</cmt>
    <desc>en forme d étagère-maisonnette, avec une porte vitrée, installée sur le petit parking qui se trouve à l&apos;intersection de la route nationale et de la voie privée menant au supermarché Maximarché</desc>
    <type>Boite à livre</type>
  </wpt>
  <wpt lat="47.93336369999999" lon="3.1061189">
    <name>2 route de Montargis</name>
    <cmt>Amenity::entertainment:public_bookcase</cmt>
    <desc>Devant la Mairie</desc>
    <type>Boite à livre</type>
  </wpt>
  <wpt lat="46.89779040277241" lon="5.644778609275817">
    <name>Route de Genève</name>
    <cmt>Amenity::entertainment:public_bookcase</cmt>
    <desc>Mise en place par la commune</desc>
    <type>Boite à livre</type>
  </wpt>
  <wpt lat="46.310891" lon="4.796510200000001">
    <name>champgrenon</name>
    <cmt>Amenity::entertainment:public_bookcase</cmt>
    <desc>Dans le centre de loisirs</desc>
    <type>Boite à livre</type>
  </wpt>
  <wpt lat="46.87787259999999" lon="5.2732869">
    <name>Supermarché Bi1</name>
    <cmt>Amenity::entertainment:public_bookcase</cmt>
    <desc>près des caisses</desc>
    <type>Boite à livre</type>
  </wpt>
  <wpt lat="47.61516299999999" lon="6.9989875">
    <name>Rue des Vosges</name>
    <cmt>Amenity::entertainment:public_bookcase</cmt>
    <desc>Ancienne armoire transformée.</desc>
    <type>Boite à livre</type>
  </wpt>
  <wpt lat="46.51954349999999" lon="6.01981">
    <name>impasse des tilleuls</name>
    <cmt>Amenity::entertainment:public_bookcase</cmt>
    <desc>Cabine téléphonique</desc>
    <type>Boite à livre</type>
  </wpt>
  <wpt lat="46.6773984" lon="4.3578323">
    <name>Aire camping car à génelard</name>
    <cmt>Amenity::entertainment:public_bookcase</cmt>
    <desc>Aire camping car à génelard</desc>
    <type>Boite à livre</type>
  </wpt>
  <wpt lat="47.63397299999998" lon="6.842142000000001">
    <name>rue de Bruxelles</name>
    <cmt>Amenity::entertainment:public_bookcase</cmt>
    <desc>A côté de l aire de jeux.</desc>
    <type>Boite à livre</type>
  </wpt>
  <wpt lat="46.632210499999985" lon="4.4802602">
    <name>Place principale</name>
    <cmt>Amenity::entertainment:public_bookcase</cmt>
    <desc>Boîte à lire atypique dans une ancienne bascule de pesée !</desc>
    <type>Boite à livre</type>
  </wpt>
  <wpt lat="47.18622879999999" lon="3.0133536">
    <name>14, rue Henri Dunant</name>
    <cmt>Amenity::entertainment:public_bookcase</cmt>
    <desc>Nous avons mis des livres au frais pour vous ! Venez les dévorer !</desc>
    <type>Boite à livre</type>
  </wpt>
  <wpt lat="47.43544949999997" lon="2.9654972">
    <name>Rue du Bourg, Mairie de Cours</name>
    <cmt>Amenity::entertainment:public_bookcase</cmt>
    <desc>Boîtes cofinancées par le Lions club Cosne puisaye et la ville de Cosne-Cours-sur-Loire dans le cadre du volet culturel du contrat de ville.</desc>
    <type>Boite à livre</type>
  </wpt>
  <wpt lat="47.010341599999975" lon="5.1576732000000005">
    <name>Supermarché Bi1</name>
    <cmt>Amenity::entertainment:public_bookcase</cmt>
    <desc>A côté des caisses</desc>
    <type>Boite à livre</type>
  </wpt>
  <wpt lat="47.34185489999999" lon="5.052995400000001">
    <name>19 rue Henri Farman</name>
    <cmt>Amenity::entertainment:public_bookcase</cmt>
    <desc>Vers le collège Clos de Pouilly</desc>
    <type>Boite à livre</type>
  </wpt>
  <wpt lat="47.823068899999996" lon="3.4662787000000006">
    <name>rue des écoles</name>
    <cmt>Amenity::entertainment:public_bookcase</cmt>
    <type>Boite à livre</type>
  </wpt>
  <wpt lat="46.658863999999994" lon="5.567089">
    <name>Parc municipal de Montaigu</name>
    <cmt>Amenity::entertainment:public_bookcase</cmt>
    <desc>Contre la façade du bâtiment face à la salle des fêtes, à droite en entrant dans le parc</desc>
    <type>Boite à livre</type>
  </wpt>
  <wpt lat="47.252551" lon="6.802118200000001">
    <name>16 rue du Général de Gaulle</name>
    <cmt>Amenity::entertainment:public_bookcase</cmt>
    <desc>Boîte à livres installée par la ville de Maîche</desc>
    <type>Boite à livre</type>
  </wpt>
  <wpt lat="47.44799709999999" lon="6.5832457">
    <name>14 Rue du Magny</name>
    <cmt>Amenity::entertainment:public_bookcase</cmt>
    <desc>La boite à livre est devant le magasin  la vie claire</desc>
    <type>Boite à livre</type>
  </wpt>
  <wpt lat="46.29975499999999" lon="4.149146">
    <name>2 promenade armistice briant</name>
    <cmt>Amenity::entertainment:public_bookcase</cmt>
    <desc>Au bord de la rivière de la Norges</desc>
    <type>Boite à livre</type>
  </wpt>
  <wpt lat="47.25610099999998" lon="5.985873">
    <name>51 rue de l&apos;Épitaphe</name>
    <cmt>Amenity::entertainment:public_bookcase</cmt>
    <type>Boite à livre</type>
  </wpt>
  <wpt lat="46.92779999999998" lon="3.2610669999999997">
    <name>Place de l&apos;église</name>
    <cmt>Amenity::entertainment:public_bookcase</cmt>
    <type>Boite à livre</type>
  </wpt>
  <wpt lat="47.04288734747029" lon="3.3920878171920785">
    <name>le bourg</name>
    <cmt>Amenity::entertainment:public_bookcase</cmt>
    <desc>en bois</desc>
    <type>Boite à livre</type>
  </wpt>
  <wpt lat="47.6086978" lon="6.1604482">
    <name>Place de la mairie</name>
    <cmt>Amenity::entertainment:public_bookcase</cmt>
    <type>Boite à livre</type>
  </wpt>
  <wpt lat="47.33329989999999" lon="5.0239014">
    <name>rue Alphonse Legros</name>
    <cmt>Amenity::entertainment:public_bookcase</cmt>
    <type>Boite à livre</type>
  </wpt>
  <wpt lat="46.44558789999999" lon="4.2916817">
    <name>Route de Viry</name>
    <cmt>Amenity::entertainment:public_bookcase</cmt>
    <desc>La boîte à lire est située au sein du camping municipal. Elle est bien sûr accessible à tous et à toutes. Livres jeunesse et pour adultes s&apos;y côtoient.</desc>
    <type>Boite à livre</type>
  </wpt>
  <wpt lat="47.61869979999998" lon="4.3362696">
    <name>Gare SNCF</name>
    <cmt>Amenity::entertainment:public_bookcase</cmt>
    <type>Boite à livre</type>
  </wpt>
  <wpt lat="47.2381696" lon="5.221190200000001">
    <name>5 Rue de la Prairie</name>
    <cmt>Amenity::entertainment:public_bookcase</cmt>
    <desc>Boîte située dans le petit parc derrière l&apos;EHPAD et le Château en face des jeux pour enfants</desc>
    <type>Boite à livre</type>
  </wpt>
  <wpt lat="47.3918208" lon="4.1617053">
    <name>route nationale 6</name>
    <cmt>Amenity::entertainment:public_bookcase</cmt>
    <desc>devant les commerces de proximité Vival, très belle initiative.</desc>
    <type>Boite à livre</type>
  </wpt>
  <wpt lat="47.24361899999999" lon="3.31436">
    <name>Lavoir</name>
    <cmt>Amenity::entertainment:public_bookcase</cmt>
    <desc>Une bibliothèque est disponibles à tous dans le l avoir communal.</desc>
    <type>Boite à livre</type>
  </wpt>
  <wpt lat="46.523942199999986" lon="6.0223705">
    <name>Morez voir commentaire</name>
    <cmt>Amenity::entertainment:public_bookcase</cmt>
    <desc>Morez, les boîtes et cabines à livres sont installéesLe Puits, à l entrée du parcVilledieu, arrêt de bus en face de la crècheBas de Morez, Square d&apos;AchernCentre-ville, cabine téléphonique à l&apos;angle de la rue de la PromenadeMorez-Dessus, cabine téléphonique, impasse des TilleulsHaut de Morez, Square de la fontaine à la Diane.A La Mouille, la boîte à livres est installée sur la façade de l&apos;ancienne mairie, au centre du village.A Lézat, la boîte à livres est installée aux Mouillés, à côté de l&apos;abribus.</desc>
    <type>Boite à livre</type>
  </wpt>
  <wpt lat="47.3502652" lon="5.050562800000001">
    <name>1 Rue Edouard Manet</name>
    <cmt>Amenity::entertainment:public_bookcase</cmt>
    <desc>Devant l école élémentaire du Château de Pouilly</desc>
    <type>Boite à livre</type>
  </wpt>
  <wpt lat="46.98592269999999" lon="3.1621762">
    <name>58 bords de loire</name>
    <cmt>Amenity::entertainment:public_bookcase</cmt>
    <desc>devant la poste des courlis, au rond point de la rue de la gare</desc>
    <type>Boite à livre</type>
  </wpt>
  <wpt lat="47.427840481690374" lon="5.6369948387146">
    <name>157 Grande Rue</name>
    <cmt>Amenity::entertainment:public_bookcase</cmt>
    <desc>C&apos;est une ancienne cabine téléphonique transformée en cabane à livres.</desc>
    <type>Boite à livre</type>
  </wpt>
  <wpt lat="47.397947900000005" lon="2.9278254">
    <name>15 Rue du Berry</name>
    <cmt>Amenity::entertainment:public_bookcase</cmt>
    <desc>Devant le centre social</desc>
    <type>Boite à livre</type>
  </wpt>
  <wpt lat="47.266794699999984" lon="5.0048735">
    <name>grande rue</name>
    <cmt>Amenity::entertainment:public_bookcase</cmt>
    <desc>Petite boîte à livres située juste devant la boulangeri</desc>
    <type>Boite à livre</type>
  </wpt>
  <wpt lat="47.3155469" lon="5.019021300000001">
    <name>rue de Larrey</name>
    <cmt>Amenity::entertainment:public_bookcase</cmt>
    <desc>C&apos;est avec enthousiasme que les boîtes à livres prennent vie à Dijon. Il s&apos;agit d&apos;un projet collectif mené par les habitants  la municipalité et des associations.</desc>
    <type>Boite à livre</type>
  </wpt>
  <wpt lat="47.6913868" lon="6.0379799">
    <name>5 rue de remaucourt</name>
    <cmt>Amenity::entertainment:public_bookcase</cmt>
    <desc>À côté de la fontaine</desc>
    <type>Boite à livre</type>
  </wpt>
  <wpt lat="47.103551999999986" lon="5.25918">
    <name>avenue de la gare</name>
    <cmt>Amenity::entertainment:public_bookcase</cmt>
    <desc>Avenue de la gare d eau a saint jean de losne</desc>
    <type>Boite à livre</type>
  </wpt>
  <wpt lat="46.99414899999999" lon="4.899231">
    <name>Combertault</name>
    <cmt>Amenity::entertainment:public_bookcase</cmt>
    <desc>Ancienne cabine téléphonique</desc>
    <type>Boite à livre</type>
  </wpt>
  <wpt lat="46.539340999999986" lon="4.688779">
    <name>1 rue de l hermitage</name>
    <cmt>Amenity::entertainment:public_bookcase</cmt>
    <desc>Boite à échange,  livres et objetsà l angle de la D 187  et de l&apos;impasse de l hermitage.</desc>
    <type>Boite à livre</type>
  </wpt>
  <wpt lat="47.2431484" lon="6.0220689">
    <name>ruelle billard</name>
    <cmt>Amenity::entertainment:public_bookcase</cmt>
    <desc>Au croisement de la rue du Petit Battant. Boite vitrée.</desc>
    <type>Boite à livre</type>
  </wpt>
  <wpt lat="47.310402999999994" lon="5.059795600000001">
    <name>Rue mansard</name>
    <cmt>Amenity::entertainment:public_bookcase</cmt>
    <type>Boite à livre</type>
  </wpt>
  <wpt lat="47.48156049999999" lon="6.8412807">
    <name>Impasse de la Mairie</name>
    <cmt>Amenity::entertainment:public_bookcase</cmt>
    <type>Boite à livre</type>
  </wpt>
  <wpt lat="47.81991279999999" lon="6.3767894">
    <name>avenue des thermes</name>
    <cmt>Amenity::entertainment:public_bookcase</cmt>
    <type>Boite à livre</type>
  </wpt>
  <wpt lat="46.26856990000001" lon="4.770791">
    <name>Rue De La Mairie</name>
    <cmt>Amenity::entertainment:public_bookcase</cmt>
    <desc>Devant la mairie sur la gauche sous un préau</desc>
    <type>Boite à livre</type>
  </wpt>
  <wpt lat="46.99783151006321" lon="3.394324779510498">
    <name>Parc Rosa Bonheur</name>
    <cmt>Amenity::entertainment:public_bookcase</cmt>
    <desc>Boîte à lire située dans le parc.</desc>
    <type>Boite à livre</type>
  </wpt>
  <wpt lat="47.792253" lon="3.579674">
    <name>9 rue de Preuilly</name>
    <cmt>Amenity::entertainment:public_bookcase</cmt>
    <desc>Une bibliothèque mise à disposition dans l&apos;entrée du magasin ATAC.</desc>
    <type>Boite à livre</type>
  </wpt>
  <wpt lat="47.332608299999976" lon="5.0631221">
    <name>Boulevard des Martyrs de la Résistance</name>
    <cmt>Amenity::entertainment:public_bookcase</cmt>
    <desc>Juste à côté de l arrêt de bus</desc>
    <type>Boite à livre</type>
  </wpt>
</gpx>