<?xml version='1.0' encoding='UTF-8'?>
<gpx version="1.1" creator="JOSM GPX export" xmlns="http://www.topografix.com/GPX/1/1"
    xmlns:xsi="http://www.w3.org/2001/XMLSchema-instance"
    xsi:schemaLocation="http://www.topografix.com/GPX/1/1 http://www.topografix.com/GPX/1/1/gpx.xsd">
  <metadata>
    <author>
      <name>Binnette</name>
    </author>
    <copyright author="Binnette">
      <year>2020</year>
      <license>MIT</license>
    </copyright>
    <bounds minlat="47.3699735" minlon="-5.0913948" maxlat="48.8426379" maxlon="-1.1228358"/>
  </metadata>
  <wpt lat="47.58695329999999" lon="-3.0273986">
    <name>17 Cours des quais</name>
    <cmt>Amenity::entertainment:public_bookcase</cmt>
    <desc>Boîte à lire très sympathique au niveau d&apos;une galerie d&apos;art. Placée idéalement pour une lecture en face du port.</desc>
    <type>Boite à livre</type>
  </wpt>
  <wpt lat="48.52094409999999" lon="-3.946405">
    <name>place de la mairie, Loc-Eguiner-Saint-Thégonnec</name>
    <cmt>Amenity::entertainment:public_bookcase</cmt>
    <desc>En face de la mairie, à côté du panneau d affichage</desc>
    <type>Boite à livre</type>
  </wpt>
  <wpt lat="48.31964599999999" lon="-1.832164">
    <name>la reinais</name>
    <cmt>Amenity::entertainment:public_bookcase</cmt>
    <type>Boite à livre</type>
  </wpt>
  <wpt lat="48.099666999999975" lon="-2.0328676">
    <name>Lac de Trémelin</name>
    <cmt>Amenity::entertainment:public_bookcase</cmt>
    <desc>Quatre boites disposées autour du lac : plage  office de tourisme  ponton et devant L&apos;aparté</desc>
    <type>Boite à livre</type>
  </wpt>
  <wpt lat="47.7049162" lon="-3.1458133000000004">
    <name>Place Georges Cadoudal Lieu-dit locoal</name>
    <cmt>Amenity::entertainment:public_bookcase</cmt>
    <desc>Le Conseil Municipal des Enfants de Locoal-Mendon a crée avec l aide du service technique communal, une boîte à don de livres. Celle-ci est placée sur la place centrale du village en bord de ria. Les conseillers enfants ont beaucoup réfléchi aux  notions de propriété, gratuité et de partage de biens. La boîte est active depuis décembre 2018.</desc>
    <type>Boite à livre</type>
  </wpt>
  <wpt lat="47.91539759999999" lon="-3.3347013000000003">
    <name>Place de la mairie</name>
    <cmt>Amenity::entertainment:public_bookcase</cmt>
    <desc>Ancienne cabine téléphonique</desc>
    <type>Boite à livre</type>
  </wpt>
  <wpt lat="48.118405899999985" lon="-1.6809472000000003">
    <name>Square de la Rance</name>
    <cmt>Amenity::entertainment:public_bookcase</cmt>
    <desc>La boite est proche du Carrefour contact.</desc>
    <type>Boite à livre</type>
  </wpt>
  <wpt lat="48.34705999999999" lon="-2.2631500000000004">
    <name>devant la supérette</name>
    <cmt>Amenity::entertainment:public_bookcase</cmt>
    <type>Boite à livre</type>
  </wpt>
  <wpt lat="48.519725799999996" lon="-2.7931585">
    <name>Square de l&apos;armée Patton</name>
    <cmt>Amenity::entertainment:public_bookcase</cmt>
    <desc>Ancienne cabine téléphonique rouge située à l&apos;entrée du square.</desc>
    <type>Boite à livre</type>
  </wpt>
  <wpt lat="47.66602129999999" lon="-2.9791047">
    <name>Port de saint Goustan</name>
    <cmt>Amenity::entertainment:public_bookcase</cmt>
    <desc>Boîte à lire se trouvant sur le trottoir après être sortie du parking, juste avant d arriver sur le ponton du port, bâteau en direction de l&apos;ile aux Moines.</desc>
    <type>Boite à livre</type>
  </wpt>
  <wpt lat="48.63021539999999" lon="-3.3004226">
    <name>10 rue de l&apos;hôtel de ville</name>
    <cmt>Amenity::entertainment:public_bookcase</cmt>
    <desc>La boite à lire se trouve dans l&apos;entrée d&apos;une boutique de vêtements.</desc>
    <type>Boite à livre</type>
  </wpt>
  <wpt lat="47.806483699999994" lon="-4.268435">
    <name>rue Stang an Dour</name>
    <cmt>Amenity::entertainment:public_bookcase</cmt>
    <desc>dans l ancienne cabine téléphonique en face de La rose des vents</desc>
    <type>Boite à livre</type>
  </wpt>
  <wpt lat="48.52295699999999" lon="-2.2303289">
    <name>Quai du Duc d&apos;Aiguillon</name>
    <cmt>Amenity::entertainment:public_bookcase</cmt>
    <type>Boite à livre</type>
  </wpt>
  <wpt lat="48.3181527" lon="-2.0758679">
    <name>Place de la mairie</name>
    <cmt>Amenity::entertainment:public_bookcase</cmt>
    <desc>Dans la cabine téléphonique sous les halles</desc>
    <type>Boite à livre</type>
  </wpt>
  <wpt lat="48.7779995" lon="-3.0308045">
    <name>17 rue Emile Bonne</name>
    <cmt>Amenity::entertainment:public_bookcase</cmt>
    <desc>Installée devant une maison aux abords d une plage , cette boîte à lire favorise les échanges entre les habitants du quartiers , les vacanciers et tous les lecteurs. Cette boite à lire fait littéralement fureur ?</desc>
    <type>Boite à livre</type>
  </wpt>
  <wpt lat="48.2945743" lon="-1.5903684999999999">
    <name>ROUTE DE L ECOLE</name>
    <cmt>Amenity::entertainment:public_bookcase</cmt>
    <desc>DEVANT LE GROUPE SCOLAIRE DES PRE VERTS</desc>
    <type>Boite à livre</type>
  </wpt>
  <wpt lat="47.96759299113666" lon="-1.8006527423858643">
    <name>29 rue Jacques Blouet</name>
    <cmt>Amenity::entertainment:public_bookcase</cmt>
    <desc>Suivre le chemin près du 29 rue Jacques Blouet,  jusqu aux étangs . La cabine téléphone près du grand étang est une boîte à lire.</desc>
    <type>Boite à livre</type>
  </wpt>
  <wpt lat="47.48160559999999" lon="-3.1206148000000002">
    <name>14 Rue de Verdun</name>
    <cmt>Amenity::entertainment:public_bookcase</cmt>
    <desc>Près de l office de tourisme, une jolie boite à lire décorée découverte pendant des vacances...</desc>
    <type>Boite à livre</type>
  </wpt>
  <wpt lat="47.79159999999999" lon="-3.854083">
    <name>Pointe de Trévignon</name>
    <cmt>Amenity::entertainment:public_bookcase</cmt>
    <type>Boite à livre</type>
  </wpt>
  <wpt lat="47.77204799999998" lon="-3.526532">
    <name>Place du Bas Pouldu</name>
    <cmt>Amenity::entertainment:public_bookcase</cmt>
    <desc>Facile à trouver sur la petite place.</desc>
    <type>Boite à livre</type>
  </wpt>
  <wpt lat="48.117076899999994" lon="-1.2101966">
    <name>boulevard Chateaubriant</name>
    <cmt>Amenity::entertainment:public_bookcase</cmt>
    <desc>La boite à livres se situe dans le jardin du parc, a mi-chemin entre la statue de Madame de Sévigné et la Volière</desc>
    <type>Boite à livre</type>
  </wpt>
  <wpt lat="48.20429772821617" lon="-4.281749725341799">
    <name>Bibliothèque de St Nic</name>
    <cmt>Amenity::entertainment:public_bookcase</cmt>
    <desc>Ancien frigo se trouvant à côté de l&apos;entrée de la bibliothèque municipale, a côté de l&apos;école communale. La boîte accepte aussi les dons de jouets.</desc>
    <type>Boite à livre</type>
  </wpt>
  <wpt lat="48.507008000000006" lon="-1.2446759">
    <name>Rue Jean Janvier</name>
    <cmt>Amenity::entertainment:public_bookcase</cmt>
    <desc>Il y en a 3 : 1 à la mairie, 1 à la supérette et 1 à la bibliothèque</desc>
    <type>Boite à livre</type>
  </wpt>
  <wpt lat="47.99681609999999" lon="-4.0252203">
    <name>11 Rue de Kerdevot</name>
    <cmt>Amenity::entertainment:public_bookcase</cmt>
    <desc>Situé dans la cabine téléphonique anglaise entre la rue Kerdevot et la rue Garn ar Groas Var</desc>
    <type>Boite à livre</type>
  </wpt>
  <wpt lat="48.36104600000001" lon="-2.6339539000000007">
    <name>18 Place de Penthièvre</name>
    <cmt>Amenity::entertainment:public_bookcase</cmt>
    <desc>Ancien commerce entrée libre géré par une association</desc>
    <type>Boite à livre</type>
  </wpt>
  <wpt lat="48.573167399999996" lon="-4.3201124">
    <name>Gare routière</name>
    <cmt>Amenity::entertainment:public_bookcase</cmt>
    <type>Boite à livre</type>
  </wpt>
  <wpt lat="48.74918399999999" lon="-2.9837017">
    <name>Place de l église</name>
    <cmt>Amenity::entertainment:public_bookcase</cmt>
    <type>Boite à livre</type>
  </wpt>
  <wpt lat="47.86484029999998" lon="-3.8994121">
    <name>4 chemin de poulgao</name>
    <cmt>Amenity::entertainment:public_bookcase</cmt>
    <desc>L&apos;armoire à trésors sert aussi de boite à lire.</desc>
    <type>Boite à livre</type>
  </wpt>
  <wpt lat="48.572098800000006" lon="-4.3218277">
    <name>Place du château</name>
    <cmt>Amenity::entertainment:public_bookcase</cmt>
    <desc>Dans une ancienne cabine téléphonique anglaise rouge. Adossée à la mairie de Lesneven.</desc>
    <type>Boite à livre</type>
  </wpt>
  <wpt lat="48.105614999999986" lon="-1.6799650000000002">
    <name>17 place du marechal juin</name>
    <cmt>Amenity::entertainment:public_bookcase</cmt>
    <desc>A gauche dans le hall ou se situent les boites aux lettres. Si vous arrivez à franchir les 2 sas de sécurité!</desc>
    <type>Boite à livre</type>
  </wpt>
  <wpt lat="48.481265900000004" lon="-1.1250025">
    <name>PLACE DE BRETAGNE</name>
    <cmt>Amenity::entertainment:public_bookcase</cmt>
    <type>Boite à livre</type>
  </wpt>
  <wpt lat="48.10425389999998" lon="-3.977958900000001">
    <name>Mairie</name>
    <cmt>Amenity::entertainment:public_bookcase</cmt>
    <desc>Devant la mairie.</desc>
    <type>Boite à livre</type>
  </wpt>
  <wpt lat="47.87255149999999" lon="-3.545576">
    <name>Place Hervo</name>
    <cmt>Amenity::entertainment:public_bookcase</cmt>
    <desc>Une boite à lire Place des Halles dans la basse-ville</desc>
    <type>Boite à livre</type>
  </wpt>
  <wpt lat="48.54096539999998" lon="-2.9703394000000003">
    <name>Place du Maillet</name>
    <cmt>Amenity::entertainment:public_bookcase</cmt>
    <desc>Sous la verrière du musée  Le petit écho de la mode.</desc>
    <type>Boite à livre</type>
  </wpt>
  <wpt lat="47.630344699999995" lon="-3.178009">
    <name>Kerouriec</name>
    <cmt>Amenity::entertainment:public_bookcase</cmt>
    <desc>Fabriquée dans un vieux frigo  elle est fixée au mur d&apos;une maison. Quand on va vers la plage  après l&apos;élevage de chèvres il faut tourner à droite dans un petit village. La boite est un peu plus loin sur la droite.</desc>
    <type>Boite à livre</type>
  </wpt>
  <wpt lat="47.724685999999984" lon="-3.3487712">
    <name>Quai du Rallier Baty</name>
    <cmt>Amenity::entertainment:public_bookcase</cmt>
    <desc>boîte a lire rouge juste devant la capitainerie, sur le port Locmiquélic</desc>
    <type>Boite à livre</type>
  </wpt>
  <wpt lat="47.54248999999999" lon="-2.87996">
    <name>Supermarché UNICO, rond-point de Kerjouanno</name>
    <cmt>Amenity::entertainment:public_bookcase</cmt>
    <desc>La boite à Livres est dans l entrée du magasin, toujours des livres et beaucoup de renouvellement surtout en été</desc>
    <type>Boite à livre</type>
  </wpt>
  <wpt lat="48.405421800000006" lon="-2.9140795">
    <name>Parc de Roz Maria</name>
    <cmt>Amenity::entertainment:public_bookcase</cmt>
    <desc>Le long d un muret près des hortensias Boite à livres blanche.</desc>
    <type>Boite à livre</type>
  </wpt>
  <wpt lat="48.08499759999998" lon="-1.6913717999999998">
    <name>LYCEE BREQUIGNY - 7 AVENUE GEORGE GRAFF</name>
    <cmt>Amenity::entertainment:public_bookcase</cmt>
    <desc>Bibliothèque participative...</desc>
    <type>Boite à livre</type>
  </wpt>
  <wpt lat="48.182829" lon="-1.643459">
    <name>Place de la cale</name>
    <cmt>Amenity::entertainment:public_bookcase</cmt>
    <type>Boite à livre</type>
  </wpt>
  <wpt lat="48.1102792" lon="-1.3899639">
    <name>33 résidence du Hautpré</name>
    <cmt>Amenity::entertainment:public_bookcase</cmt>
    <type>Boite à livre</type>
  </wpt>
  <wpt lat="48.54565299999998" lon="-2.731301">
    <name>chemin des Faudours</name>
    <cmt>Amenity::entertainment:public_bookcase</cmt>
    <desc>Beau panorama sur la baie de Saint Brieuc en bonus</desc>
    <type>Boite à livre</type>
  </wpt>
  <wpt lat="47.73227990000001" lon="-2.5908161">
    <name>place de l&apos;Eglise</name>
    <cmt>Amenity::entertainment:public_bookcase</cmt>
    <desc>livres de qualité  il y a des lecteurs qui aiment les beaux livres très certainement</desc>
    <type>Boite à livre</type>
  </wpt>
  <wpt lat="47.624543" lon="-2.8602599">
    <name>Le moustoir</name>
    <cmt>Amenity::entertainment:public_bookcase</cmt>
    <type>Boite à livre</type>
  </wpt>
  <wpt lat="48.39039399999999" lon="-4.486076">
    <name>10 rue abbé Rochon</name>
    <cmt>Amenity::entertainment:public_bookcase</cmt>
    <desc>Bibliothèque de rue adossée à l espace solidaire alternatif Au Coin d&apos;la Rue à l&apos;entrée de la rue de Saint Malo.</desc>
    <type>Boite à livre</type>
  </wpt>
  <wpt lat="48.08556409999999" lon="-1.6066606">
    <name>14 allée jean cocteau</name>
    <cmt>Amenity::entertainment:public_bookcase</cmt>
    <desc>LA BOITE EST SUR LE TROTTOIR</desc>
    <type>Boite à livre</type>
  </wpt>
  <wpt lat="48.1108445" lon="-1.4816488000000003">
    <name>PLACE DE L EGLISE</name>
    <cmt>Amenity::entertainment:public_bookcase</cmt>
    <type>Boite à livre</type>
  </wpt>
  <wpt lat="48.14232439999999" lon="-1.898376">
    <name>rue des sentiers</name>
    <cmt>Amenity::entertainment:public_bookcase</cmt>
    <desc>dans une cabine téléphonique a la sortie du bourg vers la gare</desc>
    <type>Boite à livre</type>
  </wpt>
  <wpt lat="48.07107510000001" lon="-2.7514451">
    <name>Salle belle etoile</name>
    <cmt>Amenity::entertainment:public_bookcase</cmt>
    <desc>Sur le parking près du lac</desc>
    <type>Boite à livre</type>
  </wpt>
  <wpt lat="48.635656" lon="-1.9019659999999998">
    <name>Rue de la vallée verte</name>
    <cmt>Amenity::entertainment:public_bookcase</cmt>
    <desc>Boîte en forme de volière, à proximité des écoles</desc>
    <type>Boite à livre</type>
  </wpt>
  <wpt lat="48.133337" lon="-1.5337861">
    <name>place de la mairie</name>
    <cmt>Amenity::entertainment:public_bookcase</cmt>
    <desc>Boite à lire construite sur la place de la mairie</desc>
    <type>Boite à livre</type>
  </wpt>
  <wpt lat="47.795818000000004" lon="-3.5849099999999994">
    <name>place de l église</name>
    <cmt>Amenity::entertainment:public_bookcase</cmt>
    <desc>la boite a livre se situe sur le coté de l église, près de la petite entrée.</desc>
    <type>Boite à livre</type>
  </wpt>
  <wpt lat="48.779108499999985" lon="-3.0461044">
    <name>Rue Georges Brassens</name>
    <cmt>Amenity::entertainment:public_bookcase</cmt>
    <type>Boite à livre</type>
  </wpt>
  <wpt lat="48.384014699999994" lon="-1.8242636">
    <name>1 rue chateaubriand</name>
    <cmt>Amenity::entertainment:public_bookcase</cmt>
    <desc>sous le préau de la bibliotheque , armoire bien garnie</desc>
    <type>Boite à livre</type>
  </wpt>
  <wpt lat="48.044937700000006" lon="-1.6034410999999997">
    <name>place de la poste</name>
    <cmt>Amenity::entertainment:public_bookcase</cmt>
    <type>Boite à livre</type>
  </wpt>
  <wpt lat="48.398579999999995" lon="-1.512774">
    <name>Place de l&apos;église</name>
    <cmt>Amenity::entertainment:public_bookcase</cmt>
    <desc>Une boite à lire à l&apos;initiative du réseau des bibliothèques pour partager le plaisir de la lecture. N&apos;hésitez pas c&apos;est en livre-échange ! Lisez  gardez  offrez   redéposez !</desc>
    <type>Boite à livre</type>
  </wpt>
  <wpt lat="47.9373379" lon="-1.6629217">
    <name>Rue Bernard Picoult</name>
    <cmt>Amenity::entertainment:public_bookcase</cmt>
    <desc>La boîte se trouve juste en face de l entrée de la boulangerie Le Moulin Crevinois.</desc>
    <type>Boite à livre</type>
  </wpt>
  <wpt lat="48.28757879999999" lon="-4.4644034">
    <name>20 rue de Ecoles</name>
    <cmt>Amenity::entertainment:public_bookcase</cmt>
    <desc>Mise en place 1er Octobre 2016</desc>
    <type>Boite à livre</type>
  </wpt>
  <wpt lat="48.675897000000006" lon="-2.932047">
    <name>PLACE DE L EGLISE</name>
    <cmt>Amenity::entertainment:public_bookcase</cmt>
    <desc>très grande boite en bois avec beaucoup de livres a l intérieur</desc>
    <type>Boite à livre</type>
  </wpt>
  <wpt lat="48.10537507067989" lon="-1.689920425415039">
    <name>LA MAISON HELOISE - 13 RUE DE REDON</name>
    <cmt>Amenity::entertainment:public_bookcase</cmt>
    <desc>Situer dans le hall d&apos;entrée</desc>
    <type>Boite à livre</type>
  </wpt>
  <wpt lat="48.5818245" lon="-2.0563721">
    <name>Rue Jean Boyer</name>
    <cmt>Amenity::entertainment:public_bookcase</cmt>
    <type>Boite à livre</type>
  </wpt>
  <wpt lat="48.2936225" lon="-4.177765">
    <name>Parc de Goarem Goz</name>
    <cmt>Amenity::entertainment:public_bookcase</cmt>
    <type>Boite à livre</type>
  </wpt>
  <wpt lat="48.06665499999998" lon="-3.9121484999999994">
    <name>Place de la mairie</name>
    <cmt>Amenity::entertainment:public_bookcase</cmt>
    <desc>petite, mais sympa, riche en ouvrages disponibles 24 h / 24 h</desc>
    <type>Boite à livre</type>
  </wpt>
  <wpt lat="48.35631169999999" lon="-1.4822779">
    <name>Rue principale</name>
    <cmt>Amenity::entertainment:public_bookcase</cmt>
    <desc>Cabine téléphonique, route de Chauvigné</desc>
    <type>Boite à livre</type>
  </wpt>
  <wpt lat="48.1047681" lon="-1.679274">
    <name>40 Place du Colombier</name>
    <cmt>Amenity::entertainment:public_bookcase</cmt>
    <desc>Devant Nature et Découvertes</desc>
    <type>Boite à livre</type>
  </wpt>
  <wpt lat="48.11721699999999" lon="-1.6890619999999998">
    <name>maison de quartier de la touche / 6 RUE CARDINAL PAUL GOUYON</name>
    <cmt>Amenity::entertainment:public_bookcase</cmt>
    <desc>Elle est située à l  entrée de la maison de quartier</desc>
    <type>Boite à livre</type>
  </wpt>
  <wpt lat="47.63217359999999" lon="-2.523557">
    <name>6 Clos des Tulipiers</name>
    <cmt>Amenity::entertainment:public_bookcase</cmt>
    <desc>Située devant la médiathèque, la cabane à livres a été installée en février 2018.</desc>
    <type>Boite à livre</type>
  </wpt>
  <wpt lat="48.107530100000005" lon="-1.7054479">
    <name>29 rue Amiral Courbet</name>
    <cmt>Amenity::entertainment:public_bookcase</cmt>
    <desc>Boîte située à l intersection de la rue Amiral Courbet et de la rue Kerviler.</desc>
    <type>Boite à livre</type>
  </wpt>
  <wpt lat="48.68014239999999" lon="-3.6547011000000005">
    <name>1a rue du varcq</name>
    <cmt>Amenity::entertainment:public_bookcase</cmt>
    <desc>La boîte à lire est située sur la terrasse d un snack au fond de la baie de Locquirec.</desc>
    <type>Boite à livre</type>
  </wpt>
  <wpt lat="48.12417899999999" lon="-1.8169378">
    <name>PRESBYTERE</name>
    <cmt>Amenity::entertainment:public_bookcase</cmt>
    <desc>LA BOITE EST SITUEE DEVANT LE PRESBYTERE</desc>
    <type>Boite à livre</type>
  </wpt>
  <wpt lat="48.84263790000001" lon="-3.2285012">
    <name>Office de tourisme Plougrescant</name>
    <cmt>Amenity::entertainment:public_bookcase</cmt>
    <desc>A l office de tourisme du village</desc>
    <type>Boite à livre</type>
  </wpt>
  <wpt lat="48.09171806889363" lon="-1.681380271911621">
    <name>CDAS CHAMPS MANCEAUX - 15 rue des frères Louis et René Moine</name>
    <cmt>Amenity::entertainment:public_bookcase</cmt>
    <desc>Situer dans le hall d&apos;entrée du centre social</desc>
    <type>Boite à livre</type>
  </wpt>
  <wpt lat="48.596361200000004" lon="-2.2917485">
    <name>place du Général de Gaule</name>
    <cmt>Amenity::entertainment:public_bookcase</cmt>
    <desc>Sous les halles</desc>
    <type>Boite à livre</type>
  </wpt>
  <wpt lat="48.35909549999999" lon="-4.2608791">
    <name>Place saint yves</name>
    <cmt>Amenity::entertainment:public_bookcase</cmt>
    <desc>Boîte située le long de la route de Brest.</desc>
    <type>Boite à livre</type>
  </wpt>
  <wpt lat="48.17591010000001" lon="-1.3036982">
    <name>12 Place Pierre Poupard</name>
    <cmt>Amenity::entertainment:public_bookcase</cmt>
    <desc>La boite est située dans la pharmacie.</desc>
    <type>Boite à livre</type>
  </wpt>
  <wpt lat="47.91954940000001" lon="-2.2774299">
    <name>Rue de Trévinio</name>
    <cmt>Amenity::entertainment:public_bookcase</cmt>
    <desc>Au niveau de l arrêt de bus le long du parking, non loin de Timbre FM.</desc>
    <type>Boite à livre</type>
  </wpt>
  <wpt lat="47.99691099999998" lon="-4.107285">
    <name>7 rue de la Providence</name>
    <cmt>Amenity::entertainment:public_bookcase</cmt>
    <desc>Boîte accrochée sur la façade de la bouquinerie Book n? Billig.</desc>
    <type>Boite à livre</type>
  </wpt>
  <wpt lat="47.703551999999995" lon="-3.4343379999999994">
    <name>Rue Belle Île</name>
    <cmt>Amenity::entertainment:public_bookcase</cmt>
    <desc>Sur le port de Lomener.</desc>
    <type>Boite à livre</type>
  </wpt>
  <wpt lat="48.00721080000001" lon="-4.1130823">
    <name>29 bis rue charles d orléans</name>
    <cmt>Amenity::entertainment:public_bookcase</cmt>
    <desc>boite à lire gérée par l association Courgettes et CieJardin aire gourmande de coat ty dreux</desc>
    <type>Boite à livre</type>
  </wpt>
  <wpt lat="48.57491180000001" lon="-3.8443111999999995">
    <name>PLACE DE LA BARRIERE DE BREST</name>
    <cmt>Amenity::entertainment:public_bookcase</cmt>
    <desc>PARVIS MAIRIE</desc>
    <type>Boite à livre</type>
  </wpt>
  <wpt lat="48.361280100000016" lon="-2.6337536">
    <name>10 rue Penthièvre</name>
    <cmt>Amenity::entertainment:public_bookcase</cmt>
    <desc>Petite cabane en bois sur le trottoir, entre deux maison</desc>
    <type>Boite à livre</type>
  </wpt>
  <wpt lat="48.29939300000001" lon="-3.5895660999999994">
    <name>carrefour des ecoles</name>
    <cmt>Amenity::entertainment:public_bookcase</cmt>
    <desc>cabine téléphonique transformer et joliment peinte</desc>
    <type>Boite à livre</type>
  </wpt>
  <wpt lat="47.645969499999985" lon="-2.0872414">
    <name>Place garnier</name>
    <cmt>Amenity::entertainment:public_bookcase</cmt>
    <desc>La boite se situé juste devant le café du ciné manivel avec banc et espace public.</desc>
    <type>Boite à livre</type>
  </wpt>
  <wpt lat="47.98688709999999" lon="-4.1140551">
    <name>23 rue Commandant Avril</name>
    <cmt>Amenity::entertainment:public_bookcase</cmt>
    <desc>Dans le jardin public, au niveau du calvaireà peu près au niveau du 23 rue Commandant Avril</desc>
    <type>Boite à livre</type>
  </wpt>
  <wpt lat="47.5162247" lon="-2.5573186">
    <name>Le Bois d Amour</name>
    <cmt>Amenity::entertainment:public_bookcase</cmt>
    <desc>Cabine à livres bleue et blanche</desc>
    <type>Boite à livre</type>
  </wpt>
  <wpt lat="47.47616659999998" lon="-3.1042668000000004">
    <name>Le Bois d Amour Bd de l&apos;Océan</name>
    <cmt>Amenity::entertainment:public_bookcase</cmt>
    <desc>Il s&apos;agit d&apos;une cabine à livres. Bleue et blanche</desc>
    <type>Boite à livre</type>
  </wpt>
  <wpt lat="48.1813239" lon="-1.7320039000000003">
    <name>jardin de la rosière</name>
    <cmt>Amenity::entertainment:public_bookcase</cmt>
    <desc>La boite est à coté du presbytère</desc>
    <type>Boite à livre</type>
  </wpt>
  <wpt lat="48.65957169999998" lon="-4.2133474">
    <name>Plage de Porsmeur</name>
    <cmt>Amenity::entertainment:public_bookcase</cmt>
    <desc>La boite à lire se trouve sur le bord de la route juste à cote du centre nautique de plouescat</desc>
    <type>Boite à livre</type>
  </wpt>
  <wpt lat="48.385853399999995" lon="-4.5009511">
    <name>Place Joseph Goez</name>
    <cmt>Amenity::entertainment:public_bookcase</cmt>
    <desc>Elle est située sur le terre-pein central de cette petite place</desc>
    <type>Boite à livre</type>
  </wpt>
  <wpt lat="48.8161126" lon="-3.3584775999999996">
    <name>29 rue de la mairie</name>
    <cmt>Amenity::entertainment:public_bookcase</cmt>
    <type>Boite à livre</type>
  </wpt>
  <wpt lat="48.389384899999996" lon="-2.2126045">
    <name>Parc Intergénérationel</name>
    <cmt>Amenity::entertainment:public_bookcase</cmt>
    <desc>Ancienne cabine téléphonique.</desc>
    <type>Boite à livre</type>
  </wpt>
  <wpt lat="47.59908329999999" lon="-2.8517778">
    <name>la grande plage</name>
    <cmt>Amenity::entertainment:public_bookcase</cmt>
    <desc>cabine de plage transformée en  petite bibliothèque de plage   en 2010, et laissée aux bons soins des passants. Ouverte seulement en saison, elle est remplie par la bibliothèque municipale qui y dépose ses livres désherbés, l usage est ensuite le même que les boîte à lire : on prend un livre, on en dépose un autre, ou pas...</desc>
    <type>Boite à livre</type>
  </wpt>
  <wpt lat="47.834143899999994" lon="-3.4050557000000006">
    <name>Intersection des rues Général de Gaulle et Route de Lorient</name>
    <cmt>Amenity::entertainment:public_bookcase</cmt>
    <desc>Sur une petite place</desc>
    <type>Boite à livre</type>
  </wpt>
  <wpt lat="48.09656569999999" lon="-1.6559474000000003">
    <name>40 rue Montaigne</name>
    <cmt>Amenity::entertainment:public_bookcase</cmt>
    <desc>Elle se trouve à droite dans le hall d  entrée.</desc>
    <type>Boite à livre</type>
  </wpt>
  <wpt lat="47.989194100000006" lon="-4.1305181">
    <name>Place de Penhars</name>
    <cmt>Amenity::entertainment:public_bookcase</cmt>
    <desc>Boîte installée à côté de l&apos;église Sainte-Claire à l&apos;initiative de la JCE Quimper Cornouaille et construite par la ressourcerie Treuzkemm.</desc>
    <type>Boite à livre</type>
  </wpt>
  <wpt lat="48.1023442" lon="-1.7133385999999997">
    <name>132 rue eugène pottier</name>
    <cmt>Amenity::entertainment:public_bookcase</cmt>
    <desc>Sur le parking du biocoop cleunay. Accessible aux horaires d ouverture du magasin.</desc>
    <type>Boite à livre</type>
  </wpt>
  <wpt lat="48.212010000000014" lon="-1.510059">
    <name>Coulée verte</name>
    <cmt>Amenity::entertainment:public_bookcase</cmt>
    <type>Boite à livre</type>
  </wpt>
  <wpt lat="48.65796699999999" lon="-1.9827880999999998">
    <name>St Malo, Marie annexe de Parame</name>
    <cmt>Amenity::entertainment:public_bookcase</cmt>
    <type>Boite à livre</type>
  </wpt>
  <wpt lat="48.3661655" lon="-1.1820732000000003">
    <name>12 Rue de Saint-Lô</name>
    <cmt>Amenity::entertainment:public_bookcase</cmt>
    <desc>Devant l&apos;entrée de la maison de quartier des Cotterets</desc>
    <type>Boite à livre</type>
  </wpt>
  <wpt lat="48.093116200000004" lon="-4.3310494">
    <name>1 rue docteur mével</name>
    <cmt>Amenity::entertainment:public_bookcase</cmt>
    <desc>Boite à livres près de l office du tourisme de Douarnenez</desc>
    <type>Boite à livre</type>
  </wpt>
  <wpt lat="48.406155399999996" lon="-4.3889354">
    <name>Place Jeanne d Arc</name>
    <cmt>Amenity::entertainment:public_bookcase</cmt>
    <desc>Inaugurée en mai 2017, la bibliote K vous attend sur la jolie place Jeanne d&apos;Arc.</desc>
    <type>Boite à livre</type>
  </wpt>
  <wpt lat="47.69964899999999" lon="-2.189544">
    <name>Les Pâtis</name>
    <cmt>Amenity::entertainment:public_bookcase</cmt>
    <type>Boite à livre</type>
  </wpt>
  <wpt lat="48.065011000000005" lon="-2.8838151">
    <name>Rue des écoles</name>
    <cmt>Amenity::entertainment:public_bookcase</cmt>
    <desc>Ancienne cabine de téléphonique transformée en boîte à livres. Accès facile.</desc>
    <type>Boite à livre</type>
  </wpt>
  <wpt lat="48.085186" lon="-1.6177145">
    <name>3/5 rue boucaudais</name>
    <cmt>Amenity::entertainment:public_bookcase</cmt>
    <desc>elle est située sur le trottoir</desc>
    <type>Boite à livre</type>
  </wpt>
  <wpt lat="48.13004099999998" lon="-1.6963240999999998">
    <name>11 avenue andré mussat</name>
    <cmt>Amenity::entertainment:public_bookcase</cmt>
    <desc>Situer à droite de l  entrée du hall du cadran</desc>
    <type>Boite à livre</type>
  </wpt>
  <wpt lat="47.91666349999999" lon="-1.8611149000000002">
    <name>la Prairie</name>
    <cmt>Amenity::entertainment:public_bookcase</cmt>
    <desc>Près de l aire de jeux des enfants sur le site de la Prairie.Dispositif participatif : prenez un livre, lisez-le, gardez-le et apportez-en de nouveaux !</desc>
    <type>Boite à livre</type>
  </wpt>
  <wpt lat="48.69294340183101" lon="-1.930675506591797">
    <name>Parking de la plage du port</name>
    <cmt>Amenity::entertainment:public_bookcase</cmt>
    <type>Boite à livre</type>
  </wpt>
  <wpt lat="48.262152999999984" lon="-1.6027370000000003">
    <name>rue de l étang</name>
    <cmt>Amenity::entertainment:public_bookcase</cmt>
    <desc>LA CABANE EST SITUEE AU BORD DE L ETANG</desc>
    <type>Boite à livre</type>
  </wpt>
  <wpt lat="48.071191000000006" lon="-1.393313">
    <name>Place Carron de la Carrière</name>
    <cmt>Amenity::entertainment:public_bookcase</cmt>
    <type>Boite à livre</type>
  </wpt>
  <wpt lat="48.0724037" lon="-1.7081185999999997">
    <name>la basse teillais</name>
    <cmt>Amenity::entertainment:public_bookcase</cmt>
    <desc>La boite se situe dans la campagne  le long d&apos;un chemin piétonnier  avec un banc devant. Autour il y a des bacs incroyables avec des plantes aromatiques comestibles à disposition. Elle est plus spécialisée dans les magazines</desc>
    <type>Boite à livre</type>
  </wpt>
  <wpt lat="48.12299609999999" lon="-1.6856472999999998">
    <name>123 boulevard de verdun</name>
    <cmt>Amenity::entertainment:public_bookcase</cmt>
    <desc>A gauche en entrant à côté du kiosque presse. Accessible aux horaires d ouverture de la maison bleue.</desc>
    <type>Boite à livre</type>
  </wpt>
  <wpt lat="48.6347559" lon="-2.1078588">
    <name>Place de l eglise</name>
    <cmt>Amenity::entertainment:public_bookcase</cmt>
    <type>Boite à livre</type>
  </wpt>
  <wpt lat="47.8143699" lon="-3.6290230000000006">
    <name>Place de l&apos;église</name>
    <cmt>Amenity::entertainment:public_bookcase</cmt>
    <desc>Situéesous les halles. Ces boites ont été créées par les jeunes de lEspace Jeunes de la commune en 2016</desc>
    <type>Boite à livre</type>
  </wpt>
  <wpt lat="47.73117639999999" lon="-2.5871915">
    <name>Chemin des écoliers</name>
    <cmt>Amenity::entertainment:public_bookcase</cmt>
    <desc>En majorité des livres à destination de la jeunesse.</desc>
    <type>Boite à livre</type>
  </wpt>
  <wpt lat="48.06796629999999" lon="-3.2058031000000002">
    <name>square petit clos</name>
    <cmt>Amenity::entertainment:public_bookcase</cmt>
    <desc>boite tres coloré dans le centre ville</desc>
    <type>Boite à livre</type>
  </wpt>
  <wpt lat="48.34350899999999" lon="-1.4882240000000002">
    <name>Rue Zacharie Roussin</name>
    <cmt>Amenity::entertainment:public_bookcase</cmt>
    <desc>Ancienne cabine téléphonique située en face de la boulangerie.</desc>
    <type>Boite à livre</type>
  </wpt>
  <wpt lat="47.887873299999995" lon="-2.8370197">
    <name>Place de la republique</name>
    <cmt>Amenity::entertainment:public_bookcase</cmt>
    <desc>Ancienne cabine téléphonique anglaise.</desc>
    <type>Boite à livre</type>
  </wpt>
  <wpt lat="47.51775299999998" lon="-2.2986129">
    <name>Route de Nantes</name>
    <cmt>Amenity::entertainment:public_bookcase</cmt>
    <desc>Elle est à côté de l&apos;église.</desc>
    <type>Boite à livre</type>
  </wpt>
  <wpt lat="48.01310200000001" lon="-1.593132">
    <name>Chemin de la fontaine</name>
    <cmt>Amenity::entertainment:public_bookcase</cmt>
    <desc>Petite boîte à lire à côté de l église de Saint Armel</desc>
    <type>Boite à livre</type>
  </wpt>
  <wpt lat="47.9078883" lon="-4.043241">
    <name>Le Bourg</name>
    <cmt>Amenity::entertainment:public_bookcase</cmt>
    <desc>Le Kiosque à Livre se situe dans le parc derrière la mairie.</desc>
    <type>Boite à livre</type>
  </wpt>
  <wpt lat="48.362413999999994" lon="-4.265608">
    <name>Parc de Gorem Goz</name>
    <cmt>Amenity::entertainment:public_bookcase</cmt>
    <desc>inauguré le mois dernier cette boîte à livres est la petite soeur de la bibliothèque de rue du bourg de Plougastel.</desc>
    <type>Boite à livre</type>
  </wpt>
  <wpt lat="48.46136240000001" lon="-5.0913948">
    <name>Le Drudec</name>
    <cmt>Amenity::entertainment:public_bookcase</cmt>
    <desc>Cette boîte à livres sera saisonnière pour ne pas qu&apos;elle se retrouve seule face aux tempêtes de l&apos;île</desc>
    <type>Boite à livre</type>
  </wpt>
  <wpt lat="48.330024699999996" lon="-1.8428856999999998">
    <name>rue francoise leroux</name>
    <cmt>Amenity::entertainment:public_bookcase</cmt>
    <desc>dans le lotissement derrière les commerces</desc>
    <type>Boite à livre</type>
  </wpt>
  <wpt lat="47.7370342" lon="-3.2320552">
    <name>Rue de la Mairie</name>
    <cmt>Amenity::entertainment:public_bookcase</cmt>
    <desc>Belle boîte à lire, juste devant la poste, dans une belle cabine téléphonique peinte en rouge et aménagée eprès pour l occasion.</desc>
    <type>Boite à livre</type>
  </wpt>
  <wpt lat="48.0971534" lon="-1.6671286000000003">
    <name>26 bis rue Bigot de Préameneu</name>
    <cmt>Amenity::entertainment:public_bookcase</cmt>
    <type>Boite à livre</type>
  </wpt>
  <wpt lat="48.532440599999994" lon="-2.0567003">
    <name>2 Place du Dr Louis Jourdan</name>
    <cmt>Amenity::entertainment:public_bookcase</cmt>
    <desc>Une petite boîte  certes  mais pleine de lecture gratuite !!</desc>
    <type>Boite à livre</type>
  </wpt>
  <wpt lat="48.373073299999994" lon="-1.8759441999999997">
    <name>Place de l?église</name>
    <cmt>Amenity::entertainment:public_bookcase</cmt>
    <type>Boite à livre</type>
  </wpt>
  <wpt lat="48.383182" lon="-1.745645">
    <name>24 RUE PETIT CHAMPS</name>
    <cmt>Amenity::entertainment:public_bookcase</cmt>
    <desc>Elle est située  sur le trottoir</desc>
    <type>Boite à livre</type>
  </wpt>
  <wpt lat="48.32765689999999" lon="-4.1596044">
    <name>Rue Urbain de Quelen</name>
    <cmt>Amenity::entertainment:public_bookcase</cmt>
    <type>Boite à livre</type>
  </wpt>
  <wpt lat="48.1062599" lon="-1.6668878">
    <name>75 rue Saint helier</name>
    <cmt>Amenity::entertainment:public_bookcase</cmt>
    <desc>Dans le Super u express</desc>
    <type>Boite à livre</type>
  </wpt>
  <wpt lat="48.25995450000001" lon="-1.3961142">
    <name>RUE DU CAMPING</name>
    <cmt>Amenity::entertainment:public_bookcase</cmt>
    <type>Boite à livre</type>
  </wpt>
  <wpt lat="47.670454" lon="-2.9975390000000006">
    <name>rue du Général Auguste La Houlle</name>
    <cmt>Amenity::entertainment:public_bookcase</cmt>
    <desc>Dans le quartier du Gumenen  Maison Livre réalisée par une classe de 3ème du Lycée Kerplouz  Installées en extérieur  dans un lieu de passage  chacun peut venir y retirer un livre  avec pour seule contrainte d&apos;en déposer un autre à la place...</desc>
    <type>Boite à livre</type>
  </wpt>
  <wpt lat="48.1830157" lon="-1.6443820000000005">
    <name>Place du Vieux Marché</name>
    <cmt>Amenity::entertainment:public_bookcase</cmt>
    <type>Boite à livre</type>
  </wpt>
  <wpt lat="48.50529789999999" lon="-2.8144732">
    <name>Rue de La Chapelle</name>
    <cmt>Amenity::entertainment:public_bookcase</cmt>
    <desc>Cabine France Telecom transformée en boîte à livresSur le parking de la salle Alain le Dû dans le quartier de Saint-Hervé</desc>
    <type>Boite à livre</type>
  </wpt>
  <wpt lat="48.454854599999976" lon="-2.0273481">
    <name>RUE CENTRALE</name>
    <cmt>Amenity::entertainment:public_bookcase</cmt>
    <desc>entre l Ehpad Louis-Gautier et l&apos;église</desc>
    <type>Boite à livre</type>
  </wpt>
  <wpt lat="47.73119450000001" lon="-3.3617847">
    <name>4 rue Florian laporte</name>
    <cmt>Amenity::entertainment:public_bookcase</cmt>
    <desc>Venez déposer, prendre, échanger des livres !Ici, on a un petit goût pour l&apos;engagement solidaire !</desc>
    <type>Boite à livre</type>
  </wpt>
  <wpt lat="48.105384199999996" lon="-1.6990336">
    <name>25 rue noel blayau</name>
    <cmt>Amenity::entertainment:public_bookcase</cmt>
    <desc>Une biblio se trouve dans le hall d&apos;accueil de l&apos;espace social cleunay et une deuxième se trouve au deuxième étage dans la salle d&apos;attente. Prévenez la personne à l&apos;accueil que vous souhaitez voir la biblio en haut avant de monter.</desc>
    <type>Boite à livre</type>
  </wpt>
  <wpt lat="48.56678139999999" lon="-3.1839608">
    <name>3 Les Quatre Vents</name>
    <cmt>Amenity::entertainment:public_bookcase</cmt>
    <desc>Petite boîte à lire sympathique ou boîte à feuilles comme indiqué dessus. Contient aussi le bulletin municipal de Plouisy. Possibilité de mettre en bas des bouchons pour l association les bouchons d&apos;espoir 22 http://lesbouchonsdespoir22.over-blog.com/.</desc>
    <type>Boite à livre</type>
  </wpt>
  <wpt lat="48.53636069999999" lon="-4.31227">
    <name>Place Alain Poher</name>
    <cmt>Amenity::entertainment:public_bookcase</cmt>
    <desc>Derrière la maison médicale.</desc>
    <type>Boite à livre</type>
  </wpt>
  <wpt lat="48.11320169999999" lon="-1.6069621000000003">
    <name>8 Avenue des Peupliers</name>
    <cmt>Amenity::entertainment:public_bookcase</cmt>
    <desc>Sur le parking de la biocoop de cesson-sévigné.</desc>
    <type>Boite à livre</type>
  </wpt>
  <wpt lat="47.996759999999995" lon="-4.1028055">
    <name>12 rue Elie Fréron</name>
    <cmt>Amenity::entertainment:public_bookcase</cmt>
    <desc>Devant la boutique L&apos;Imaginarium.</desc>
    <type>Boite à livre</type>
  </wpt>
  <wpt lat="48.3294101" lon="-1.8350341999999997">
    <name>place andré ferré</name>
    <cmt>Amenity::entertainment:public_bookcase</cmt>
    <type>Boite à livre</type>
  </wpt>
  <wpt lat="48.115298700000004" lon="-1.6789177">
    <name>20 Rue d&apos;Antrain</name>
    <cmt>Amenity::entertainment:public_bookcase</cmt>
    <desc>Dans le restaurant le Coucou Rennais : Espace de gratuité avec tout un tas de choses et des livres !</desc>
    <type>Boite à livre</type>
  </wpt>
  <wpt lat="48.09022809999999" lon="-1.7909313">
    <name>74 route nationale</name>
    <cmt>Amenity::entertainment:public_bookcase</cmt>
    <desc>Dans une ancienne cabine téléphonique, à côté de l&apos;arrêt de bus</desc>
    <type>Boite à livre</type>
  </wpt>
  <wpt lat="47.75855150000001" lon="-2.8453772">
    <name>Place de l&apos;Eglise</name>
    <cmt>Amenity::entertainment:public_bookcase</cmt>
    <desc>Il s agit d&apos;une cabine téléphonique transformée en Boite à Lire</desc>
    <type>Boite à livre</type>
  </wpt>
  <wpt lat="48.20966649999998" lon="-1.6303176999999998">
    <name>18 rue d&apos;lle et Rance</name>
    <cmt>Amenity::entertainment:public_bookcase</cmt>
    <desc>La bibliothèque de Chevaigné a choisi de déposer de petites boites à livres dans divers lieux de rencontre de Chevaigné: Cécilia Coiffure et le Club de l amitié sont les deux premiers points.</desc>
    <type>Boite à livre</type>
  </wpt>
  <wpt lat="48.4306384" lon="-4.3141803">
    <name>Route de Rutan</name>
    <cmt>Amenity::entertainment:public_bookcase</cmt>
    <desc>Elle se trouve devant l école Georges Brassens</desc>
    <type>Boite à livre</type>
  </wpt>
  <wpt lat="48.08700809999998" lon="-1.6724159">
    <name>7 rue d Espagne</name>
    <cmt>Amenity::entertainment:public_bookcase</cmt>
    <type>Boite à livre</type>
  </wpt>
  <wpt lat="48.512642499999984" lon="-2.7413206000000003">
    <name>Campus Mazier</name>
    <cmt>Amenity::entertainment:public_bookcase</cmt>
    <desc>La boîte à Lire se trouve dans le Hall B du campus Mazier - Université Rennes 2</desc>
    <type>Boite à livre</type>
  </wpt>
  <wpt lat="48.0982703" lon="-1.6704048">
    <name>MAIOSN DE QUARTIE SAINTE THERESE - 14 rue jean boucher</name>
    <cmt>Amenity::entertainment:public_bookcase</cmt>
    <desc>La bibliothèque participative se trouve dans le hall d&apos;entrée.</desc>
    <type>Boite à livre</type>
  </wpt>
  <wpt lat="48.4069741" lon="-2.8166556">
    <name>Place François Gicquel</name>
    <cmt>Amenity::entertainment:public_bookcase</cmt>
    <desc>Ancienne cabine téléphonique près du rond-point à côté du salon de coiffure  Duo Coiffure.</desc>
    <type>Boite à livre</type>
  </wpt>
  <wpt lat="48.12646540000001" lon="-1.6636363">
    <name>11C place du gros chene</name>
    <cmt>Amenity::entertainment:public_bookcase</cmt>
    <desc>A L  ENTREE DU CCAS DE MAUREPAS</desc>
    <type>Boite à livre</type>
  </wpt>
  <wpt lat="48.3574751" lon="-2.1245943">
    <name>14, rue Cassiopée</name>
    <cmt>Amenity::entertainment:public_bookcase</cmt>
    <desc>A la superette  Au Petit Marché.</desc>
    <type>Boite à livre</type>
  </wpt>
  <wpt lat="48.631900999999985" lon="-2.051094">
    <name>Promenade du clair de lune</name>
    <cmt>Amenity::entertainment:public_bookcase</cmt>
    <desc>A proximité du Yacht Club, une petite cabane à rayures blanches et bleues</desc>
    <type>Boite à livre</type>
  </wpt>
  <wpt lat="48.769252999999985" lon="-3.5660919999999994">
    <name>Place de la poste</name>
    <cmt>Amenity::entertainment:public_bookcase</cmt>
    <desc>Cette boite à lire est sur le terre plein en face de la mairie  juste à côté de la poste...</desc>
    <type>Boite à livre</type>
  </wpt>
  <wpt lat="47.65705509999998" lon="-2.7550168">
    <name>rue francis decker</name>
    <cmt>Amenity::entertainment:public_bookcase</cmt>
    <desc>Boîte à lire située dans le jardin des remparts au niveau des jeux pour enfants côté porte prison.</desc>
    <type>Boite à livre</type>
  </wpt>
  <wpt lat="47.61955079999999" lon="-2.916694">
    <name>rue du poulic</name>
    <cmt>Amenity::entertainment:public_bookcase</cmt>
    <desc>A la sortie de la boulangerie entre la rue Bernard Layec et la rue du Poulic</desc>
    <type>Boite à livre</type>
  </wpt>
  <wpt lat="47.484435000000005" lon="-3.1022659999999997">
    <name>Place de Port Haliguen</name>
    <cmt>Amenity::entertainment:public_bookcase</cmt>
    <desc>Sur le vieux port, lieu de passage.</desc>
    <type>Boite à livre</type>
  </wpt>
  <wpt lat="47.65837049999999" lon="-2.7609760999999997">
    <name>Place de la mairie rue Thiers</name>
    <cmt>Amenity::entertainment:public_bookcase</cmt>
    <desc>Devant la mairie côté collège Jules Simon</desc>
    <type>Boite à livre</type>
  </wpt>
  <wpt lat="47.79896600000001" lon="-4.212885">
    <name>RUE VICTOR HUGO</name>
    <cmt>Amenity::entertainment:public_bookcase</cmt>
    <desc>A coté de la plage</desc>
    <type>Boite à livre</type>
  </wpt>
  <wpt lat="47.814492900000005" lon="-4.3332612">
    <name>Rue Edmond Michel</name>
    <cmt>Amenity::entertainment:public_bookcase</cmt>
    <desc>Adossée à la maison pour tous, a côté de la poste.</desc>
    <type>Boite à livre</type>
  </wpt>
  <wpt lat="47.7354029" lon="-3.4999628999999994">
    <name>15 boulevard de l&apos;ocean</name>
    <cmt>Amenity::entertainment:public_bookcase</cmt>
    <desc>Devant la plage face au fort bloqué près des WC public</desc>
    <type>Boite à livre</type>
  </wpt>
  <wpt lat="48.138569199999985" lon="-1.6659924">
    <name>RUE EMILE BERNARD</name>
    <cmt>Amenity::entertainment:public_bookcase</cmt>
    <desc>Il s&apos;agit d&apos;un monstro livres à coté d&apos;une aire de jeu pour enfants</desc>
    <type>Boite à livre</type>
  </wpt>
  <wpt lat="48.10590229999997" lon="-1.6818484999999999">
    <name>9 SQUARE DU GENERAL KOENIG</name>
    <cmt>Amenity::entertainment:public_bookcase</cmt>
    <desc>Située dans le hall d&apos;entrée de l&apos;immeuble à gauche</desc>
    <type>Boite à livre</type>
  </wpt>
  <wpt lat="48.481359199999986" lon="-1.1228358">
    <name>PLACE CHARLES DE GAULLE</name>
    <cmt>Amenity::entertainment:public_bookcase</cmt>
    <type>Boite à livre</type>
  </wpt>
  <wpt lat="47.994674299999986" lon="-4.1039732">
    <name>Parc de Kerfeunteun</name>
    <cmt>Amenity::entertainment:public_bookcase</cmt>
    <desc>Boîte implantée à proximité de la mairie annexe de Kerfeunteun. Projet à l initiative du Lions club Quimper-Corentin et du Conseil de quartier.</desc>
    <type>Boite à livre</type>
  </wpt>
  <wpt lat="48.7463302" lon="-3.4677425">
    <name>Boulevard d&apos;Armor</name>
    <cmt>Amenity::entertainment:public_bookcase</cmt>
    <type>Boite à livre</type>
  </wpt>
  <wpt lat="48.360708198876516" lon="-4.770700335502626">
    <name>Place de Brest</name>
    <cmt>Amenity::entertainment:public_bookcase</cmt>
    <desc>Elle se situe sur la place de la mairie, à l&apos;arrière de l&apos;office de tourisme</desc>
    <type>Boite à livre</type>
  </wpt>
  <wpt lat="48.462538299999984" lon="-2.0445306">
    <name>Bd André Aubert</name>
    <cmt>Amenity::entertainment:public_bookcase</cmt>
    <desc>Devant l entrée de la maison des associations</desc>
    <type>Boite à livre</type>
  </wpt>
  <wpt lat="48.636619999999986" lon="-2.939436">
    <name>Place du bourg</name>
    <cmt>Amenity::entertainment:public_bookcase</cmt>
    <desc>Ancienne cabine téléphonique réhabilitée en boite à livres.</desc>
    <type>Boite à livre</type>
  </wpt>
  <wpt lat="48.51323419999999" lon="-2.7585508999999995">
    <name>Allée des promenades</name>
    <cmt>Amenity::entertainment:public_bookcase</cmt>
    <desc>C est une boîte qui se trouve contre la clôture du Parc des Promenades, au niveau de l&apos;entrée.</desc>
    <type>Boite à livre</type>
  </wpt>
  <wpt lat="48.06272310000001" lon="-1.7988871">
    <name>La Fontaine</name>
    <cmt>Amenity::entertainment:public_bookcase</cmt>
    <desc>Abri bus</desc>
    <type>Boite à livre</type>
  </wpt>
  <wpt lat="48.402062499999985" lon="-2.9113621">
    <name>Rue du château Gaillard</name>
    <cmt>Amenity::entertainment:public_bookcase</cmt>
    <desc>Devant la Poste, à côté de la boîte à lettres.</desc>
    <type>Boite à livre</type>
  </wpt>
  <wpt lat="48.31443049999999" lon="-4.5481575">
    <name>rue du Port</name>
    <cmt>Amenity::entertainment:public_bookcase</cmt>
    <desc>Près de l église et de la poste, face à la crêperie</desc>
    <type>Boite à livre</type>
  </wpt>
  <wpt lat="48.13550119999999" lon="-1.6681087000000003">
    <name>5 RUE DU MORBIHAN-MAISON QUARTIER LA BELLANGERAIS</name>
    <cmt>Amenity::entertainment:public_bookcase</cmt>
    <desc>A l&apos;entrée se trouve un monstro livres</desc>
    <type>Boite à livre</type>
  </wpt>
  <wpt lat="48.21550599999999" lon="-1.8918730000000001">
    <name>au pied de l eglise</name>
    <cmt>Amenity::entertainment:public_bookcase</cmt>
    <desc>dans une ancienne cabine téléphonique</desc>
    <type>Boite à livre</type>
  </wpt>
  <wpt lat="47.60207899999999" lon="-2.860112">
    <name>Embarcadère de Port-Blanc</name>
    <cmt>Amenity::entertainment:public_bookcase</cmt>
    <desc>vers l Île aux Moines</desc>
    <type>Boite à livre</type>
  </wpt>
  <wpt lat="48.530682699999986" lon="-2.7484756">
    <name>rue du Chêne Vert</name>
    <cmt>Amenity::entertainment:public_bookcase</cmt>
    <desc>Elle contient également une boite à messages</desc>
    <type>Boite à livre</type>
  </wpt>
  <wpt lat="48.63808099999999" lon="-2.018848">
    <name>Digue des bas sablons</name>
    <cmt>Amenity::entertainment:public_bookcase</cmt>
    <desc>Dans le jardin public</desc>
    <type>Boite à livre</type>
  </wpt>
  <wpt lat="48.37303559999999" lon="-1.8757984">
    <name>Place de L église</name>
    <cmt>Amenity::entertainment:public_bookcase</cmt>
    <desc>Un parking est tout près.</desc>
    <type>Boite à livre</type>
  </wpt>
  <wpt lat="48.57608419999999" lon="-1.8833442000000002">
    <name>8 rue de la mairie</name>
    <cmt>Amenity::entertainment:public_bookcase</cmt>
    <desc>devant les commerces de proximité Vival, très belle initiative.</desc>
    <type>Boite à livre</type>
  </wpt>
  <wpt lat="48.63489719999999" lon="-2.0082632">
    <name>Saint-Servan</name>
    <cmt>Amenity::entertainment:public_bookcase</cmt>
    <desc>Saint SERVAN à côté de l abri bus devant la mairie annexe</desc>
    <type>Boite à livre</type>
  </wpt>
  <wpt lat="47.66576549999999" lon="-2.9772986">
    <name>Port de Saint-Goustan</name>
    <cmt>Amenity::entertainment:public_bookcase</cmt>
    <desc>Cette bib. de rue est installée à Saint-Goustan sur le port  près de la maison de quartier. Venez emprunter et déposer ce qui vous fait plaisir...</desc>
    <type>Boite à livre</type>
  </wpt>
  <wpt lat="47.547204" lon="-2.9158179">
    <name>Square de l océan</name>
    <cmt>Amenity::entertainment:public_bookcase</cmt>
    <desc>Parc enfant derrière le cinéma la locomotive au niveau de la plage</desc>
    <type>Boite à livre</type>
  </wpt>
  <wpt lat="47.93087759999998" lon="-2.3940663">
    <name>Place saint Jean paul II</name>
    <cmt>Amenity::entertainment:public_bookcase</cmt>
    <desc>Installée par l association Pollen</desc>
    <type>Boite à livre</type>
  </wpt>
  <wpt lat="48.0991644" lon="-1.6813838">
    <name>49 rue guinguene</name>
    <cmt>Amenity::entertainment:public_bookcase</cmt>
    <desc>une boite en bois se trouve sur la terrasse du café</desc>
    <type>Boite à livre</type>
  </wpt>
  <wpt lat="47.903815699999996" lon="-2.1202619">
    <name>place de la mairie</name>
    <cmt>Amenity::entertainment:public_bookcase</cmt>
    <desc>la municipalité devait en installer 4 avant cet été mais une seule est opérationnelle, celle-ci.</desc>
    <type>Boite à livre</type>
  </wpt>
  <wpt lat="48.183828999999996" lon="-1.436454">
    <name>Rue Théophile Rémond</name>
    <cmt>Amenity::entertainment:public_bookcase</cmt>
    <desc>Boite à lire dans une cabine téléphonique anglaise. Livres  magazines papier adultes et enfants. Livres et musiques numériques libres de droits à télécharger via une biblio intégrée à la boîte à lire.</desc>
    <type>Boite à livre</type>
  </wpt>
  <wpt lat="48.191807399999995" lon="-1.8281862">
    <name>rue principale</name>
    <cmt>Amenity::entertainment:public_bookcase</cmt>
    <desc>aupres bibliotheque</desc>
    <type>Boite à livre</type>
  </wpt>
  <wpt lat="48.07619019999999" lon="-4.1920786">
    <name>Ecole Paul Gauguin, Rue du Stade</name>
    <cmt>Amenity::entertainment:public_bookcase</cmt>
    <desc>En face de l école Paul-Gauguin, au parc de Llandysul</desc>
    <type>Boite à livre</type>
  </wpt>
  <wpt lat="48.157561899999976" lon="-4.1383762">
    <name>Place Saint Hubert</name>
    <cmt>Amenity::entertainment:public_bookcase</cmt>
    <desc>Boîte à lire sur l esplanade de la bibliothèque Jeanne Laurent à Cast, dans une ancienne cabine téléphonique, Il y a de quoi se garer et c&apos;est au centre du village.</desc>
    <type>Boite à livre</type>
  </wpt>
  <wpt lat="48.2468266" lon="-1.7266622000000003">
    <name>RUE CENTRALE</name>
    <cmt>Amenity::entertainment:public_bookcase</cmt>
    <type>Boite à livre</type>
  </wpt>
  <wpt lat="48.4163076" lon="-2.0322738">
    <name>route de dinan</name>
    <cmt>Amenity::entertainment:public_bookcase</cmt>
    <desc>chalet a livres très bien fourni et entretenu ?horaire d ouverture 9h,17h ,  place de la mairie</desc>
    <type>Boite à livre</type>
  </wpt>
  <wpt lat="48.8143459" lon="-3.4431188999999995">
    <name>Eglise St Jacques</name>
    <cmt>Amenity::entertainment:public_bookcase</cmt>
    <desc>Boite située devant l&apos;Eglise St Jacques.</desc>
    <type>Boite à livre</type>
  </wpt>
  <wpt lat="48.28695239999998" lon="-4.4620414">
    <name>2 Grande Rue</name>
    <cmt>Amenity::entertainment:public_bookcase</cmt>
    <desc>Mise en place le 1er octobre 2016</desc>
    <type>Boite à livre</type>
  </wpt>
  <wpt lat="48.677352099999986" lon="-2.884523">
    <name>LE PALUS PLAGE</name>
    <cmt>Amenity::entertainment:public_bookcase</cmt>
    <desc>sur le parking face a la plage au coin du parc a jeux</desc>
    <type>Boite à livre</type>
  </wpt>
  <wpt lat="48.00909219999998" lon="-1.4292274">
    <name>19 rue du temple</name>
    <cmt>Amenity::entertainment:public_bookcase</cmt>
    <desc>La boite à lire se trouve en face du bar Le Temps qu il faut.</desc>
    <type>Boite à livre</type>
  </wpt>
  <wpt lat="48.587981024982525" lon="-1.9238948822021489">
    <name>Place Arthur Regnault</name>
    <cmt>Amenity::entertainment:public_bookcase</cmt>
    <desc>Boîte à livres située derrière l arrêt de bus.</desc>
    <type>Boite à livre</type>
  </wpt>
  <wpt lat="48.1293652" lon="-1.6978526">
    <name>Place Eugène Aulnette</name>
    <cmt>Amenity::entertainment:public_bookcase</cmt>
    <type>Boite à livre</type>
  </wpt>
  <wpt lat="47.36997350000001" lon="-3.2213147">
    <name>Rue du Chemin Neuf</name>
    <cmt>Amenity::entertainment:public_bookcase</cmt>
    <desc>Devant le Vival</desc>
    <type>Boite à livre</type>
  </wpt>
  <wpt lat="48.11082449999999" lon="-1.672659">
    <name>ccass centre ville-7 rue kléber</name>
    <cmt>Amenity::entertainment:public_bookcase</cmt>
    <desc>Elle se situe devant l  entrée du ccass avant le hall d &apos;accueil</desc>
    <type>Boite à livre</type>
  </wpt>
  <wpt lat="48.110765" lon="-1.6718773">
    <name>15 RUE KLEBER</name>
    <cmt>Amenity::entertainment:public_bookcase</cmt>
    <desc>A COTE DU BAR LE PIQUILLO SE TROUVE UNE PETITE BOITE ROUGE SUR LE TROTTOIR</desc>
    <type>Boite à livre</type>
  </wpt>
  <wpt lat="48.09956089876854" lon="-1.6488397121429441">
    <name>BIBLIOTHEQUE DU LANDRY - 100 rue de Chateaugiron</name>
    <cmt>Amenity::entertainment:public_bookcase</cmt>
    <desc>Situer à droite de l&apos;entrée de la bibliothèque</desc>
    <type>Boite à livre</type>
  </wpt>
  <wpt lat="48.547951899999994" lon="-2.5975397">
    <name>Camping municipal, le Val</name>
    <cmt>Amenity::entertainment:public_bookcase</cmt>
    <desc>La boite à lire se trouve à l intérieur du camping.</desc>
    <type>Boite à livre</type>
  </wpt>
  <wpt lat="47.79574550000001" lon="-4.2856396000000005">
    <name>place du 19 Mars 1962</name>
    <cmt>Amenity::entertainment:public_bookcase</cmt>
    <desc>Bonjour, il  ya une boîte à lire dans une cabine téléphonique à Léchiagat- Tréffiagat, place du 19 Mars 1962, 47°48 28.50 N   4°15&apos;45.74O</desc>
    <type>Boite à livre</type>
  </wpt>
  <wpt lat="47.65493799999999" lon="-2.754542">
    <name>jardin de la garenne</name>
    <cmt>Amenity::entertainment:public_bookcase</cmt>
    <desc>Elle se trouve dans le jardin de la garenne du côté des jeux pour enfants</desc>
    <type>Boite à livre</type>
  </wpt>
  <wpt lat="48.11079859999999" lon="-1.7108964000000002">
    <name>28 rue charles géniaux</name>
    <cmt>Amenity::entertainment:public_bookcase</cmt>
    <desc>Petite valise à lire à l&apos;entrée du Noroît. Accessible aux horaires d&apos;ouverture de l&apos;établissement.</desc>
    <type>Boite à livre</type>
  </wpt>
  <wpt lat="48.580361" lon="-2.05915">
    <name>11 rue de Dinard</name>
    <cmt>Amenity::entertainment:public_bookcase</cmt>
    <type>Boite à livre</type>
  </wpt>
  <wpt lat="47.64675710000001" lon="-2.085612">
    <name>quai duguay trouin</name>
    <cmt>Amenity::entertainment:public_bookcase</cmt>
    <desc>La boite se trouve juste auprès de la vilaine avec un banc pour se poser.</desc>
    <type>Boite à livre</type>
  </wpt>
  <wpt lat="47.912149899999996" lon="-2.282556">
    <name>Residence de l oyon</name>
    <cmt>Amenity::entertainment:public_bookcase</cmt>
    <desc>Dans l ancienne gare en brique le long de la voie verte</desc>
    <type>Boite à livre</type>
  </wpt>
  <wpt lat="48.24912869999999" lon="-1.659485">
    <name>LA MAIRIE</name>
    <cmt>Amenity::entertainment:public_bookcase</cmt>
    <desc>La boite est à coté de la mairie</desc>
    <type>Boite à livre</type>
  </wpt>
  <wpt lat="48.11725929807872" lon="-1.603746414184571">
    <name>Place du marché</name>
    <cmt>Amenity::entertainment:public_bookcase</cmt>
    <desc>Près du parking, à l&apos;entrée du parc de Bourgchevreuil</desc>
    <type>Boite à livre</type>
  </wpt>
  <wpt lat="47.59875699999998" lon="-2.842872">
    <name>Rue de l&apos;Eglise</name>
    <cmt>Amenity::entertainment:public_bookcase</cmt>
    <desc>A environ 200 mètres de l&apos;église St Michel.</desc>
    <type>Boite à livre</type>
  </wpt>
  <wpt lat="48.1302158" lon="-1.6351344">
    <name>square René-Cassin</name>
    <cmt>Amenity::entertainment:public_bookcase</cmt>
    <type>Boite à livre</type>
  </wpt>
  <wpt lat="47.5199532" lon="-3.1293679">
    <name>38 rue de l&apos;église</name>
    <cmt>Amenity::entertainment:public_bookcase</cmt>
    <desc>Elle est orange vous ne pouvez pas la louper.</desc>
    <type>Boite à livre</type>
  </wpt>
  <wpt lat="48.35266039999999" lon="-2.9135025">
    <name>1 Place Saint Guyganton</name>
    <cmt>Amenity::entertainment:public_bookcase</cmt>
    <desc>Boîte à livre installée en mars  qui connaît un bon accueil. Un large choix de livre  de cd et même parfois de cassette. Tout cela au c?ur de notre petit bourg...</desc>
    <type>Boite à livre</type>
  </wpt>
  <wpt lat="48.522252" lon="-2.7976085">
    <name>Rue de Penthievre</name>
    <cmt>Amenity::entertainment:public_bookcase</cmt>
    <desc>C est une cabine téléphonique rouge vers le bout de la rue à côté du rond point.</desc>
    <type>Boite à livre</type>
  </wpt>
  <wpt lat="47.795673199999975" lon="-4.2809886">
    <name>Rue de Menn Crenn</name>
    <cmt>Amenity::entertainment:public_bookcase</cmt>
    <desc>Derrière l&apos;office de tourisme.</desc>
    <type>Boite à livre</type>
  </wpt>
  <wpt lat="48.3435054" lon="-1.1960910999999999">
    <name>Rue du Gué Maheu</name>
    <cmt>Amenity::entertainment:public_bookcase</cmt>
    <desc>Maison de quartier de la Chattière  à coté du centre Juliette Drouet</desc>
    <type>Boite à livre</type>
  </wpt>
  <wpt lat="48.43238219999999" lon="-2.1198944">
    <name>Rue du Centre</name>
    <cmt>Amenity::entertainment:public_bookcase</cmt>
    <desc>Située en face de la boulangerie</desc>
    <type>Boite à livre</type>
  </wpt>
  <wpt lat="47.95760029999998" lon="-3.8273022000000005">
    <name>17 Rue Alsace Lorraine</name>
    <cmt>Amenity::entertainment:public_bookcase</cmt>
    <desc>Un grand bac à lire  dans l&apos;espace culturel. Accessible aux heures d&apos;ouverture.</desc>
    <type>Boite à livre</type>
  </wpt>
  <wpt lat="48.095434600000004" lon="-1.692428">
    <name>23 bis rue Joseph Boussin</name>
    <cmt>Amenity::entertainment:public_bookcase</cmt>
    <desc>Boite à livre bien fournie, aussi bien en livres pour adultes qu&apos;en livres pour adolescents.</desc>
    <type>Boite à livre</type>
  </wpt>
  <wpt lat="48.649406099999986" lon="-2.0271328">
    <name>Place des Frères Lamennais</name>
    <cmt>Amenity::entertainment:public_bookcase</cmt>
    <desc>Au bout du parc, boite à lire en forme de phare.A coté des jeux pour enfants.</desc>
    <type>Boite à livre</type>
  </wpt>
  <wpt lat="48.21751732900486" lon="-1.6966849565505977">
    <name>Place de l&apos;Eglise</name>
    <cmt>Amenity::entertainment:public_bookcase</cmt>
    <desc>A côté de l&apos;église, sur la partie piétonne de l&apos;esplanade.</desc>
    <type>Boite à livre</type>
  </wpt>
  <wpt lat="48.10675080000001" lon="-1.6960106000000001">
    <name>10 Allée Marion du Faouët</name>
    <cmt>Amenity::entertainment:public_bookcase</cmt>
    <desc>Elle est située au 1er étage sur votre gauche</desc>
    <type>Boite à livre</type>
  </wpt>
  <wpt lat="48.46973679999999" lon="-2.5131176">
    <name>47 rue du Val</name>
    <cmt>Amenity::entertainment:public_bookcase</cmt>
    <type>Boite à livre</type>
  </wpt>
  <wpt lat="47.650439500000005" lon="-2.0850075">
    <name>Place de la Duchesse Anne</name>
    <cmt>Amenity::entertainment:public_bookcase</cmt>
    <desc>Mise en place par la mairie</desc>
    <type>Boite à livre</type>
  </wpt>
  <wpt lat="48.40532339999998" lon="-4.4870447">
    <name>jardin de kerinou</name>
    <cmt>Amenity::entertainment:public_bookcase</cmt>
    <desc>c est à coté du jardin partagé lui même situé dans le jardin de kerinou</desc>
    <type>Boite à livre</type>
  </wpt>
  <wpt lat="48.797303" lon="-3.0220228999999996">
    <name>14 rue de Toul Broc&apos;h</name>
    <cmt>Amenity::entertainment:public_bookcase</cmt>
    <desc>Cette boite à lire tourne depuis février 2016 et est régulièrement garnie et l&apos;été  en plus  quelques fines herbes à emporter !</desc>
    <type>Boite à livre</type>
  </wpt>
  <wpt lat="48.52430429999999" lon="-3.9450751999999993">
    <name>Park an Iliz</name>
    <cmt>Amenity::entertainment:public_bookcase</cmt>
    <desc>Près de la salle des fêtes et de l aire de jeux pour enfants</desc>
    <type>Boite à livre</type>
  </wpt>
  <wpt lat="47.6810364" lon="-2.6133333">
    <name>13 RUE DES TEMPLIERS</name>
    <cmt>Amenity::entertainment:public_bookcase</cmt>
    <desc>La boîte à lire est présente sur la terrasse du bar et ainsi accessible à tous et à toute heure.</desc>
    <type>Boite à livre</type>
  </wpt>
  <wpt lat="47.541788499999996" lon="-2.3237212">
    <name>place St Pierre</name>
    <cmt>Amenity::entertainment:public_bookcase</cmt>
    <desc>Dans une ancienne cabine téléphonique, en face de l église. Offert par la Médiathèque.</desc>
    <type>Boite à livre</type>
  </wpt>
  <wpt lat="47.524372" lon="-2.858299">
    <name>Camping du Kerver</name>
    <cmt>Amenity::entertainment:public_bookcase</cmt>
    <desc>Caravane aux couleur de la Bretagne transformée en boîte à livres.</desc>
    <type>Boite à livre</type>
  </wpt>
  <wpt lat="48.328863" lon="-1.8351900000000003">
    <name>PLACE TANOUAR</name>
    <cmt>Amenity::entertainment:public_bookcase</cmt>
    <type>Boite à livre</type>
  </wpt>
  <wpt lat="47.6445051" lon="-2.6991372">
    <name>2 rue surcouf</name>
    <cmt>Amenity::entertainment:public_bookcase</cmt>
    <desc>L Hotel Inn vous propose une bibliotheque participative ou les clients, ou les gens de passage, prennent ou laissent leurs livres voyageurs.Ouvert de 6h a 22hlibre d&apos;acces</desc>
    <type>Boite à livre</type>
  </wpt>
  <wpt lat="48.00178069999998" lon="-4.1163481">
    <name>2 Garenne de Kermabeuzen</name>
    <cmt>Amenity::entertainment:public_bookcase</cmt>
    <desc>Dans un ancien frigo</desc>
    <type>Boite à livre</type>
  </wpt>
  <wpt lat="48.030001799999994" lon="-1.7585439">
    <name>5-7 Rue des gavrinis</name>
    <cmt>Amenity::entertainment:public_bookcase</cmt>
    <desc>Devant Scarabee Biocop</desc>
    <type>Boite à livre</type>
  </wpt>
  <wpt lat="48.107871999999986" lon="-1.658769">
    <name>Rue Henri Delaborde</name>
    <cmt>Amenity::entertainment:public_bookcase</cmt>
    <desc>La boîte est située à l&apos;angle de la rue Henri Delaborde et de la Rue Bertrand Robidou</desc>
    <type>Boite à livre</type>
  </wpt>
  <wpt lat="48.404214" lon="-4.4694521">
    <name>13 Rue du professeur Chrétien</name>
    <cmt>Amenity::entertainment:public_bookcase</cmt>
    <desc>Bibliothèque participative installée à l&apos;entrée du centre social.</desc>
    <type>Boite à livre</type>
  </wpt>
  <wpt lat="48.6364482" lon="-2.0207726">
    <name>Place Monseigneur Duchesne</name>
    <cmt>Amenity::entertainment:public_bookcase</cmt>
    <desc>Au bout du petit parc, en contrebas du parking.</desc>
    <type>Boite à livre</type>
  </wpt>
  <wpt lat="48.3667577" lon="-3.5211477">
    <name>3 impasse des cerisiers</name>
    <cmt>Amenity::entertainment:public_bookcase</cmt>
    <type>Boite à livre</type>
  </wpt>
  <wpt lat="48.00998449999998" lon="-1.4309650999999999">
    <name>5 rue de chaumere</name>
    <cmt>Amenity::entertainment:public_bookcase</cmt>
    <desc>La boite à lire se trouve à côté du cabinet de réflexologie.</desc>
    <type>Boite à livre</type>
  </wpt>
  <wpt lat="48.151546" lon="-1.8230892">
    <name>L étang</name>
    <cmt>Amenity::entertainment:public_bookcase</cmt>
    <desc>La cabane est située au bord de l  étang</desc>
    <type>Boite à livre</type>
  </wpt>
  <wpt lat="48.65815659999999" lon="-4.1752061">
    <name>5 rue des halles</name>
    <cmt>Amenity::entertainment:public_bookcase</cmt>
    <desc>La boite à lire se trouve juste à coté de l&apos;office du tourisme de Plouescat</desc>
    <type>Boite à livre</type>
  </wpt>
  <wpt lat="48.21952159999999" lon="-1.7539078999999995">
    <name>MAIRIE</name>
    <cmt>Amenity::entertainment:public_bookcase</cmt>
    <type>Boite à livre</type>
  </wpt>
  <wpt lat="47.57131209999998" lon="-2.9963024">
    <name>Plage de men er bellec</name>
    <cmt>Amenity::entertainment:public_bookcase</cmt>
    <desc>Placement devant la plage idéal lorsqu on a oublié son livre.Look sympathique!</desc>
    <type>Boite à livre</type>
  </wpt>
  <wpt lat="48.070650999999984" lon="-1.932782">
    <name>LE VERGER</name>
    <cmt>Amenity::entertainment:public_bookcase</cmt>
    <desc>sur le site du bassin d orage, dit le Verger et de l&apos;ancienne mairie</desc>
    <type>Boite à livre</type>
  </wpt>
  <wpt lat="48.51240690000001" lon="-3.8718757999999998">
    <name>38 rue de la République</name>
    <cmt>Amenity::entertainment:public_bookcase</cmt>
    <desc>Boîte à lire dans le parc Loswithiel facile à trouver car il s agit d&apos;une cabine téléphonique anglaise reconvertie !</desc>
    <type>Boite à livre</type>
  </wpt>
  <wpt lat="48.49593749999998" lon="-4.0821488">
    <name>Gare SNCF</name>
    <cmt>Amenity::entertainment:public_bookcase</cmt>
    <desc>Situé dans l espace attente ouvert à toute heure</desc>
    <type>Boite à livre</type>
  </wpt>
  <wpt lat="47.98285939999999" lon="-4.2707151">
    <name>Place de la poste</name>
    <cmt>Amenity::entertainment:public_bookcase</cmt>
    <type>Boite à livre</type>
  </wpt>
  <wpt lat="47.79105569999998" lon="-3.4188140000000002">
    <name>Intersection des rues Alain Lesage et Emmanuel Svob</name>
    <cmt>Amenity::entertainment:public_bookcase</cmt>
    <desc>Elle se trouve dans une petite zone herbeuse derrière la mairie</desc>
    <type>Boite à livre</type>
  </wpt>
  <wpt lat="48.56104589999998" lon="-4.3349938">
    <name>Rue du verger</name>
    <cmt>Amenity::entertainment:public_bookcase</cmt>
    <desc>Près de la poste.</desc>
    <type>Boite à livre</type>
  </wpt>
  <wpt lat="47.98998499999997" lon="-4.122081">
    <name>square du Séminaire</name>
    <cmt>Amenity::entertainment:public_bookcase</cmt>
    <desc>Boîte implantée à proximité de la mairie annexe de Kerfeunteun. Projet à l initiative du Lions club Quimper-Corentin.</desc>
    <type>Boite à livre</type>
  </wpt>
  <wpt lat="48.12456989999998" lon="-1.6553476999999999">
    <name>rue courteline</name>
    <cmt>Amenity::entertainment:public_bookcase</cmt>
    <desc>La boite à livre est dans le parc de Maurepas, au niveau des jeux pour enfants.</desc>
    <type>Boite à livre</type>
  </wpt>
  <wpt lat="48.09204699999997" lon="-1.653398">
    <name>Rue Gérard Philippe</name>
    <cmt>Amenity::entertainment:public_bookcase</cmt>
    <type>Boite à livre</type>
  </wpt>
  <wpt lat="47.802741000000005" lon="-2.220603">
    <name>Etang de la Guette</name>
    <cmt>Amenity::entertainment:public_bookcase</cmt>
    <desc>Boite à livres mise en place par les bénévoles de la bibliothèque de St Nicolas du Tertre</desc>
    <type>Boite à livre</type>
  </wpt>
  <wpt lat="48.56798899999999" lon="-1.9302510000000002">
    <name>roselyne.robinault@orange.fr</name>
    <cmt>Amenity::entertainment:public_bookcase</cmt>
    <desc>plusieurs: st père marc en poulet, st jouan des guéret, le tronchet, la ville es nonais</desc>
    <type>Boite à livre</type>
  </wpt>
  <wpt lat="48.31326199999999" lon="-1.8984020000000004">
    <name>LA LANDE DU BOURG</name>
    <cmt>Amenity::entertainment:public_bookcase</cmt>
    <desc>Juste l hotel de ville de la commune.</desc>
    <type>Boite à livre</type>
  </wpt>
  <wpt lat="48.6214681" lon="-1.8538624000000001">
    <name>53 rue du Bord de Mer</name>
    <cmt>Amenity::entertainment:public_bookcase</cmt>
    <desc>Ancienne cabine téléphonique recyclée, elle a été installée juste à côté de la bibliothèque.</desc>
    <type>Boite à livre</type>
  </wpt>
  <wpt lat="48.534141999999996" lon="-3.7921320000000005">
    <name>rue Yves Léon</name>
    <cmt>Amenity::entertainment:public_bookcase</cmt>
    <desc>Près de l aire de jeux.</desc>
    <type>Boite à livre</type>
  </wpt>
  <wpt lat="48.13724529999999" lon="-1.6646289">
    <name>Coulée verte</name>
    <cmt>Amenity::entertainment:public_bookcase</cmt>
    <desc>Au coeur du parc de la coulée verte.</desc>
    <type>Boite à livre</type>
  </wpt>
  <wpt lat="48.19618089999999" lon="-4.0946746">
    <name>quai Carnot</name>
    <cmt>Amenity::entertainment:public_bookcase</cmt>
    <desc>Frigo transformé en boite à livre. Génial !</desc>
    <type>Boite à livre</type>
  </wpt>
  <wpt lat="48.55111769999999" lon="-1.7515018">
    <name>place Chateaubriand</name>
    <cmt>Amenity::entertainment:public_bookcase</cmt>
    <desc>dans deux cabines téléphoniques au coin de la rue Chateaubriand et de la rue des Carmes</desc>
    <type>Boite à livre</type>
  </wpt>
  <wpt lat="48.4014143686196" lon="-2.90814757347107">
    <name>Bousquet de l&apos;étang</name>
    <cmt>Amenity::entertainment:public_bookcase</cmt>
    <type>Boite à livre</type>
  </wpt>
  <wpt lat="48.64026770000002" lon="-3.8223432000000006">
    <name>20 place du Bourg,</name>
    <cmt>Amenity::entertainment:public_bookcase</cmt>
    <desc>Armoire sous un abri, contre le mur de la Bibliothèque.</desc>
    <type>Boite à livre</type>
  </wpt>
  <wpt lat="47.979704999999996" lon="-4.1823056">
    <name>13 rue de Pouldreuzic</name>
    <cmt>Amenity::entertainment:public_bookcase</cmt>
    <desc>Devant l accès au cabinet dentaire</desc>
    <type>Boite à livre</type>
  </wpt>
  <wpt lat="48.00649039999998" lon="-4.0960889">
    <name>mairie annexe de kerfeunteun</name>
    <cmt>Amenity::entertainment:public_bookcase</cmt>
    <desc>Boîte implantée au square du séminaire à proximité de la mairie annexe de kerfeunteun</desc>
    <type>Boite à livre</type>
  </wpt>
  <wpt lat="47.58005029999999" lon="-3.0780314000000004">
    <name>jardin de cesarine</name>
    <cmt>Amenity::entertainment:public_bookcase</cmt>
    <desc>au centre du parc sous un grand abri en bois</desc>
    <type>Boite à livre</type>
  </wpt>
  <wpt lat="48.62322569999998" lon="-2.051922">
    <name>Parc Port Breton à côté de la plage du Prieuré</name>
    <cmt>Amenity::entertainment:public_bookcase</cmt>
    <desc>Près de l entrée Nord-Est, une petite cabane à rayures blanches et bleues</desc>
    <type>Boite à livre</type>
  </wpt>
  <wpt lat="48.354725099999996" lon="-1.2028594">
    <name>Place du théâtre</name>
    <cmt>Amenity::entertainment:public_bookcase</cmt>
    <desc>Installée par le collectif de la boutique de créateurs UNIK</desc>
    <type>Boite à livre</type>
  </wpt>
  <wpt lat="48.3515609" lon="-1.204626">
    <name>Parc des Orières</name>
    <cmt>Amenity::entertainment:public_bookcase</cmt>
    <desc>A coté de l&apos;aire de jeux</desc>
    <type>Boite à livre</type>
  </wpt>
  <wpt lat="47.78800099999998" lon="-3.7028439999999994">
    <name>Plage de Trénez</name>
    <cmt>Amenity::entertainment:public_bookcase</cmt>
    <type>Boite à livre</type>
  </wpt>
  <wpt lat="47.6533707" lon="-2.9173213">
    <name>5 rue yves de pont sal</name>
    <cmt>Amenity::entertainment:public_bookcase</cmt>
    <desc>boite aux lettres situées près du plan de la commune</desc>
    <type>Boite à livre</type>
  </wpt>
  <wpt lat="47.90692899999998" lon="-4.0437227">
    <name>Jardin de la mairie</name>
    <cmt>Amenity::entertainment:public_bookcase</cmt>
    <desc>Visible de la grande route. Bien rangée, achalandée.</desc>
    <type>Boite à livre</type>
  </wpt>
  <wpt lat="48.63658250000001" lon="-2.1087331">
    <name>157 Boulevard du Gnal de gaulle</name>
    <cmt>Amenity::entertainment:public_bookcase</cmt>
    <desc>Cabane vagabonde créée par la médiathèque municipale de Saint-Lunaire</desc>
    <type>Boite à livre</type>
  </wpt>
  <wpt lat="47.85544799999998" lon="-3.852671">
    <name>plage de Donc</name>
    <cmt>Amenity::entertainment:public_bookcase</cmt>
    <type>Boite à livre</type>
  </wpt>
  <wpt lat="48.45930229999999" lon="-2.0492333">
    <name>10 rue Lécuyer</name>
    <cmt>Amenity::entertainment:public_bookcase</cmt>
    <desc>En face du noz, dans le parc</desc>
    <type>Boite à livre</type>
  </wpt>
  <wpt lat="48.29925229999998" lon="-3.5898039">
    <name>carrefour des ecoles</name>
    <cmt>Amenity::entertainment:public_bookcase</cmt>
    <type>Boite à livre</type>
  </wpt>
  <wpt lat="47.9656055" lon="-1.6140282">
    <name>11 rue du Fresche</name>
    <cmt>Amenity::entertainment:public_bookcase</cmt>
    <desc>Au niveau du Repaire, à côté de la médiathèque.</desc>
    <type>Boite à livre</type>
  </wpt>
  <wpt lat="48.08369489999999" lon="-1.6917303">
    <name>15 AVENUE GEORGE GRAFF</name>
    <cmt>Amenity::entertainment:public_bookcase</cmt>
    <desc>Une cabane à don devant la MJC de Bréquigny. Dons de livres et de revues.</desc>
    <type>Boite à livre</type>
  </wpt>
  <wpt lat="48.67548099999999" lon="-3.191802">
    <name>Devant l église</name>
    <cmt>Amenity::entertainment:public_bookcase</cmt>
    <type>Boite à livre</type>
  </wpt>
  <wpt lat="47.731072199999986" lon="-3.3608583000000003">
    <name>Rue Florian Laporte</name>
    <cmt>Amenity::entertainment:public_bookcase</cmt>
    <desc>Dans un ancien frigo</desc>
    <type>Boite à livre</type>
  </wpt>
  <wpt lat="48.26278829999999" lon="-1.6059507000000002">
    <name>Place de la mairie</name>
    <cmt>Amenity::entertainment:public_bookcase</cmt>
    <desc>Grande armoire dans l&apos;abribus</desc>
    <type>Boite à livre</type>
  </wpt>
  <wpt lat="48.42041820000001" lon="-2.6584836000000003">
    <name>1 RUE DE TOURNEBRIDE</name>
    <cmt>Amenity::entertainment:public_bookcase</cmt>
    <desc>Les jours d ouverture de la crêperie.Bien achalandée.Gérée par la Bibliothèque Municipale et QUESS-DON.</desc>
    <type>Boite à livre</type>
  </wpt>
  <wpt lat="47.984987999999994" lon="-4.0835524">
    <name>place Victor Schoelcher</name>
    <cmt>Amenity::entertainment:public_bookcase</cmt>
    <desc>Près de l&apos;école Edmond MICHELET et la maison du Braden</desc>
    <type>Boite à livre</type>
  </wpt>
  <wpt lat="48.13388369999999" lon="-1.6684281">
    <name>RUE DU BLAVET</name>
    <cmt>Amenity::entertainment:public_bookcase</cmt>
    <desc>Il s&apos;agit d&apos;un monstro livre</desc>
    <type>Boite à livre</type>
  </wpt>
  <wpt lat="48.201021599999976" lon="-2.0464617">
    <name>Place du Marché</name>
    <cmt>Amenity::entertainment:public_bookcase</cmt>
    <type>Boite à livre</type>
  </wpt>
  <wpt lat="48.01597059999998" lon="-4.3612346">
    <name>Résidence du Goyen</name>
    <cmt>Amenity::entertainment:public_bookcase</cmt>
    <desc>Située près de la mairie</desc>
    <type>Boite à livre</type>
  </wpt>
  <wpt lat="48.636203099999996" lon="-2.110693">
    <name>devant la poste</name>
    <cmt>Amenity::entertainment:public_bookcase</cmt>
    <desc>Jolie boite à lire, bien fournie.</desc>
    <type>Boite à livre</type>
  </wpt>
  <wpt lat="47.9318974" lon="-2.3955557">
    <name>Impasse saint Joseph</name>
    <cmt>Amenity::entertainment:public_bookcase</cmt>
    <type>Boite à livre</type>
  </wpt>
  <wpt lat="48.27328829999999" lon="-1.6600640000000002">
    <name>L église</name>
    <cmt>Amenity::entertainment:public_bookcase</cmt>
    <desc>La boite est une cabine téléphonique à coté de l église</desc>
    <type>Boite à livre</type>
  </wpt>
  <wpt lat="47.97910239999999" lon="-1.5864095000000002">
    <name>11 boulevard de la gare</name>
    <cmt>Amenity::entertainment:public_bookcase</cmt>
    <desc>Livres gratuits</desc>
    <type>Boite à livre</type>
  </wpt>
  <wpt lat="47.5083938" lon="-2.7125725">
    <name>17 rue du Blein Raz</name>
    <cmt>Amenity::entertainment:public_bookcase</cmt>
    <desc>Se trouve dans le virage, au niveau des aires de pique nique</desc>
    <type>Boite à livre</type>
  </wpt>
  <wpt lat="48.5365759" lon="-3.7874440000000003">
    <name>rue des genets</name>
    <cmt>Amenity::entertainment:public_bookcase</cmt>
    <desc>dans un petit square entre la maison de retraite Ker an dero et le centre social</desc>
    <type>Boite à livre</type>
  </wpt>
  <wpt lat="48.0094074" lon="-1.4279771">
    <name>place de la porte</name>
    <cmt>Amenity::entertainment:public_bookcase</cmt>
    <desc>La boîte à livre se situe à côté du proxy et en face de la pharmacie</desc>
    <type>Boite à livre</type>
  </wpt>
  <wpt lat="48.002865699999994" lon="-4.093926">
    <name>4 Rue Teilhard de Chardin</name>
    <cmt>Amenity::entertainment:public_bookcase</cmt>
    <desc>Dans la MJC de Kerfeunteun</desc>
    <type>Boite à livre</type>
  </wpt>
  <wpt lat="47.873662399999986" lon="-4.1216749">
    <name>1 Rue du Bac - Ste Marine</name>
    <cmt>Amenity::entertainment:public_bookcase</cmt>
    <desc>En contrebas de la rue, boite située dans le square de la fontaineCoordonnées GPS : 47.873945  -4.121747</desc>
    <type>Boite à livre</type>
  </wpt>
  <wpt lat="48.18401800000001" lon="-1.4378543">
    <name>1 Rue Théophile Rémond</name>
    <cmt>Amenity::entertainment:public_bookcase</cmt>
    <desc>Boîte à lire tout public dans une cabine téléphonique Anglaise. Cette cabine téléphonique a été offerte par une ville Anglaise avec laquelle nous sommes jumellés.</desc>
    <type>Boite à livre</type>
  </wpt>
  <wpt lat="47.7891609" lon="-3.408695">
    <name>Parc de Kerzec</name>
    <cmt>Amenity::entertainment:public_bookcase</cmt>
    <desc>Elle se trouve dans un parc municipal.</desc>
    <type>Boite à livre</type>
  </wpt>
  <wpt lat="48.694497200000015" lon="-3.7728456999999995">
    <name>Place Tanguy Prigent</name>
    <cmt>Amenity::entertainment:public_bookcase</cmt>
    <desc>La boite à lire se trouve juste derrière l église et à côté de la poste. Après avoir fait son choix, on peut aller bouquiner sur la plage à 1km de là...</desc>
    <type>Boite à livre</type>
  </wpt>
  <wpt lat="48.1171299" lon="-1.6823818">
    <name>19 RUE LEGRAVEREND</name>
    <cmt>Amenity::entertainment:public_bookcase</cmt>
    <desc>On y trouve des livres et des revues à l&apos;étage de la maison.</desc>
    <type>Boite à livre</type>
  </wpt>
  <wpt lat="48.242468999999986" lon="-1.562212">
    <name>LE CITY</name>
    <cmt>Amenity::entertainment:public_bookcase</cmt>
    <type>Boite à livre</type>
  </wpt>
  <wpt lat="48.8155609578464" lon="-3.4568148851394667">
    <name>Bvld Joseph Le Bihan</name>
    <cmt>Amenity::entertainment:public_bookcase</cmt>
    <desc>La Boite est située dans le petit espace vert face àla conserverie de Belle-Ile</desc>
    <type>Boite à livre</type>
  </wpt>
  <wpt lat="48.62994269999998" lon="-2.4653791">
    <name>12 rue Foch</name>
    <cmt>Amenity::entertainment:public_bookcase</cmt>
    <desc>Cabine à livres jaune et blanche, à côté d un opticien, au carrefour de la rue foch et de la place du nouvel oupeye.</desc>
    <type>Boite à livre</type>
  </wpt>
  <wpt lat="48.47222219999998" lon="-1.5613889">
    <name>Forêt de Villecartier</name>
    <cmt>Amenity::entertainment:public_bookcase</cmt>
    <desc>Mise en place par le réseau des bibliothèques d&apos;Antrain Communauté  cette boite à lire se trouve au c?ur de la base de loisirs Récrénature en forêt de Villecartier. A l&apos;entrée de l espace ludique  vous trouverez cette petite maisonnette contenant des dizaines de livres! Servez-vous et bonne lecture à tous !</desc>
    <type>Boite à livre</type>
  </wpt>
  <wpt lat="48.57850129999999" lon="-2.0083231">
    <name>Avenue du Gal leclerc</name>
    <cmt>Amenity::entertainment:public_bookcase</cmt>
    <desc>Petite boîte à lire rouge adossé à l abribus</desc>
    <type>Boite à livre</type>
  </wpt>
  <wpt lat="48.67379170000001" lon="-2.9330412999999997">
    <name>Rue de Dixmude</name>
    <cmt>Amenity::entertainment:public_bookcase</cmt>
    <desc>La boîte se trouve derrière le gymnase</desc>
    <type>Boite à livre</type>
  </wpt>
  <wpt lat="48.79476419999999" lon="-3.4135021">
    <name>7 route de Perros</name>
    <cmt>Amenity::entertainment:public_bookcase</cmt>
    <desc>Parking de la poste de Louannec</desc>
    <type>Boite à livre</type>
  </wpt>
  <wpt lat="47.87259699999998" lon="-3.9086712999999995">
    <name>quai des seychelles</name>
    <cmt>Amenity::entertainment:public_bookcase</cmt>
    <desc>Auprès de la passerelle pour prendre le bateau passeur, dans l&apos;angle du quai face à la ville close</desc>
    <type>Boite à livre</type>
  </wpt>
  <wpt lat="48.089435999999985" lon="-4.314708">
    <name>parc des plomarc&apos;h</name>
    <cmt>Amenity::entertainment:public_bookcase</cmt>
    <desc>se trouve dans le jardin des simples,  village musée site de Plomarc h</desc>
    <type>Boite à livre</type>
  </wpt>
  <wpt lat="48.363024299999985" lon="-1.9528768000000003">
    <name>LE BOURG</name>
    <cmt>Amenity::entertainment:public_bookcase</cmt>
    <desc>Très chouette boite à lire au centre bourg du QUIOU.Les livres sont dans une ancienne cabine téléphonique rouge. Elle est sur le bord de la route, vous ne pouvez pas la manquer.</desc>
    <type>Boite à livre</type>
  </wpt>
  <wpt lat="48.12110299999999" lon="-1.7108309">
    <name>bibliotheque de villejean</name>
    <cmt>Amenity::entertainment:public_bookcase</cmt>
    <desc>elle se situe à l entée de la bibliothèque dans une boite en carton</desc>
    <type>Boite à livre</type>
  </wpt>
  <wpt lat="48.11363769999999" lon="-1.6663915">
    <name>11 square Lucien Rose</name>
    <cmt>Amenity::entertainment:public_bookcase</cmt>
    <desc>La boîte à lire se trouve à l intérieur de la bibliothèque Thabor-Lucien Rose. Il y a aussi des magazines et des semences à partager.</desc>
    <type>Boite à livre</type>
  </wpt>
  <wpt lat="48.12776584605306" lon="-1.6361904144287107">
    <name>BIBLIOTHEQUE DES LONGS CHAMPS - 60 rue doyen albert bouzat</name>
    <cmt>Amenity::entertainment:public_bookcase</cmt>
    <desc>Situer dans le hall d&apos;entrée sur votre gauche</desc>
    <type>Boite à livre</type>
  </wpt>
  <wpt lat="48.12022829999998" lon="-1.6995909999999999">
    <name>Rue pierre jean gineste</name>
    <cmt>Amenity::entertainment:public_bookcase</cmt>
    <desc>La boite se situe à l&apos;accueil de l&apos;Etablissement français du sang Villejean.</desc>
    <type>Boite à livre</type>
  </wpt>
  <wpt lat="48.513656000000005" lon="-2.7563701">
    <name>Parc des promenades</name>
    <cmt>Amenity::entertainment:public_bookcase</cmt>
    <type>Boite à livre</type>
  </wpt>
  <wpt lat="48.08704429999999" lon="-3.2872899">
    <name>place de la république</name>
    <cmt>Amenity::entertainment:public_bookcase</cmt>
    <type>Boite à livre</type>
  </wpt>
  <wpt lat="48.10330499999999" lon="-3.4912994000000004">
    <name>Place Morvan</name>
    <cmt>Amenity::entertainment:public_bookcase</cmt>
    <desc>Boite à livre normale située sur la place</desc>
    <type>Boite à livre</type>
  </wpt>
  <wpt lat="47.81017299999999" lon="-2.3833390000000003">
    <name>Bord du halage</name>
    <cmt>Amenity::entertainment:public_bookcase</cmt>
    <desc>une boîte qui comporte beaucoup d anciens livres  la littérature Anglaise est aussi présente et quelques livres plus récents très intéressant</desc>
    <type>Boite à livre</type>
  </wpt>
  <wpt lat="48.65182049999998" lon="-2.837661">
    <name>Parc de la Duchesse Anne</name>
    <cmt>Amenity::entertainment:public_bookcase</cmt>
    <desc>Une fresque et un décor sublime pour y déposer des livres !</desc>
    <type>Boite à livre</type>
  </wpt>
  <wpt lat="48.212153999999984" lon="-1.6314979000000003">
    <name>Allée des Châtaigniers</name>
    <cmt>Amenity::entertainment:public_bookcase</cmt>
    <desc>Vélo avec coffre transformé en boites à livres. Près de la mairie, face à l école primaire, plein centre ville.</desc>
    <type>Boite à livre</type>
  </wpt>
  <wpt lat="48.43601429999999" lon="-2.0564466">
    <name>1 Rue du 19 Mars 1962</name>
    <cmt>Amenity::entertainment:public_bookcase</cmt>
    <desc>Située dans le square derrière la mairie.</desc>
    <type>Boite à livre</type>
  </wpt>
  <wpt lat="48.57920500000001" lon="-3.8247140000000006">
    <name>Venelle du Créou</name>
    <cmt>Amenity::entertainment:public_bookcase</cmt>
    <desc>Le Troc lavoir est un espace dédié à la lecture et au partage de livres au sein de l&apos;ancien lavoir du Créou. Un beau projet de voisinage !</desc>
    <type>Boite à livre</type>
  </wpt>
  <wpt lat="48.45431449999998" lon="-2.0483053">
    <name>Place Duclos Pinot</name>
    <cmt>Amenity::entertainment:public_bookcase</cmt>
    <desc>Boite à lire qui tourne beaucoup contre le mur de la mairie</desc>
    <type>Boite à livre</type>
  </wpt>
  <wpt lat="48.46967619999999" lon="-2.5155686000000004">
    <name>15, rue du Dr Calmette</name>
    <cmt>Amenity::entertainment:public_bookcase</cmt>
    <desc>En forme de machine à laver</desc>
    <type>Boite à livre</type>
  </wpt>
  <wpt lat="48.47016349999997" lon="-2.5154051000000006">
    <name>Rue Calmette</name>
    <cmt>Amenity::entertainment:public_bookcase</cmt>
    <type>Boite à livre</type>
  </wpt>
  <wpt lat="48.09003669999997" lon="-1.6173313">
    <name>22 rue de picardie</name>
    <cmt>Amenity::entertainment:public_bookcase</cmt>
    <desc>la boite est sur le trottoir</desc>
    <type>Boite à livre</type>
  </wpt>
  <wpt lat="48.7677178" lon="-3.0219297">
    <name>1 chemin de l abbaye</name>
    <cmt>Amenity::entertainment:public_bookcase</cmt>
    <type>Boite à livre</type>
  </wpt>
  <wpt lat="48.0919065" lon="-1.6397724">
    <name>place du ronceray</name>
    <cmt>Amenity::entertainment:public_bookcase</cmt>
    <desc>Devant le carrefour Market.</desc>
    <type>Boite à livre</type>
  </wpt>
  <wpt lat="48.1530167" lon="-1.8735845000000004">
    <name>Étang</name>
    <cmt>Amenity::entertainment:public_bookcase</cmt>
    <desc>Autour de l étang et une deuxième près de la mairie.</desc>
    <type>Boite à livre</type>
  </wpt>
  <wpt lat="48.11408499999999" lon="-4.12137">
    <name>hent park marichal kemeneven</name>
    <cmt>Amenity::entertainment:public_bookcase</cmt>
    <type>Boite à livre</type>
  </wpt>
  <wpt lat="48.3439163" lon="-1.2011953999999998">
    <name>Square de la Madeleine</name>
    <cmt>Amenity::entertainment:public_bookcase</cmt>
    <desc>Le square est situé face à l&apos;école de La Madeleine</desc>
    <type>Boite à livre</type>
  </wpt>
  <wpt lat="48.40320729999999" lon="-2.3201373">
    <name>Station sport nautique de jugon les lacs</name>
    <cmt>Amenity::entertainment:public_bookcase</cmt>
    <desc>En face la station en arrivant a droite côté lac</desc>
    <type>Boite à livre</type>
  </wpt>
  <wpt lat="48.29254830000001" lon="-4.4598486">
    <name>Cale</name>
    <cmt>Amenity::entertainment:public_bookcase</cmt>
    <desc>Mise en place le 1er octobre 2016</desc>
    <type>Boite à livre</type>
  </wpt>
  <wpt lat="48.67326659999999" lon="-3.922743100000001">
    <name>Rue du Port</name>
    <cmt>Amenity::entertainment:public_bookcase</cmt>
    <desc>Située dans un arrêt de bus</desc>
    <type>Boite à livre</type>
  </wpt>
  <wpt lat="48.78861459999999" lon="-3.2273245">
    <name>Rue Ernest Renan</name>
    <cmt>Amenity::entertainment:public_bookcase</cmt>
    <desc>Face au numéro 43</desc>
    <type>Boite à livre</type>
  </wpt>
  <wpt lat="48.40315059999998" lon="-1.3296649999999999">
    <name>2 rue Amand Dagnet</name>
    <cmt>Amenity::entertainment:public_bookcase</cmt>
    <desc>Boite à livre à l entrée du local d&apos;une Boutique sans Argent. Elle est abrité sous un abri vitré ouvert en permanence.Informations :  Association Recycl&apos;Roch - https://www.facebook.com/RecyclRoch/</desc>
    <type>Boite à livre</type>
  </wpt>
  <wpt lat="47.8128211" lon="-2.382426">
    <name>Chemin de l écluse</name>
    <cmt>Amenity::entertainment:public_bookcase</cmt>
    <desc>Boite à lire créée à l&apos;initiative de la médiathèque de Malestroit située près de l&apos;écluse au bord du canal de Nantes à Brest.</desc>
    <type>Boite à livre</type>
  </wpt>
  <wpt lat="48.5095977" lon="-4.0700757">
    <name>Rue bideford</name>
    <cmt>Amenity::entertainment:public_bookcase</cmt>
    <desc>Ancienne cabine téléphonique située devant carrefour city.</desc>
    <type>Boite à livre</type>
  </wpt>
  <wpt lat="48.043253499999985" lon="-1.6957280999999997">
    <name>MAIRIE</name>
    <cmt>Amenity::entertainment:public_bookcase</cmt>
    <desc>ELLE EST SITUEE A GAUCHE DE LA MAIRIE</desc>
    <type>Boite à livre</type>
  </wpt>
  <wpt lat="47.76171990000001" lon="-3.3722047999999996">
    <name>6 rue du commandant charcot</name>
    <cmt>Amenity::entertainment:public_bookcase</cmt>
    <type>Boite à livre</type>
  </wpt>
  <wpt lat="48.603847399999985" lon="-3.8996099999999996">
    <name>Place de la Mairie</name>
    <cmt>Amenity::entertainment:public_bookcase</cmt>
    <desc>La cabine à lire a été construite par Thibault, le responsable des services techniques de la commune, et décorée par les enfants du centre de loisirs, aidés par Jean-Phy, dessinateur.</desc>
    <type>Boite à livre</type>
  </wpt>
  <wpt lat="47.6517775" lon="-2.0834049">
    <name>Place de Bretagne</name>
    <cmt>Amenity::entertainment:public_bookcase</cmt>
    <desc>Mise en place par la Mairie</desc>
    <type>Boite à livre</type>
  </wpt>
  <wpt lat="48.601734000000015" lon="-2.189176">
    <name>place Charles Bettaux</name>
    <cmt>Amenity::entertainment:public_bookcase</cmt>
    <type>Boite à livre</type>
  </wpt>
  <wpt lat="48.044545899999996" lon="-1.463669">
    <name>Étang de Saint aubin du pavail</name>
    <cmt>Amenity::entertainment:public_bookcase</cmt>
    <desc>Gérée par l association  le livre en balade</desc>
    <type>Boite à livre</type>
  </wpt>
  <wpt lat="48.31193360000001" lon="-3.0495228">
    <name>route de pontivy</name>
    <cmt>Amenity::entertainment:public_bookcase</cmt>
    <desc>La boite à lire se situe dans la maison du developpement de Corlay. Juste devant l entrée de la bibliothèque</desc>
    <type>Boite à livre</type>
  </wpt>
  <wpt lat="48.59810479999999" lon="-1.9772681999999997">
    <name>Rue des grèves</name>
    <cmt>Amenity::entertainment:public_bookcase</cmt>
    <desc>Face à la Rance.Parking de la plage du Vallion.</desc>
    <type>Boite à livre</type>
  </wpt>
  <wpt lat="48.314908999999986" lon="-1.7179639">
    <name>la plouziere</name>
    <cmt>Amenity::entertainment:public_bookcase</cmt>
    <desc>dans une cabine téléphonique recyclée ,au bord du canal d ILLe et Rance ,avec banc à proximité ...</desc>
    <type>Boite à livre</type>
  </wpt>
  <wpt lat="48.380587999999996" lon="-4.6001726">
    <name>Ecole primaire de Kroas-Saliou, Castel-Nevez</name>
    <cmt>Amenity::entertainment:public_bookcase</cmt>
    <desc>Projet propre à école</desc>
    <type>Boite à livre</type>
  </wpt>
  <wpt lat="47.71174109999999" lon="-3.3097140000000005">
    <name>place de la mairie</name>
    <cmt>Amenity::entertainment:public_bookcase</cmt>
    <desc>En service depuis le mois de mai 2017</desc>
    <type>Boite à livre</type>
  </wpt>
  <wpt lat="48.010312200000016" lon="-4.0956056">
    <name>Rond-Point de la Croix des Gardiens</name>
    <cmt>Amenity::entertainment:public_bookcase</cmt>
    <desc>Contre le mur du grand parking éclairé du rond point croix des gardiens. Une boîte jaune et bleu.</desc>
    <type>Boite à livre</type>
  </wpt>
  <wpt lat="48.66196899999999" lon="-2.347738">
    <name>cours de l école</name>
    <cmt>Amenity::entertainment:public_bookcase</cmt>
    <type>Boite à livre</type>
  </wpt>
  <wpt lat="47.83945159999999" lon="-4.1691986">
    <name>Parc de la Pointe</name>
    <cmt>Amenity::entertainment:public_bookcase</cmt>
    <desc>Vers l entrée de la Maison de la Pointe</desc>
    <type>Boite à livre</type>
  </wpt>
  <wpt lat="47.64889739999999" lon="-2.7575544">
    <name>Quai Bernard Moitessier</name>
    <cmt>Amenity::entertainment:public_bookcase</cmt>
    <type>Boite à livre</type>
  </wpt>
  <wpt lat="48.632658499999984" lon="-2.0579205">
    <name>Place Rochaïd</name>
    <cmt>Amenity::entertainment:public_bookcase</cmt>
    <desc>Sur la place du marché, juste à coté du manège.</desc>
    <type>Boite à livre</type>
  </wpt>
  <wpt lat="48.0940483" lon="-1.7738355">
    <name>74, route nationale</name>
    <cmt>Amenity::entertainment:public_bookcase</cmt>
    <desc>C est une cabine téléphonique à coté d &apos;un arret de bus</desc>
    <type>Boite à livre</type>
  </wpt>
  <wpt lat="48.68740699999999" lon="-4.167347">
    <name>Lieu-dit Poulfoën</name>
    <cmt>Amenity::entertainment:public_bookcase</cmt>
    <desc>A l&apos;entrée du camping de Poulfoën</desc>
    <type>Boite à livre</type>
  </wpt>
  <wpt lat="47.741863299999984" lon="-3.3554934">
    <name>Rue Gilles Gahinet</name>
    <cmt>Amenity::entertainment:public_bookcase</cmt>
    <desc>Boîte à livres située dans la gare maritime.</desc>
    <type>Boite à livre</type>
  </wpt>
  <wpt lat="48.46528479999999" lon="-2.087499">
    <name>SALLE DES FETES</name>
    <cmt>Amenity::entertainment:public_bookcase</cmt>
    <type>Boite à livre</type>
  </wpt>
  <wpt lat="47.9732851" lon="-4.0938116">
    <name>18 Avenue de la Plage des Gueux</name>
    <cmt>Amenity::entertainment:public_bookcase</cmt>
    <desc>A l intérieur de la fac, en face des amphithéâtres</desc>
    <type>Boite à livre</type>
  </wpt>
  <wpt lat="47.8562238" lon="-3.7464096999999996">
    <name>Promenade Xavier Grall</name>
    <cmt>Amenity::entertainment:public_bookcase</cmt>
    <type>Boite à livre</type>
  </wpt>
  <wpt lat="48.59948069999999" lon="-3.9342043000000007">
    <name>Rue du dossen</name>
    <cmt>Amenity::entertainment:public_bookcase</cmt>
    <desc>La boite à livre se situe près du cour de tennis</desc>
    <type>Boite à livre</type>
  </wpt>
  <wpt lat="48.67036799999999" lon="-2.961967">
    <name>Lieu dit Saint Laurent</name>
    <cmt>Amenity::entertainment:public_bookcase</cmt>
    <desc>La boîte se trouve près de la Chapelle Saint Laurent</desc>
    <type>Boite à livre</type>
  </wpt>
  <wpt lat="47.88631239999998" lon="-4.159527">
    <name>7-9 rue Poul Ar Venelle Dero</name>
    <cmt>Amenity::entertainment:public_bookcase</cmt>
    <desc>Devant l entrée de l&apos;école maternelle publique.</desc>
    <type>Boite à livre</type>
  </wpt>
  <wpt lat="47.98675809999999" lon="-4.1138203">
    <name>23 rue du Commandant Avril</name>
    <cmt>Amenity::entertainment:public_bookcase</cmt>
    <desc>Boîte située un peu plus loin que le jardin du Prieuré de Locmaria et non loin du Musée de la faïence. Un peu cachée par les feuillages.</desc>
    <type>Boite à livre</type>
  </wpt>
  <wpt lat="48.1173421" lon="-1.7075197999999998">
    <name>Place Clara Zetkin</name>
    <cmt>Amenity::entertainment:public_bookcase</cmt>
    <desc>Le frigo à livres se situe juste à côté de l entrée des Ateliers du Vent.</desc>
    <type>Boite à livre</type>
  </wpt>
  <wpt lat="48.11143140000001" lon="-1.6712278">
    <name>Rue de Viarmes</name>
    <cmt>Amenity::entertainment:public_bookcase</cmt>
    <type>Boite à livre</type>
  </wpt>
  <wpt lat="48.617963599999996" lon="-1.8486086999999998">
    <name>Route de la baie</name>
    <cmt>Amenity::entertainment:public_bookcase</cmt>
    <desc>Bord de mer, près de la bibliothèque</desc>
    <type>Boite à livre</type>
  </wpt>
  <wpt lat="48.06444129999998" lon="-2.9676427">
    <name>Place de la mairie</name>
    <cmt>Amenity::entertainment:public_bookcase</cmt>
    <desc>Sous les parapluies</desc>
    <type>Boite à livre</type>
  </wpt>
  <wpt lat="48.4139657" lon="-3.9562808">
    <name>Place du champ de foire</name>
    <cmt>Amenity::entertainment:public_bookcase</cmt>
    <desc>Toute neuve, elle vous attend adossée aux toilettes publiques.</desc>
    <type>Boite à livre</type>
  </wpt>
  <wpt lat="47.9967892" lon="-4.1072579">
    <name>7, rue de la Providence</name>
    <cmt>Amenity::entertainment:public_bookcase</cmt>
    <desc>A l entrée de la crêperie Book&apos;n&apos;Billig</desc>
    <type>Boite à livre</type>
  </wpt>
  <wpt lat="47.5886692080947" lon="-2.894296646118165">
    <name>26 route de Vannes</name>
    <cmt>Amenity::entertainment:public_bookcase</cmt>
    <desc>Boîte située sur un muret peu après l arrêt de bus  Presbytère à côté d&apos;un banc.</desc>
    <type>Boite à livre</type>
  </wpt>
  <wpt lat="47.9851275" lon="-1.9331391000000002">
    <name>Place de l Eglise</name>
    <cmt>Amenity::entertainment:public_bookcase</cmt>
    <desc>Ancienne cabine téléphonique transformée en 2ème boîte à livres à Guignen !Dispositif participatif : prenez un livre, lisez-le, gardez-le et apportez-en de nouveaux !</desc>
    <type>Boite à livre</type>
  </wpt>
  <wpt lat="48.23388280000001" lon="-2.3745932000000005">
    <name>Le bourg</name>
    <cmt>Amenity::entertainment:public_bookcase</cmt>
    <type>Boite à livre</type>
  </wpt>
  <wpt lat="48.1034257" lon="-1.6724167">
    <name>Gare routiere</name>
    <cmt>Amenity::entertainment:public_bookcase</cmt>
    <desc>Bibliothèque de la gare routière</desc>
    <type>Boite à livre</type>
  </wpt>
  <wpt lat="47.5974962" lon="-3.1124211">
    <name>ruelle saint jean</name>
    <cmt>Amenity::entertainment:public_bookcase</cmt>
    <desc>à l&apos;entree du parc a jeux enfants , sur la route de l&apos;école Notre dame des fleurs</desc>
    <type>Boite à livre</type>
  </wpt>
  <wpt lat="48.4372974" lon="-2.0162992">
    <name>14 rue saint-james</name>
    <cmt>Amenity::entertainment:public_bookcase</cmt>
    <type>Boite à livre</type>
  </wpt>
  <wpt lat="47.61503299999998" lon="-2.987858">
    <name>parc des chênes</name>
    <cmt>Amenity::entertainment:public_bookcase</cmt>
    <desc>située au centre du parc, cette boite à lire est installée près de jeux pour enfants, permettant aux adultes comme aux enfants d y accéder facilement.</desc>
    <type>Boite à livre</type>
  </wpt>
  <wpt lat="48.35465119999998" lon="-1.2084283999999998">
    <name>Place Pierre Symon</name>
    <cmt>Amenity::entertainment:public_bookcase</cmt>
    <type>Boite à livre</type>
  </wpt>
  <wpt lat="47.75002049999999" lon="-3.3676107000000006">
    <name>Rue du tour des portes</name>
    <cmt>Amenity::entertainment:public_bookcase</cmt>
    <type>Boite à livre</type>
  </wpt>
  <wpt lat="48.57405459999999" lon="-4.3264155">
    <name>Rue st yves</name>
    <cmt>Amenity::entertainment:public_bookcase</cmt>
    <desc>La boîte à livres se trouve derrière le city stade, sur le parking de l ancienne caserne de pompiers</desc>
    <type>Boite à livre</type>
  </wpt>
  <wpt lat="47.80186499999999" lon="-3.720695">
    <name>plage de Kerfany</name>
    <cmt>Amenity::entertainment:public_bookcase</cmt>
    <type>Boite à livre</type>
  </wpt>
  <wpt lat="47.58546900000001" lon="-3.0287289">
    <name>place de l eglise</name>
    <cmt>Amenity::entertainment:public_bookcase</cmt>
    <desc>Près du calvaire. La soeur jumelle de celle du quai.</desc>
    <type>Boite à livre</type>
  </wpt>
  <wpt lat="48.33003329999998" lon="-1.8358985999999997">
    <name>Médiathèque</name>
    <cmt>Amenity::entertainment:public_bookcase</cmt>
    <desc>Derrière la médiathèque</desc>
    <type>Boite à livre</type>
  </wpt>
  <wpt lat="47.696359699999995" lon="-2.897997">
    <name>place du champ de foire</name>
    <cmt>Amenity::entertainment:public_bookcase</cmt>
    <desc>BAR A LIVRES installé dans un tonneau sur la place du champ de foire à Mériadec en Pluneret. Animé par le collectif Le champ commun</desc>
    <type>Boite à livre</type>
  </wpt>
  <wpt lat="48.618602699999975" lon="-1.8497873999999999">
    <name>Bord de mer, pres de la bibliotheque</name>
    <cmt>Amenity::entertainment:public_bookcase</cmt>
    <type>Boite à livre</type>
  </wpt>