<?xml version='1.0' encoding='UTF-8'?>
<gpx version="1.1" creator="JOSM GPX export" xmlns="http://www.topografix.com/GPX/1/1"
    xmlns:xsi="http://www.w3.org/2001/XMLSchema-instance"
    xsi:schemaLocation="http://www.topografix.com/GPX/1/1 http://www.topografix.com/GPX/1/1/gpx.xsd">
  <metadata>
    <author>
      <name>Binnette</name>
    </author>
    <copyright author="Binnette">
      <year>2020</year>
      <license>MIT</license>
    </copyright>
    <bounds minlat="42.9970519" minlon="-1.7804162" maxlat="47.1247487" maxlon="2.4996999"/>
  </metadata>
  <wpt lat="46.59396209999998" lon="0.3344168">
    <name>15 rue du faubourg de la cueuille mirebalaise</name>
    <cmt>Amenity::entertainment:public_bookcase</cmt>
    <desc>La boite à lire se trouve à l&apos;intérieur de la pharmacie.</desc>
    <type>Boite à livre</type>
  </wpt>
  <wpt lat="45.271587299999986" lon="0.038181799999999995">
    <name>34 rue de Barbezieux</name>
    <cmt>Amenity::entertainment:public_bookcase</cmt>
    <desc>Ancienne cabine téléphonique reconvertie, située non loin de la médiathèque</desc>
    <type>Boite à livre</type>
  </wpt>
  <wpt lat="44.80978019999999" lon="-0.5698792">
    <name>Eglise de Bègles</name>
    <cmt>Amenity::entertainment:public_bookcase</cmt>
    <type>Boite à livre</type>
  </wpt>
  <wpt lat="44.80862519999999" lon="-0.5900858">
    <name>Parc du Château Peixotto</name>
    <cmt>Amenity::entertainment:public_bookcase</cmt>
    <desc>La boite à lire se trouve dans le parc Parc du Château Peixotto prés du plan d&apos;eau du coté de la sortie rue Pierre Curie. Il y en a une autre dans le parc ....</desc>
    <type>Boite à livre</type>
  </wpt>
  <wpt lat="45.1717542" lon="-0.6268572999999998">
    <name>À côté de la mairie</name>
    <cmt>Amenity::entertainment:public_bookcase</cmt>
    <desc>Très belle armoire ancienne recyclée qui sert de boîte à livres. Protégée des intempéries par le hall de la mairie.</desc>
    <type>Boite à livre</type>
  </wpt>
  <wpt lat="43.32735869999999" lon="-1.0324699">
    <name>Place du Général de Gaulle</name>
    <cmt>Amenity::entertainment:public_bookcase</cmt>
    <type>Boite à livre</type>
  </wpt>
  <wpt lat="44.80820859999997" lon="-0.5793603">
    <name>Rue robespierre</name>
    <cmt>Amenity::entertainment:public_bookcase</cmt>
    <desc>La boite se trouve pas loin de l&apos;entrée du parc.</desc>
    <type>Boite à livre</type>
  </wpt>
  <wpt lat="43.709440599999986" lon="-1.4368246">
    <name>Plage du Penon</name>
    <cmt>Amenity::entertainment:public_bookcase</cmt>
    <desc>Cette boite est à l&apos;entrée de la plage du Penon</desc>
    <type>Boite à livre</type>
  </wpt>
  <wpt lat="46.231208" lon="1.119351">
    <name>Rue De La Mairie</name>
    <cmt>Amenity::entertainment:public_bookcase</cmt>
    <desc>Situé sur l ancienne cantine scolaire, Rue De La Mairie davidphilli@gmail.com</desc>
    <type>Boite à livre</type>
  </wpt>
  <wpt lat="44.87079099999999" lon="-0.6017920999999999">
    <name>Piscine les Écus</name>
    <cmt>Amenity::entertainment:public_bookcase</cmt>
    <desc>Sur le parking de la piscine des Écus</desc>
    <type>Boite à livre</type>
  </wpt>
  <wpt lat="44.823890899999995" lon="-0.5515627">
    <name>Place Ferdinand Buisson</name>
    <cmt>Amenity::entertainment:public_bookcase</cmt>
    <type>Boite à livre</type>
  </wpt>
  <wpt lat="44.17017039999999" lon="0.6965374999999999">
    <name>A côté de la boulangerie : Le bonheur est dans le pain</name>
    <cmt>Amenity::entertainment:public_bookcase</cmt>
    <desc>Quelques livres de Barbara Cartland !</desc>
    <type>Boite à livre</type>
  </wpt>
  <wpt lat="44.9260455" lon="-0.43663100000000005">
    <name>place de Cavernes</name>
    <cmt>Amenity::entertainment:public_bookcase</cmt>
    <desc>bien protégée,moyenne</desc>
    <type>Boite à livre</type>
  </wpt>
  <wpt lat="45.74096879999999" lon="0.9833049000000001">
    <name>1 Rue Jules Ferry</name>
    <cmt>Amenity::entertainment:public_bookcase</cmt>
    <desc>Sous le porche de la salle du conseil, à la mairie</desc>
    <type>Boite à livre</type>
  </wpt>
  <wpt lat="44.820012000000006" lon="-0.5852731">
    <name>18 Rue Jean Iriquin</name>
    <cmt>Amenity::entertainment:public_bookcase</cmt>
    <desc>Dans le square Fehlmann.</desc>
    <type>Boite à livre</type>
  </wpt>
  <wpt lat="43.37035136027906" lon="-1.7802786827087402">
    <name>Rond-point de la Floride</name>
    <cmt>Amenity::entertainment:public_bookcase</cmt>
    <type>Boite à livre</type>
  </wpt>
  <wpt lat="44.393918199999995" lon="0.3087886">
    <name>Cours de Verdun</name>
    <cmt>Amenity::entertainment:public_bookcase</cmt>
    <desc>A l&apos;intérieur de la boulangerie Maison Fronteau  cours de Verdun  quartier du Petit Paris.</desc>
    <type>Boite à livre</type>
  </wpt>
  <wpt lat="45.1027323" lon="-0.6439238">
    <name>La poste</name>
    <cmt>Amenity::entertainment:public_bookcase</cmt>
    <desc>a coté boite à lettre postale</desc>
    <type>Boite à livre</type>
  </wpt>
  <wpt lat="44.876095799999995" lon="-0.6074057">
    <name>Allée de Brion</name>
    <cmt>Amenity::entertainment:public_bookcase</cmt>
    <desc>Devant l école de La Marianne</desc>
    <type>Boite à livre</type>
  </wpt>
  <wpt lat="44.32735499999998" lon="-1.1469419">
    <name>Avenue du lac</name>
    <cmt>Amenity::entertainment:public_bookcase</cmt>
    <desc>Elle est entre la laverie et le vival</desc>
    <type>Boite à livre</type>
  </wpt>
  <wpt lat="44.691837" lon="-0.8541500000000002">
    <name>Place de l Eglise</name>
    <cmt>Amenity::entertainment:public_bookcase</cmt>
    <type>Boite à livre</type>
  </wpt>
  <wpt lat="45.08946999999997" lon="0.8586690000000001">
    <name>Les Versannes</name>
    <cmt>Amenity::entertainment:public_bookcase</cmt>
    <desc>Associée à une boîte à dons</desc>
    <type>Boite à livre</type>
  </wpt>
  <wpt lat="44.88361989999999" lon="1.2224921">
    <name>Rue Paul Cézanne</name>
    <cmt>Amenity::entertainment:public_bookcase</cmt>
    <type>Boite à livre</type>
  </wpt>
  <wpt lat="46.413781" lon="-0.203301">
    <name>rue Denfert Rochereau</name>
    <cmt>Amenity::entertainment:public_bookcase</cmt>
    <desc>A l initiative d&apos;une association locale et des élus de la ville, une nouvelle boîte à lire à vue le jour dans l&apos;ancienne cabine téléphonique près du parking de la mairie</desc>
    <type>Boite à livre</type>
  </wpt>
  <wpt lat="44.8031711" lon="-0.5784626">
    <name>3 Rue Georges Pompidou</name>
    <cmt>Amenity::entertainment:public_bookcase</cmt>
    <desc>Boite à lire au milieu du Parc Bel Air.</desc>
    <type>Boite à livre</type>
  </wpt>
  <wpt lat="43.57991299999999" lon="-0.188446">
    <name>12 Rue de la Résistance</name>
    <cmt>Amenity::entertainment:public_bookcase</cmt>
    <desc>Boîte à lire à proximité de l Agence Postale Communale de PORTET, ouverte du lundi au samedi de 9h à 12h ou chacun peut emprunter des livres gratuitement, privilégiant ainsi l&apos;accès à la culture. C&apos;est aussi un projet solidaire qui favorise le lien social, encourage une économie du partage et du don et développe une démarche éco-citoyenne.En déposant ou en empruntant un livre dans une boîte à lire, vous lui donner une seconde vie, tout en respectant l&apos;environnement.</desc>
    <type>Boite à livre</type>
  </wpt>
  <wpt lat="45.1470109" lon="0.0058302">
    <name>Avenue d Aquitaine</name>
    <cmt>Amenity::entertainment:public_bookcase</cmt>
    <desc>http://bibliotheque.larochechalais.over-blog.fr/2017/03/boite-a-livres.html</desc>
    <type>Boite à livre</type>
  </wpt>
  <wpt lat="45.908086" lon="1.260284">
    <name>place de l&apos;Abbé Rousseau</name>
    <cmt>Amenity::entertainment:public_bookcase</cmt>
    <desc>Dans une cabine téléphonique</desc>
    <type>Boite à livre</type>
  </wpt>
  <wpt lat="44.79862299999998" lon="-0.5911160000000001">
    <name>Place Wilson</name>
    <cmt>Amenity::entertainment:public_bookcase</cmt>
    <desc>La boite à lire se trouve sur la place.....</desc>
    <type>Boite à livre</type>
  </wpt>
  <wpt lat="45.03428489999998" lon="-0.757465">
    <name>3, place St Pierre</name>
    <cmt>Amenity::entertainment:public_bookcase</cmt>
    <desc>boite moyenne et surtout très pleine, elle se situe sur la parvis de l église</desc>
    <type>Boite à livre</type>
  </wpt>
  <wpt lat="44.761689155126085" lon="-1.142567396163941">
    <name>Avenue Le Goeland</name>
    <cmt>Amenity::entertainment:public_bookcase</cmt>
    <desc>Près de l Ovniport et du point d&apos;informations.</desc>
    <type>Boite à livre</type>
  </wpt>
  <wpt lat="44.97431160000001" lon="1.3220724">
    <name>Place du 19 Mars 1962</name>
    <cmt>Amenity::entertainment:public_bookcase</cmt>
    <desc>Installée devant l&apos;office du tourisme</desc>
    <type>Boite à livre</type>
  </wpt>
  <wpt lat="44.84813349999998" lon="-0.4419462">
    <name>chemin de brondeau</name>
    <cmt>Amenity::entertainment:public_bookcase</cmt>
    <type>Boite à livre</type>
  </wpt>
  <wpt lat="44.82404460000001" lon="-0.5779557">
    <name>1, rue l&apos;hérisson</name>
    <cmt>Amenity::entertainment:public_bookcase</cmt>
    <desc>Nouvelle boite à lire à Bordeaux au centre d animation Argonne Nansouty.</desc>
    <type>Boite à livre</type>
  </wpt>
  <wpt lat="46.26203110000001" lon="-0.0135428">
    <name>impasse des écoles</name>
    <cmt>Amenity::entertainment:public_bookcase</cmt>
    <desc>sous le préau de la cour de l école</desc>
    <type>Boite à livre</type>
  </wpt>
  <wpt lat="44.92936939999999" lon="-0.4952477">
    <name>RUE RENE COTY</name>
    <cmt>Amenity::entertainment:public_bookcase</cmt>
    <desc>devant la mairie, jolie boite à livre dans une ancienne cabine téléphonique anglaise rouge</desc>
    <type>Boite à livre</type>
  </wpt>
  <wpt lat="44.50206549999999" lon="0.1646962">
    <name>81 rue du Docteur Courret</name>
    <cmt>Amenity::entertainment:public_bookcase</cmt>
    <desc>Devant l&apos;hôpital</desc>
    <type>Boite à livre</type>
  </wpt>
  <wpt lat="45.525105700000005" lon="-0.29812900000000003">
    <name>7 ROUTE DE COGNAC</name>
    <cmt>Amenity::entertainment:public_bookcase</cmt>
    <desc>Actuellement située à l&apos;intérieur du multi service, nous cherchons un aménagement pour la placer à l&apos;extérieur cet été.</desc>
    <type>Boite à livre</type>
  </wpt>
  <wpt lat="44.8865666" lon="1.2167814">
    <name>avenue du Général Leclerc</name>
    <cmt>Amenity::entertainment:public_bookcase</cmt>
    <desc>côté Place de la Grande Rigaudie, à côté de la boite à lettres postale</desc>
    <type>Boite à livre</type>
  </wpt>
  <wpt lat="46.95051000000001" lon="-0.7907059000000001">
    <name>D156</name>
    <cmt>Amenity::entertainment:public_bookcase</cmt>
    <desc>1 km après Moulins direction Mauléon sur la D156. La boite se trouve sur un petit parcours de randonnée aménagé dans une zone humide,  ! pittoresque</desc>
    <type>Boite à livre</type>
  </wpt>
  <wpt lat="44.894354799999995" lon="-0.7186083">
    <name>rue Jean Jaurès</name>
    <cmt>Amenity::entertainment:public_bookcase</cmt>
    <desc>la boite se situe à l entrée du parc de l&apos;ingénieur par la rue Jean Jaurès</desc>
    <type>Boite à livre</type>
  </wpt>
  <wpt lat="45.83969459999999" lon="1.3104769000000003">
    <name>Place de la République</name>
    <cmt>Amenity::entertainment:public_bookcase</cmt>
    <desc>Devant l école maternelle Pauline Kergomard</desc>
    <type>Boite à livre</type>
  </wpt>
  <wpt lat="44.47986199999999" lon="-0.3642471">
    <name>Place de Gaulle</name>
    <cmt>Amenity::entertainment:public_bookcase</cmt>
    <desc>Cette boîte à lire vient d être crée par la bibliothèque municipale</desc>
    <type>Boite à livre</type>
  </wpt>
  <wpt lat="45.6490269" lon="0.161603">
    <name>Place du champ de mars</name>
    <cmt>Amenity::entertainment:public_bookcase</cmt>
    <desc>A l&apos;entrée de la place direction rue Hergé.</desc>
    <type>Boite à livre</type>
  </wpt>
  <wpt lat="46.65342179999999" lon="0.7032608000000001">
    <name>Lieu dit l Etoile</name>
    <cmt>Amenity::entertainment:public_bookcase</cmt>
    <desc>Boite a lire à thème tout prés du moulin d accueil d&apos;une abbaye cistercienneRomans historiques, policiers religieux, livres pour enfants, jardin et plantes</desc>
    <type>Boite à livre</type>
  </wpt>
  <wpt lat="46.167388299999985" lon="-1.0240574">
    <name>Place de l&apos;église</name>
    <cmt>Amenity::entertainment:public_bookcase</cmt>
    <desc>Au niveau du parking</desc>
    <type>Boite à livre</type>
  </wpt>
  <wpt lat="43.39846" lon="-1.6616359999999997">
    <name>Promenade des Rochers</name>
    <cmt>Amenity::entertainment:public_bookcase</cmt>
    <desc>Sur la promenade le long de la jetée, tout au bout, au pied de la colline de Sainte-Barbe, une autre grande boîte à livres municipale souvent pleine de livres à échanger !</desc>
    <type>Boite à livre</type>
  </wpt>
  <wpt lat="45.8109341" lon="1.3260038">
    <name>24 rue Frédéric Legrand</name>
    <cmt>Amenity::entertainment:public_bookcase</cmt>
    <desc>A l&apos;entrée du parc de la Mairie.</desc>
    <type>Boite à livre</type>
  </wpt>
  <wpt lat="45.5785406" lon="-0.547575">
    <name>Place de la république</name>
    <cmt>Amenity::entertainment:public_bookcase</cmt>
    <desc>La boite à lire se trouve à l est du donjon, à l&apos;entrée du parc</desc>
    <type>Boite à livre</type>
  </wpt>
  <wpt lat="44.824958900000006" lon="-0.5988514000000001">
    <name>rue de la Béchade</name>
    <cmt>Amenity::entertainment:public_bookcase</cmt>
    <desc>Jardin Béchade</desc>
    <type>Boite à livre</type>
  </wpt>
  <wpt lat="46.20372999999998" lon="-0.8168390000000001">
    <name>Magasin Proxi</name>
    <cmt>Amenity::entertainment:public_bookcase</cmt>
    <desc>Sous le hall d entrée de la supérette PROXI -</desc>
    <type>Boite à livre</type>
  </wpt>
  <wpt lat="43.71101299999998" lon="-1.052517">
    <name>Place de la Fontaine Chaude</name>
    <cmt>Amenity::entertainment:public_bookcase</cmt>
    <desc>Très facile d accès.</desc>
    <type>Boite à livre</type>
  </wpt>
  <wpt lat="43.895140799999986" lon="-0.5002142">
    <name>Parc Jean Rameau</name>
    <cmt>Amenity::entertainment:public_bookcase</cmt>
    <desc>Il y a deux boîtes à livres dans le parc Jean Rameau à Mont-de-Marsan.</desc>
    <type>Boite à livre</type>
  </wpt>
  <wpt lat="45.85293070000001" lon="1.2587737000000003">
    <name>Cité du Dr Jacquet</name>
    <cmt>Amenity::entertainment:public_bookcase</cmt>
    <desc>Proche de la pharmacie</desc>
    <type>Boite à livre</type>
  </wpt>
  <wpt lat="44.87396400000001" lon="0.03051">
    <name>Ecole communale</name>
    <cmt>Amenity::entertainment:public_bookcase</cmt>
    <desc>Petite maisonnette derrière l&apos;école communale le long de la route qui mène au site archéologique</desc>
    <type>Boite à livre</type>
  </wpt>
  <wpt lat="44.2097225" lon="-1.282957">
    <name>avenue du parc</name>
    <cmt>Amenity::entertainment:public_bookcase</cmt>
    <desc>A la promenade fleurie, magnifique balade pédestre dans un parc fabuleux</desc>
    <type>Boite à livre</type>
  </wpt>
  <wpt lat="46.69882299999999" lon="0.42862000000000006">
    <name>Place pierre d amboise</name>
    <cmt>Amenity::entertainment:public_bookcase</cmt>
    <desc>Ancienne cabine téléphonique</desc>
    <type>Boite à livre</type>
  </wpt>
  <wpt lat="46.32343599999999" lon="-0.459705">
    <name>Esplanade de la république</name>
    <cmt>Amenity::entertainment:public_bookcase</cmt>
    <desc>Boite à lettre de la Poste recyclée en boite à lire, accolée au kiosque info bus.</desc>
    <type>Boite à livre</type>
  </wpt>
  <wpt lat="46.57033229999998" lon="0.3473152">
    <name>21 rue jean richard bloch</name>
    <cmt>Amenity::entertainment:public_bookcase</cmt>
    <desc>dans la résidence marie curie, à l accueil</desc>
    <type>Boite à livre</type>
  </wpt>
  <wpt lat="44.77525700000001" lon="0.817115">
    <name>Place centrale</name>
    <cmt>Amenity::entertainment:public_bookcase</cmt>
    <desc>Entre l atelier de céramique et le restaurant gastronomique, à l&apos;ombre de l&apos;abbaye.</desc>
    <type>Boite à livre</type>
  </wpt>
  <wpt lat="44.594844499999994" lon="-0.9426102999999999">
    <name>Chemin Du Duc</name>
    <cmt>Amenity::entertainment:public_bookcase</cmt>
    <desc>La Boîte Est Située Sur Une Petite Place Entourée de Maisons ....</desc>
    <type>Boite à livre</type>
  </wpt>
  <wpt lat="45.95110879999999" lon="1.1331728">
    <name>rue du Champ de Foire</name>
    <cmt>Amenity::entertainment:public_bookcase</cmt>
    <desc>Devant Vival</desc>
    <type>Boite à livre</type>
  </wpt>
  <wpt lat="44.71006599999998" lon="-0.479515">
    <name>Route du pont de tôles</name>
    <cmt>Amenity::entertainment:public_bookcase</cmt>
    <desc>En face du terrain de boules</desc>
    <type>Boite à livre</type>
  </wpt>
  <wpt lat="46.8827046" lon="0.3196976">
    <name>14 rue des Erables</name>
    <cmt>Amenity::entertainment:public_bookcase</cmt>
    <desc>Boite à lire mise en place par partage vienne 86 et l improbable librairie de saint-genest d&apos;ambière avec le soutien de la communauté de communes du lencloitrais.</desc>
    <type>Boite à livre</type>
  </wpt>
  <wpt lat="44.844818" lon="-0.619157">
    <name>Avenue Raymond Poincaré</name>
    <cmt>Amenity::entertainment:public_bookcase</cmt>
    <desc>Square Raymond Poincaré</desc>
    <type>Boite à livre</type>
  </wpt>
  <wpt lat="46.1866253" lon="-1.1542418">
    <name>17 rue du fief nouveau</name>
    <cmt>Amenity::entertainment:public_bookcase</cmt>
    <type>Boite à livre</type>
  </wpt>
  <wpt lat="46.60085" lon="0.324051">
    <name>Biocoop de la demi lune</name>
    <cmt>Amenity::entertainment:public_bookcase</cmt>
    <desc>un début pour une boite à livres à la sortie du magasin</desc>
    <type>Boite à livre</type>
  </wpt>
  <wpt lat="46.158993699999996" lon="-1.2674297">
    <name>venue Gustave Perreau</name>
    <cmt>Amenity::entertainment:public_bookcase</cmt>
    <desc>Joli maison en bois de couleur verte, près du banc sur la place de la mairie</desc>
    <type>Boite à livre</type>
  </wpt>
  <wpt lat="45.8338995" lon="1.2209845">
    <name>parc du Mas Jambost</name>
    <cmt>Amenity::entertainment:public_bookcase</cmt>
    <desc>livres pour la jeunesse.à l initiative du conseil municipal des enfants.Près de l&apos;aire de jeux.</desc>
    <type>Boite à livre</type>
  </wpt>
  <wpt lat="46.3254306" lon="-0.4284583000000001">
    <name>Quartier de Souché - rue de l Aérodrome</name>
    <cmt>Amenity::entertainment:public_bookcase</cmt>
    <desc>Associée au Centre d Actions Culturelles</desc>
    <type>Boite à livre</type>
  </wpt>
  <wpt lat="44.86777939999999" lon="-0.5760123">
    <name>Allée de Boutaut</name>
    <cmt>Amenity::entertainment:public_bookcase</cmt>
    <desc>Positionnée sur un espace de jeux pour enfants agrémenté de bancs pour faire une pause proche place Ravezies en venant du Lac vers la place.</desc>
    <type>Boite à livre</type>
  </wpt>
  <wpt lat="43.37070819999999" lon="-1.7804162">
    <name>Rond-Point Flore à proximité rue des orangers</name>
    <cmt>Amenity::entertainment:public_bookcase</cmt>
    <desc>Dans un square face au Comptoir Maritime Basque</desc>
    <type>Boite à livre</type>
  </wpt>
  <wpt lat="44.90993149999999" lon="-0.6421748">
    <name>11 rue de l&apos;Estaing</name>
    <cmt>Amenity::entertainment:public_bookcase</cmt>
    <desc>Sur le parking de l&apos;école Saturne</desc>
    <type>Boite à livre</type>
  </wpt>
  <wpt lat="44.862762399999994" lon="0.47853530000000005">
    <name>rue Lecomte de Lisle</name>
    <cmt>Amenity::entertainment:public_bookcase</cmt>
    <desc>se situe au rond point près du centre Georges Charpak</desc>
    <type>Boite à livre</type>
  </wpt>
  <wpt lat="44.617530800000004" lon="-0.5405631">
    <name>Route des graves</name>
    <cmt>Amenity::entertainment:public_bookcase</cmt>
    <desc>Boîte à lire bleu et jaune du Lion s club au bord de la route près de la mairie.</desc>
    <type>Boite à livre</type>
  </wpt>
  <wpt lat="44.20736329999998" lon="0.6220664">
    <name>Rue du Rempart Ste Foy</name>
    <cmt>Amenity::entertainment:public_bookcase</cmt>
    <desc>La boite à lire se trouve sur la place.</desc>
    <type>Boite à livre</type>
  </wpt>
  <wpt lat="46.77540000000001" lon="0.36151">
    <name>Place des marronniers</name>
    <cmt>Amenity::entertainment:public_bookcase</cmt>
    <desc>Boite à lire mise en place par Partage Vienne 86 et l&apos;Improbable librairie de Saint-Genest d&apos;Ambière  avec le soutien de la communauté de Communes du Lencloitrais.</desc>
    <type>Boite à livre</type>
  </wpt>
  <wpt lat="45.141264499999984" lon="0.5229427">
    <name>49 rue Paul bert</name>
    <cmt>Amenity::entertainment:public_bookcase</cmt>
    <type>Boite à livre</type>
  </wpt>
  <wpt lat="45.193149599999984" lon="1.4511053000000003">
    <name>Mairie</name>
    <cmt>Amenity::entertainment:public_bookcase</cmt>
    <desc>Côté droit de la mairie</desc>
    <type>Boite à livre</type>
  </wpt>
  <wpt lat="46.00943" lon="-1.17411">
    <name>île d&apos;aix</name>
    <cmt>Amenity::entertainment:public_bookcase</cmt>
    <type>Boite à livre</type>
  </wpt>
  <wpt lat="44.64724009999999" lon="-1.2482481">
    <name>Mairie Annexe</name>
    <cmt>Amenity::entertainment:public_bookcase</cmt>
    <desc>Boîte située devant la mairie annexe.</desc>
    <type>Boite à livre</type>
  </wpt>
  <wpt lat="44.73200609999999" lon="-1.0910072">
    <name>Promenade de la piscine</name>
    <cmt>Amenity::entertainment:public_bookcase</cmt>
    <desc>La boîte est installée juste à l entrée de la plage, après le parking vélos</desc>
    <type>Boite à livre</type>
  </wpt>
  <wpt lat="45.81821709999999" lon="1.1004352">
    <name>27 Rue du 19 Mars 1962</name>
    <cmt>Amenity::entertainment:public_bookcase</cmt>
    <desc>Face à la mairie</desc>
    <type>Boite à livre</type>
  </wpt>
  <wpt lat="43.561585100000016" lon="-0.2714687">
    <name>3 place de la résistance</name>
    <cmt>Amenity::entertainment:public_bookcase</cmt>
    <desc>La boîte a lire de Garlin favorise l&apos;accès de tous à la lecture sans contrainte d&apos;horaire, d&apos;abonnement, de délai de restitution.Vous pouvez choisir un ouvrage dans la belle cabine téléphonique réhabilitée par la Mairie, l&apos;emporter chez vous, en vacances ou le lire au parc.Vous pouvez le rapporter quand vous voulez dans cette boîte à lire et même y déposer des livres que vous souhaitez partager. Il est conseillé mais pas obligatoire de rapporter les documents pris pour les faire voyager auprès d&apos;un maximum de personnes.La boite à lire est une offre culturelle complémentaire des bibliothèques de votre territoire :- Médiathèque ­de Garlin- Point lecture ­de Conchez-de-Béarn- Point Lecture ­de Portet- Point Lecture ­de Burosse-Mendousse- Boîte à lire de TaronRenseignements complémentaires : 05-59-21-42-25 (médiathèque)</desc>
    <type>Boite à livre</type>
  </wpt>
  <wpt lat="45.75363430000001" lon="1.2730885999999997">
    <name>1 rue des fossés</name>
    <cmt>Amenity::entertainment:public_bookcase</cmt>
    <desc>Sous le porche du moulin de Quatre</desc>
    <type>Boite à livre</type>
  </wpt>
  <wpt lat="44.80656400000001" lon="0.328731">
    <name>Place de la mairie</name>
    <cmt>Amenity::entertainment:public_bookcase</cmt>
    <desc>Dans une cabine téléphonique</desc>
    <type>Boite à livre</type>
  </wpt>
  <wpt lat="45.8779382" lon="0.8734038">
    <name>1 rue des mimosas</name>
    <cmt>Amenity::entertainment:public_bookcase</cmt>
    <desc>sur le parking de la mairie</desc>
    <type>Boite à livre</type>
  </wpt>
  <wpt lat="44.658676099999994" lon="-0.6078394">
    <name>Route D Arcachon</name>
    <cmt>Amenity::entertainment:public_bookcase</cmt>
    <desc>La boîte est Située En Bordure De Route Face À l arrêtDe Bus ...</desc>
    <type>Boite à livre</type>
  </wpt>
  <wpt lat="44.91033820000001" lon="-0.6327907">
    <name>4 Rue du Dr Castéra</name>
    <cmt>Amenity::entertainment:public_bookcase</cmt>
    <type>Boite à livre</type>
  </wpt>
  <wpt lat="46.7617353" lon="0.47917070000000006">
    <name>21 Rue Henri Barbusse</name>
    <cmt>Amenity::entertainment:public_bookcase</cmt>
    <desc>la Boîte à Livres se trouve sous le préau dans la cour</desc>
    <type>Boite à livre</type>
  </wpt>
  <wpt lat="42.997051899999995" lon="-0.601367">
    <name>Rue Gambetta</name>
    <cmt>Amenity::entertainment:public_bookcase</cmt>
    <desc>Elle se trouve sur une petite place / un parking dans une étagère.</desc>
    <type>Boite à livre</type>
  </wpt>
  <wpt lat="44.88016300000002" lon="-0.523108">
    <name>13 rue barrailley</name>
    <cmt>Amenity::entertainment:public_bookcase</cmt>
    <desc>Cette boite à lire a été conçu par l association LVVL la vie au vieux lormont. Elle est en bois peinture blanche près d&apos;un banc.</desc>
    <type>Boite à livre</type>
  </wpt>
  <wpt lat="46.348014" lon="2.2139960000000003">
    <name>Place de l&apos;hôtel de ville</name>
    <cmt>Amenity::entertainment:public_bookcase</cmt>
    <desc>Sous le kiosque près de La Poste.</desc>
    <type>Boite à livre</type>
  </wpt>
  <wpt lat="45.195452999999986" lon="0.7796540000000001">
    <name>La Poste</name>
    <cmt>Amenity::entertainment:public_bookcase</cmt>
    <desc>Située à côté de la Poste</desc>
    <type>Boite à livre</type>
  </wpt>
  <wpt lat="45.6461966" lon="-1.0886109">
    <name>1 Avenue Charles de Gaulle</name>
    <cmt>Amenity::entertainment:public_bookcase</cmt>
    <desc>La boîte à lire se trouve à l&apos;entrée du parc, près de l&apos;aire de jeux pour enfants.</desc>
    <type>Boite à livre</type>
  </wpt>
  <wpt lat="45.9539929" lon="1.7557330000000002">
    <name>Place de l&apos;Hotel de Ville</name>
    <cmt>Amenity::entertainment:public_bookcase</cmt>
    <desc>Vers la Place de l&apos;hôtel de ville, une petite impasse vers la tour Zizim ou le cinéma</desc>
    <type>Boite à livre</type>
  </wpt>
  <wpt lat="45.50415799999999" lon="1.2039775">
    <name>14 avenue du Pont las Veyras</name>
    <cmt>Amenity::entertainment:public_bookcase</cmt>
    <desc>Particulier ayant installé une boîte à lire. Contient, en plus des traditionnels livres en français, quelques livres en anglais</desc>
    <type>Boite à livre</type>
  </wpt>
  <wpt lat="43.48592240000001" lon="-1.5527407">
    <name>Laverie Saint Charles 1, rue de la bergerie</name>
    <cmt>Amenity::entertainment:public_bookcase</cmt>
    <desc>Une boîte à livres installée depuis mi-décembre dans une laverie automatique. Ouverte à tous clients ou pas. Une initiative bien reçu par tous .</desc>
    <type>Boite à livre</type>
  </wpt>
  <wpt lat="46.2138571" lon="-0.9540745">
    <name>10 rue des sables</name>
    <cmt>Amenity::entertainment:public_bookcase</cmt>
    <desc>Dans le magasin Vival Casino.</desc>
    <type>Boite à livre</type>
  </wpt>
  <wpt lat="46.78813869999999" lon="0.8086805">
    <name>Maison de la Culture et des Loisirs</name>
    <cmt>Amenity::entertainment:public_bookcase</cmt>
    <desc>Construite par le chantier d&apos;insertion intercommunal et peinte par le secteur jeunes de la MCL, elle située dans le jardin de la MCL et fonctionne très bien</desc>
    <type>Boite à livre</type>
  </wpt>
  <wpt lat="46.20435489999999" lon="1.7547629999999999">
    <name>1 Place de l&apos;église</name>
    <cmt>Amenity::entertainment:public_bookcase</cmt>
    <desc>Dans le parc à côté de la mairie.</desc>
    <type>Boite à livre</type>
  </wpt>
  <wpt lat="43.161103300000015" lon="-0.23166830000000002">
    <name>Place St Vincent</name>
    <cmt>Amenity::entertainment:public_bookcase</cmt>
    <desc>Cette boîte à lire ainsi que les 2 autres de village ont été mises en place par le conseil municipal des enfants d&apos;Igon</desc>
    <type>Boite à livre</type>
  </wpt>
  <wpt lat="45.893842400000004" lon="0.0277049">
    <name>Place de l Eglise</name>
    <cmt>Amenity::entertainment:public_bookcase</cmt>
    <desc>Face au restaurant, abri bus en bois aménagé en boite à livres...</desc>
    <type>Boite à livre</type>
  </wpt>
  <wpt lat="46.188686099999984" lon="-1.0668149">
    <name>34 rue du général de gaulle</name>
    <cmt>Amenity::entertainment:public_bookcase</cmt>
    <desc>2 boites a lire en face de la poste</desc>
    <type>Boite à livre</type>
  </wpt>
  <wpt lat="44.88154899999999" lon="-0.6136257">
    <name>4 Rue Théodore Bellemer</name>
    <cmt>Amenity::entertainment:public_bookcase</cmt>
    <desc>La Boîte est Une Cabine Téléphonique située Juste En Face De La Poste ...</desc>
    <type>Boite à livre</type>
  </wpt>
  <wpt lat="45.7680592" lon="0.4365499">
    <name>224 route de Vitrac</name>
    <cmt>Amenity::entertainment:public_bookcase</cmt>
    <desc>Dans une ancienne cabine téléphonique</desc>
    <type>Boite à livre</type>
  </wpt>
  <wpt lat="46.227637999999985" lon="2.213749">
    <name>place Mauget</name>
    <cmt>Amenity::entertainment:public_bookcase</cmt>
    <type>Boite à livre</type>
  </wpt>
  <wpt lat="44.17036149999998" lon="0.2896929">
    <name>6 rue du moulin des tours</name>
    <cmt>Amenity::entertainment:public_bookcase</cmt>
    <desc>sur le muret</desc>
    <type>Boite à livre</type>
  </wpt>
  <wpt lat="45.0927768" lon="1.9393278">
    <name>1 Place Da Maia</name>
    <cmt>Amenity::entertainment:public_bookcase</cmt>
    <desc>Boite installée par la ville</desc>
    <type>Boite à livre</type>
  </wpt>
  <wpt lat="46.762668" lon="0.479124">
    <name>Vieux-Poitiers</name>
    <cmt>Amenity::entertainment:public_bookcase</cmt>
    <desc>Boîte située à l extérieur du théâtre gallo-romain du Vieux-Poitiers site que se visite l&apos;été</desc>
    <type>Boite à livre</type>
  </wpt>
  <wpt lat="44.68202529999999" lon="-1.012122">
    <name>5 route de bordeaux</name>
    <cmt>Amenity::entertainment:public_bookcase</cmt>
    <desc>La boîte est situé à côté d un banc proche d&apos;un cours d&apos;eau</desc>
    <type>Boite à livre</type>
  </wpt>
  <wpt lat="43.89255430000001" lon="-0.30589450000000007">
    <name>95 rue grand rue</name>
    <cmt>Amenity::entertainment:public_bookcase</cmt>
    <desc>Dans la pizzeria La Tour de Pizz...a</desc>
    <type>Boite à livre</type>
  </wpt>
  <wpt lat="46.19657170000001" lon="-0.6705482000000001">
    <name>Place de l église</name>
    <cmt>Amenity::entertainment:public_bookcase</cmt>
    <desc>à côté de la Mairie</desc>
    <type>Boite à livre</type>
  </wpt>
  <wpt lat="45.13698" lon="-0.5664817">
    <name>Croisement des routes Berthenon-est et Berthenon-ouest</name>
    <cmt>Amenity::entertainment:public_bookcase</cmt>
    <desc>La boite à lire se trouve contre l Abribus au Lieu-dit Berthenon,</desc>
    <type>Boite à livre</type>
  </wpt>
  <wpt lat="44.8464554" lon="-0.5803084">
    <name>Place Charles Gruet</name>
    <cmt>Amenity::entertainment:public_bookcase</cmt>
    <type>Boite à livre</type>
  </wpt>
  <wpt lat="45.14446099999999" lon="-0.8214329999999999">
    <name>rue St Saint-Exupéry</name>
    <cmt>Amenity::entertainment:public_bookcase</cmt>
    <desc>La boîte à livres se situe entre la Poste et l Office de Tourisme dans le petit patio.</desc>
    <type>Boite à livre</type>
  </wpt>
  <wpt lat="43.814659999999996" lon="-1.3782499999999998">
    <name>Plage nord de Messanges</name>
    <cmt>Amenity::entertainment:public_bookcase</cmt>
    <desc>Elle se trouve juste avant les escaliers pour descendre sur la plage.</desc>
    <type>Boite à livre</type>
  </wpt>
  <wpt lat="45.27294779999998" lon="0.9126361">
    <name>place du souvenir</name>
    <cmt>Amenity::entertainment:public_bookcase</cmt>
    <desc>Elle se trouve derriére la bibliothéque, cachée derriére des buissons !</desc>
    <type>Boite à livre</type>
  </wpt>
  <wpt lat="43.29065059999998" lon="-0.3825583">
    <name>Rue du Colonel Gloxin</name>
    <cmt>Amenity::entertainment:public_bookcase</cmt>
    <desc>Square Mazoyer</desc>
    <type>Boite à livre</type>
  </wpt>
  <wpt lat="45.6250557" lon="-1.0408157">
    <name>35 boulevard de cordouan</name>
    <cmt>Amenity::entertainment:public_bookcase</cmt>
    <type>Boite à livre</type>
  </wpt>
  <wpt lat="45.79854550000001" lon="-1.1643803">
    <name>50 avenue Gabrielle</name>
    <cmt>Amenity::entertainment:public_bookcase</cmt>
    <desc>Boite située dans la rue principale de Ronce-les-Bains</desc>
    <type>Boite à livre</type>
  </wpt>
  <wpt lat="44.8236514" lon="-0.2457762">
    <name>7 gaillot nord</name>
    <cmt>Amenity::entertainment:public_bookcase</cmt>
    <desc>Sur le parking de la mairie et de l école dans une armoire rouge</desc>
    <type>Boite à livre</type>
  </wpt>
  <wpt lat="46.719844199999976" lon="0.2622939">
    <name>Grand Rue</name>
    <cmt>Amenity::entertainment:public_bookcase</cmt>
    <desc>Ancienne cabine téléphonique du carrefour de l église</desc>
    <type>Boite à livre</type>
  </wpt>
  <wpt lat="43.289225699999996" lon="-0.39294760000000006">
    <name>rue jean moulin</name>
    <cmt>Amenity::entertainment:public_bookcase</cmt>
    <desc>La boite à lire se trouve devant la Mjc rive gauche et à côté du centre de loisirs de Jurançon.</desc>
    <type>Boite à livre</type>
  </wpt>
  <wpt lat="44.8033712" lon="-0.594479">
    <name>24 Avenue du Lycée</name>
    <cmt>Amenity::entertainment:public_bookcase</cmt>
    <desc>Pour Accéder à cette boite à lire, adressez vous à l accueil de la maison de retraite Chateau Gardères, elle se trouve dans la parc derrière.</desc>
    <type>Boite à livre</type>
  </wpt>
  <wpt lat="44.6502887" lon="0.08040490000000002">
    <name>Place de la Halle</name>
    <cmt>Amenity::entertainment:public_bookcase</cmt>
    <desc>sous les arcades autour de la halle</desc>
    <type>Boite à livre</type>
  </wpt>
  <wpt lat="45.700982999999994" lon="0.9562543">
    <name>1 rue des Fontaines</name>
    <cmt>Amenity::entertainment:public_bookcase</cmt>
    <desc>Offert par le Lions Club Val de Tardoire à la commune de Champsac</desc>
    <type>Boite à livre</type>
  </wpt>
  <wpt lat="44.20696830000001" lon="0.6188554">
    <name>rue raspail</name>
    <cmt>Amenity::entertainment:public_bookcase</cmt>
    <type>Boite à livre</type>
  </wpt>
  <wpt lat="44.99471539999998" lon="-0.6936901">
    <name>1, allée du chateau</name>
    <cmt>Amenity::entertainment:public_bookcase</cmt>
    <desc>la boite se situe près du rond point,  bien fournie et bien protégée</desc>
    <type>Boite à livre</type>
  </wpt>
  <wpt lat="45.89688079999999" lon="-0.7948902">
    <name>rue saint vivien</name>
    <cmt>Amenity::entertainment:public_bookcase</cmt>
    <desc>entre le boulangerie et le café des sports</desc>
    <type>Boite à livre</type>
  </wpt>
  <wpt lat="44.676484999999985" lon="0.17921">
    <name>Salle du Foirail</name>
    <cmt>Amenity::entertainment:public_bookcase</cmt>
    <desc>À gauche de l&apos;entrée</desc>
    <type>Boite à livre</type>
  </wpt>
  <wpt lat="43.66744439999998" lon="-1.4416568">
    <name>Plage centrale</name>
    <cmt>Amenity::entertainment:public_bookcase</cmt>
    <desc>La boîte à lire se trouve sur la plage centrale de Capbreton, à côté du club enfants les dauphins, face à la rue les voiliers.</desc>
    <type>Boite à livre</type>
  </wpt>
  <wpt lat="46.604909899999996" lon="0.3610274">
    <name>avenue de la Liberté</name>
    <cmt>Amenity::entertainment:public_bookcase</cmt>
    <desc>La boite à lire se situe face à la Maison des Projets.</desc>
    <type>Boite à livre</type>
  </wpt>
  <wpt lat="45.27096940000001" lon="0.04160950000000001">
    <name>chemin des prés</name>
    <cmt>Amenity::entertainment:public_bookcase</cmt>
    <desc>Ancienne cabine téléphonique reconvertie, située devant la poste.</desc>
    <type>Boite à livre</type>
  </wpt>
  <wpt lat="45.8011717" lon="-1.0358147">
    <name>Place Eugène Papin</name>
    <cmt>Amenity::entertainment:public_bookcase</cmt>
    <desc>La boîte à livres se trouve devant la boulangerie.</desc>
    <type>Boite à livre</type>
  </wpt>
  <wpt lat="44.89311820000002" lon="-0.5110933">
    <name>Rue Jean Rostand</name>
    <cmt>Amenity::entertainment:public_bookcase</cmt>
    <desc>Située au niveau de l&apos;école maternelle.</desc>
    <type>Boite à livre</type>
  </wpt>
  <wpt lat="46.67698779999999" lon="-0.4609069">
    <name>Mairie</name>
    <cmt>Amenity::entertainment:public_bookcase</cmt>
    <desc>Frigo reconvertit depuis 3 ans en Lili: librairie libre.</desc>
    <type>Boite à livre</type>
  </wpt>
  <wpt lat="46.82936170000001" lon="0.3079569">
    <name>route du stade</name>
    <cmt>Amenity::entertainment:public_bookcase</cmt>
    <desc>Boite à lire mise en place par partage vienne 86 et l improbable librairie de saint-genest d&apos;ambière avec le soutien de la communauté de communes du lencloitrais.</desc>
    <type>Boite à livre</type>
  </wpt>
  <wpt lat="46.62720610000001" lon="0.3097784">
    <name>1 rue du 8 mai 1945</name>
    <cmt>Amenity::entertainment:public_bookcase</cmt>
    <desc>La boite se trouve à la jointure de la rue du Centre et de la rue du 8 mai 1945. A deux pas de la mairie...</desc>
    <type>Boite à livre</type>
  </wpt>
  <wpt lat="44.24080900000001" lon="-1.1210996">
    <name>Place Charles de Gaulle</name>
    <cmt>Amenity::entertainment:public_bookcase</cmt>
    <desc>Derrière la salle des fêtes,  à côté du Bistrot Jeannot</desc>
    <type>Boite à livre</type>
  </wpt>
  <wpt lat="45.0146572" lon="-0.0568804">
    <name>9 esplanade du 18 juin</name>
    <cmt>Amenity::entertainment:public_bookcase</cmt>
    <desc>La boite est située juste à côté de la Mairie ! C&apos;est une cabine téléphonique Rouge !</desc>
    <type>Boite à livre</type>
  </wpt>
  <wpt lat="45.646574399999984" lon="-1.0642585">
    <name>hôtel de ville</name>
    <cmt>Amenity::entertainment:public_bookcase</cmt>
    <desc>Boite à Lire Lions Club installée dans le parc de l’hôtel de ville</desc>
    <type>Boite à livre</type>
  </wpt>
  <wpt lat="46.24854539999998" lon="2.2304176">
    <name>4 Route De toulx St Croix</name>
    <cmt>Amenity::entertainment:public_bookcase</cmt>
    <desc>A côté de la mairie.</desc>
    <type>Boite à livre</type>
  </wpt>
  <wpt lat="44.391139" lon="0.30904">
    <name>Rue Ducourneau</name>
    <cmt>Amenity::entertainment:public_bookcase</cmt>
    <desc>Sous le porche de la boutique Plein Ciel  rue Ducourneau.</desc>
    <type>Boite à livre</type>
  </wpt>
  <wpt lat="46.3131515" lon="-0.4687260000000001">
    <name>Place Georges Renon</name>
    <cmt>Amenity::entertainment:public_bookcase</cmt>
    <desc>Quartier résidentiel - Toujours trés bien approvisionnée.</desc>
    <type>Boite à livre</type>
  </wpt>
  <wpt lat="45.12951309999998" lon="-0.6616357">
    <name>Cours de la republique</name>
    <cmt>Amenity::entertainment:public_bookcase</cmt>
    <desc>face à la pharmacie</desc>
    <type>Boite à livre</type>
  </wpt>
  <wpt lat="43.491341" lon="-1.4797360000000002">
    <name>allée de la Poterne</name>
    <cmt>Amenity::entertainment:public_bookcase</cmt>
    <desc>près de la plaine de jeux</desc>
    <type>Boite à livre</type>
  </wpt>
  <wpt lat="43.48026129999999" lon="-1.4443493999999997">
    <name>Centre commercial Ametzondo</name>
    <cmt>Amenity::entertainment:public_bookcase</cmt>
    <desc>2e étage</desc>
    <type>Boite à livre</type>
  </wpt>
  <wpt lat="45.18255289999998" lon="0.7173477">
    <name>Place francheville</name>
    <cmt>Amenity::entertainment:public_bookcase</cmt>
    <desc>Face au cinéma</desc>
    <type>Boite à livre</type>
  </wpt>
  <wpt lat="45.27035099999999" lon="1.7696160000000003">
    <name>place Maschat</name>
    <cmt>Amenity::entertainment:public_bookcase</cmt>
    <desc>Installée par le Lion s Club.</desc>
    <type>Boite à livre</type>
  </wpt>
  <wpt lat="43.14441099999999" lon="-0.2534996">
    <name>43 rue de labat</name>
    <cmt>Amenity::entertainment:public_bookcase</cmt>
    <type>Boite à livre</type>
  </wpt>
  <wpt lat="44.8660776" lon="-0.6625348">
    <name>18-24 Rue Guynemer</name>
    <cmt>Amenity::entertainment:public_bookcase</cmt>
    <desc>La Boite est Située dans Le Parc</desc>
    <type>Boite à livre</type>
  </wpt>
  <wpt lat="44.91443240000001" lon="-0.24189940000000004">
    <name>Rue Étienne Sabatie</name>
    <cmt>Amenity::entertainment:public_bookcase</cmt>
    <desc>Dans le parc du jardin Maurice Robin</desc>
    <type>Boite à livre</type>
  </wpt>
  <wpt lat="45.95384369999999" lon="1.757138">
    <name>1 avenue du dr butaud</name>
    <cmt>Amenity::entertainment:public_bookcase</cmt>
    <desc>Proche de la tour Zizim et du cinéma place du Mail</desc>
    <type>Boite à livre</type>
  </wpt>
  <wpt lat="45.51373940000001" lon="1.2033107">
    <name>3 place du marché</name>
    <cmt>Amenity::entertainment:public_bookcase</cmt>
    <desc>Boîte à livres installée par la librairie  les oiseaux livres</desc>
    <type>Boite à livre</type>
  </wpt>
  <wpt lat="44.86655879999998" lon="-0.5839167">
    <name>2 Rue Édouard Branly</name>
    <cmt>Amenity::entertainment:public_bookcase</cmt>
    <desc>Dans la cour de récréation de l école primaire Jean Jaures.</desc>
    <type>Boite à livre</type>
  </wpt>
  <wpt lat="46.586702300000006" lon="0.3437092">
    <name>Rue saint Germain</name>
    <cmt>Amenity::entertainment:public_bookcase</cmt>
    <type>Boite à livre</type>
  </wpt>
  <wpt lat="44.9363582" lon="-0.83106">
    <name>Place de la mairie</name>
    <cmt>Amenity::entertainment:public_bookcase</cmt>
    <desc>Un peu pleine. Elle n attend que ses lecteurs</desc>
    <type>Boite à livre</type>
  </wpt>
  <wpt lat="44.7534186" lon="-0.6447882">
    <name>Chemin de la house</name>
    <cmt>Amenity::entertainment:public_bookcase</cmt>
    <desc>Devant le magasin Vival</desc>
    <type>Boite à livre</type>
  </wpt>
  <wpt lat="46.119847000000014" lon="2.406947">
    <name>Place de la Poste</name>
    <cmt>Amenity::entertainment:public_bookcase</cmt>
    <desc>Ancienne cabine téléphonique qui a retrouvé une seconde vie grâce à l&apos;association Culture en marche. Les livres sont en accès libre et gratuit. En place depuis juin 2015  beau succès auprès des habitants et des touristes.</desc>
    <type>Boite à livre</type>
  </wpt>
  <wpt lat="45.529343499999996" lon="0.662169">
    <name>Place Alfred Agard</name>
    <cmt>Amenity::entertainment:public_bookcase</cmt>
    <type>Boite à livre</type>
  </wpt>
  <wpt lat="45.674225899999996" lon="-0.9252358">
    <name>Angle rue Carnot et rue du Lavoir - Bord de Seudre</name>
    <cmt>Amenity::entertainment:public_bookcase</cmt>
    <type>Boite à livre</type>
  </wpt>
  <wpt lat="45.187725" lon="0.711561">
    <name>PLACE SAINT MARTIN</name>
    <cmt>Amenity::entertainment:public_bookcase</cmt>
    <desc>DANS LE SQUARE DE L EGLISE</desc>
    <type>Boite à livre</type>
  </wpt>
  <wpt lat="46.37361649999999" lon="0.4044572">
    <name>Place du Marché</name>
    <cmt>Amenity::entertainment:public_bookcase</cmt>
    <desc>Proche de la Mairie, dans une ancienne cabine téléphonique.</desc>
    <type>Boite à livre</type>
  </wpt>
  <wpt lat="44.208667600000005" lon="0.6172993999999999">
    <name>Pont Canal</name>
    <cmt>Amenity::entertainment:public_bookcase</cmt>
    <desc>Une boite à lire au bord du Canal du Midi, juste avant d&apos;entamer une balade sur le Pont Canal d Agen.</desc>
    <type>Boite à livre</type>
  </wpt>
  <wpt lat="44.92964800178931" lon="-0.127077698707581">
    <name>place des maronniers</name>
    <cmt>Amenity::entertainment:public_bookcase</cmt>
    <desc>sur le parking</desc>
    <type>Boite à livre</type>
  </wpt>
  <wpt lat="45.986993" lon="0.1337569">
    <name>LE BOURG</name>
    <cmt>Amenity::entertainment:public_bookcase</cmt>
    <desc>RECONVERSION D UNE ANCIENNE CABINE TELEPHONIQUE ENTIEREMENT VITREE</desc>
    <type>Boite à livre</type>
  </wpt>
  <wpt lat="46.18735259999998" lon="-1.3255632000000002">
    <name>8 ruelle des ormes</name>
    <cmt>Amenity::entertainment:public_bookcase</cmt>
    <desc>placée dans un passage couvert d une ruelle.</desc>
    <type>Boite à livre</type>
  </wpt>
  <wpt lat="44.879684999999995" lon="-0.571902">
    <name>Place Jean Cayrol</name>
    <cmt>Amenity::entertainment:public_bookcase</cmt>
    <type>Boite à livre</type>
  </wpt>
  <wpt lat="44.65436739999999" lon="-1.0225009">
    <name>Parc Lecoq</name>
    <cmt>Amenity::entertainment:public_bookcase</cmt>
    <type>Boite à livre</type>
  </wpt>
  <wpt lat="43.48686909999999" lon="-1.387023">
    <name>Place Louis Lafargue</name>
    <cmt>Amenity::entertainment:public_bookcase</cmt>
    <desc>Contre le mur, juste à gauche de la boulangerie</desc>
    <type>Boite à livre</type>
  </wpt>
  <wpt lat="45.8238704" lon="0.8209328">
    <name>6 rue Victor Hugo</name>
    <cmt>Amenity::entertainment:public_bookcase</cmt>
    <desc>A l&apos;entrée du Capitole, derrière l&apos;office de tourisme</desc>
    <type>Boite à livre</type>
  </wpt>
  <wpt lat="43.429546099999996" lon="-1.2560875000000002">
    <name>Place des arceaux</name>
    <cmt>Amenity::entertainment:public_bookcase</cmt>
    <desc>Boite à lire Semez les mots à l&apos;initiative de notre bibliothèque. Boite sans angles droits donc assez déjantée.</desc>
    <type>Boite à livre</type>
  </wpt>
  <wpt lat="44.547864700000005" lon="-0.2565149">
    <name>boulevard François Mauriac</name>
    <cmt>Amenity::entertainment:public_bookcase</cmt>
    <desc>Au niveau du Lycée Jean Moulin sur la gauche.</desc>
    <type>Boite à livre</type>
  </wpt>
  <wpt lat="45.034860099999996" lon="-0.7559368000000001">
    <name>1 route d Arsac</name>
    <cmt>Amenity::entertainment:public_bookcase</cmt>
    <desc>La Cabane À Dons Est Située Sur Le Parking En Face De L école Maternelle ...</desc>
    <type>Boite à livre</type>
  </wpt>
  <wpt lat="44.84471710000001" lon="-0.5734751">
    <name>Place des quinconces</name>
    <cmt>Amenity::entertainment:public_bookcase</cmt>
    <type>Boite à livre</type>
  </wpt>
  <wpt lat="46.34426579999999" lon="-0.080127">
    <name>place de la mairie</name>
    <cmt>Amenity::entertainment:public_bookcase</cmt>
    <desc>lors des gratiféria, tous les 3 mois environ, ,il y a énormément de livres à donner</desc>
    <type>Boite à livre</type>
  </wpt>
  <wpt lat="44.204399999999985" lon="0.620214">
    <name>Place Lafayette</name>
    <cmt>Amenity::entertainment:public_bookcase</cmt>
    <desc>La boite à lire se situe à l&apos;angle de la place.</desc>
    <type>Boite à livre</type>
  </wpt>
  <wpt lat="43.11409769999999" lon="-0.3174123">
    <name>1, rue de l&apos;Eglise</name>
    <cmt>Amenity::entertainment:public_bookcase</cmt>
    <type>Boite à livre</type>
  </wpt>
  <wpt lat="46.3162767" lon="-0.47690350000000004">
    <name>Le Clou Bouchet - Boulevard de l Atlantique</name>
    <cmt>Amenity::entertainment:public_bookcase</cmt>
    <desc>Quartier populaire</desc>
    <type>Boite à livre</type>
  </wpt>
  <wpt lat="43.3566668" lon="-1.5504231999999998">
    <name>27 Route de Bayonne</name>
    <cmt>Amenity::entertainment:public_bookcase</cmt>
    <desc>Devant la vitrine de  Imagine Atelier Boutique</desc>
    <type>Boite à livre</type>
  </wpt>
  <wpt lat="45.10177849999999" lon="-0.3892108">
    <name>93 Avenue de paris</name>
    <cmt>Amenity::entertainment:public_bookcase</cmt>
    <desc>La boîte à lire est proche de la Poste</desc>
    <type>Boite à livre</type>
  </wpt>
  <wpt lat="43.49086969999999" lon="-1.4697684">
    <name>rue de Ravignan</name>
    <cmt>Amenity::entertainment:public_bookcase</cmt>
    <desc>devant l école maternelle</desc>
    <type>Boite à livre</type>
  </wpt>
  <wpt lat="44.864584699999995" lon="-0.5702154">
    <name>29 allées Haussmann</name>
    <cmt>Amenity::entertainment:public_bookcase</cmt>
    <desc>À l entrée du square Étienne Morin</desc>
    <type>Boite à livre</type>
  </wpt>
  <wpt lat="45.70805189999999" lon="-0.7307949">
    <name>RUE DES TILLEULS</name>
    <cmt>Amenity::entertainment:public_bookcase</cmt>
    <desc>La boite à livres est collée à l&apos;église, à côté de l&apos;entrée de celle-ci.</desc>
    <type>Boite à livre</type>
  </wpt>
  <wpt lat="46.47942799999998" lon="0.5182064">
    <name>Route de Poitiers</name>
    <cmt>Amenity::entertainment:public_bookcase</cmt>
    <desc>Boite à lire dans une cabine téléphonique près de la mairie</desc>
    <type>Boite à livre</type>
  </wpt>
  <wpt lat="44.82669719999999" lon="-0.6118657999999999">
    <name>Rue du professeur Thimothée Piéchaud</name>
    <cmt>Amenity::entertainment:public_bookcase</cmt>
    <type>Boite à livre</type>
  </wpt>
  <wpt lat="46.424783700000006" lon="0.2142025">
    <name>3 rue du parc</name>
    <cmt>Amenity::entertainment:public_bookcase</cmt>
    <desc>Située sur le parking de la mairie de Marigny-Chémereau.</desc>
    <type>Boite à livre</type>
  </wpt>
  <wpt lat="46.57913789999999" lon="0.34581940000000005">
    <name>14 rue st pierre le pueliers</name>
    <cmt>Amenity::entertainment:public_bookcase</cmt>
    <desc>En rentrant dans la maison de quartier du local une boite à lire rouge sera devant vous. il y a également une guiv-box au fond du couloir de droite.</desc>
    <type>Boite à livre</type>
  </wpt>
  <wpt lat="43.27884139999998" lon="-0.3549999999999999">
    <name>37 avenue du Général de Gaulle</name>
    <cmt>Amenity::entertainment:public_bookcase</cmt>
    <desc>Près de la boulangerie</desc>
    <type>Boite à livre</type>
  </wpt>
  <wpt lat="44.78666249999998" lon="-0.6404810999999999">
    <name>6 avenue gustave eiffel</name>
    <cmt>Amenity::entertainment:public_bookcase</cmt>
    <desc>Entrée EST. Face à la boutique Courrir</desc>
    <type>Boite à livre</type>
  </wpt>
  <wpt lat="45.75374399999999" lon="0.360167">
    <name>RIVIERES</name>
    <cmt>Amenity::entertainment:public_bookcase</cmt>
    <desc>Belle vitrine bois artisanale sous le préau proche des écoles installée en 2020 et d une capacité de 200 ouvrages...</desc>
    <type>Boite à livre</type>
  </wpt>
  <wpt lat="44.799433" lon="1.196735">
    <name>La Touille</name>
    <cmt>Amenity::entertainment:public_bookcase</cmt>
    <desc>sur la place de la mairie, à côté des toilettes et du distributeur bancaire</desc>
    <type>Boite à livre</type>
  </wpt>
  <wpt lat="46.5727506" lon="0.3597381">
    <name>185 rue du Faubourg du Pont-Neuf</name>
    <cmt>Amenity::entertainment:public_bookcase</cmt>
    <desc>dans la cour du confort moderne en face la pizzeria en haut du Faubourg du Pont-Neuf</desc>
    <type>Boite à livre</type>
  </wpt>
  <wpt lat="44.8195931" lon="-0.6007912">
    <name>Centre ville</name>
    <cmt>Amenity::entertainment:public_bookcase</cmt>
    <type>Boite à livre</type>
  </wpt>
  <wpt lat="47.066115299999986" lon="-0.37491939999999996">
    <name>Rue des Acacias Saint-Pierre</name>
    <cmt>Amenity::entertainment:public_bookcase</cmt>
    <desc>Entre l&apos;église et la mairie .</desc>
    <type>Boite à livre</type>
  </wpt>
  <wpt lat="44.215786099999995" lon="-1.2261202000000002">
    <name>Promenade fleurie</name>
    <cmt>Amenity::entertainment:public_bookcase</cmt>
    <desc>Au bout de la promenade fleurie</desc>
    <type>Boite à livre</type>
  </wpt>
  <wpt lat="46.128854999999994" lon="-1.0717914">
    <name>Rue de l eglise</name>
    <cmt>Amenity::entertainment:public_bookcase</cmt>
    <desc>Rue de l eglise, sur la place , proche de l emplacement du bibi o bus</desc>
    <type>Boite à livre</type>
  </wpt>
  <wpt lat="45.76806309999999" lon="-1.1409612">
    <name>Ronce-les-bains</name>
    <cmt>Amenity::entertainment:public_bookcase</cmt>
    <desc>Adossée à l&apos;office de tourisme, la boîte à lire attend vos ouvrages.</desc>
    <type>Boite à livre</type>
  </wpt>
  <wpt lat="44.692475" lon="0.4588380000000001">
    <name>École de Razac d eymet</name>
    <cmt>Amenity::entertainment:public_bookcase</cmt>
    <desc>Elle se situe sur le parking de l école de Razac d&apos;Eymet</desc>
    <type>Boite à livre</type>
  </wpt>
  <wpt lat="45.663292" lon="-0.10450300000000001">
    <name>place de la mairie</name>
    <cmt>Amenity::entertainment:public_bookcase</cmt>
    <desc>Réalisation en partenariat avec la Mairie de Graves Saint Amant et l association AILAN. Des jeunes ont transformé cette ancienne cabine téléphonique en boites à livre afin que tout le monde en profite.</desc>
    <type>Boite à livre</type>
  </wpt>
  <wpt lat="43.2139948" lon="-0.3001936">
    <name>Maire</name>
    <cmt>Amenity::entertainment:public_bookcase</cmt>
    <desc>La boite a lire se trouve dans une cabine anglaise devant la mairie.</desc>
    <type>Boite à livre</type>
  </wpt>
  <wpt lat="44.96251790000001" lon="-0.8847165">
    <name>22 route des landes</name>
    <cmt>Amenity::entertainment:public_bookcase</cmt>
    <desc>Située à côté du complexe sportif et de la médiathèque</desc>
    <type>Boite à livre</type>
  </wpt>
  <wpt lat="43.2113025" lon="-0.3605077">
    <name>Rue pierre bidau</name>
    <cmt>Amenity::entertainment:public_bookcase</cmt>
    <desc>Sur le parking à côté de l?école</desc>
    <type>Boite à livre</type>
  </wpt>
  <wpt lat="44.85502299999999" lon="-0.583134">
    <name>rue Mandron</name>
    <cmt>Amenity::entertainment:public_bookcase</cmt>
    <type>Boite à livre</type>
  </wpt>
  <wpt lat="46.81455909999998" lon="0.5369344">
    <name>Place Ferdinand Buisson</name>
    <cmt>Amenity::entertainment:public_bookcase</cmt>
    <type>Boite à livre</type>
  </wpt>
  <wpt lat="45.891180799999994" lon="-0.521883">
    <name>Boite a lire</name>
    <cmt>Amenity::entertainment:public_bookcase</cmt>
    <desc>Mise en place par la  munipalité et réalisée par les membres de l association des ateliers du patrimoine</desc>
    <type>Boite à livre</type>
  </wpt>
  <wpt lat="44.91700389999998" lon="-0.2401977">
    <name>43 Allée Robert Boulin</name>
    <cmt>Amenity::entertainment:public_bookcase</cmt>
    <desc>La boîte est située juste en face du Lycée Max Linder ... N hésitez pas à y allé déposer vos livres dont vous ne vous servez plus ?</desc>
    <type>Boite à livre</type>
  </wpt>
  <wpt lat="45.15483570000001" lon="1.5500586">
    <name>29 Avenue Raoul Dautry</name>
    <cmt>Amenity::entertainment:public_bookcase</cmt>
    <desc>Le Conseil Municipal des Jeunes de Brive a installé sur l&apos;ensemble de la commune  plusieurs boites à lire  dont celle située devant le centre socioculturel Raoul Dautry dans le quartier des Chapélies.</desc>
    <type>Boite à livre</type>
  </wpt>
  <wpt lat="44.81193414151809" lon="0.8733487129211429">
    <name>rue saint suaire</name>
    <cmt>Amenity::entertainment:public_bookcase</cmt>
    <desc>Dans une cabine telephonique sur la petite placette entre la rue saint suaire et la rue saint bernard</desc>
    <type>Boite à livre</type>
  </wpt>
  <wpt lat="44.67637309999999" lon="0.18176260000000002">
    <name>6 rue paul persil</name>
    <cmt>Amenity::entertainment:public_bookcase</cmt>
    <desc>Sous la halle de Duras</desc>
    <type>Boite à livre</type>
  </wpt>
  <wpt lat="46.86990019999998" lon="0.2847458">
    <name>4 Rue du Lavoir</name>
    <cmt>Amenity::entertainment:public_bookcase</cmt>
    <desc>Boite à lire mise en place par Partage Vienne 86 et l&apos;Improbable librairie de Saint-Genest d&apos;Ambière  avec le soutien de la communauté de Communes du Lencloitrais.</desc>
    <type>Boite à livre</type>
  </wpt>
  <wpt lat="44.809049599999994" lon="-0.5825605">
    <name>38 rue Dourout</name>
    <cmt>Amenity::entertainment:public_bookcase</cmt>
    <desc>Dans le parc Robespierre.</desc>
    <type>Boite à livre</type>
  </wpt>
  <wpt lat="43.33463720000001" lon="-0.3932707">
    <name>33 Boulevard Bléroit</name>
    <cmt>Amenity::entertainment:public_bookcase</cmt>
    <type>Boite à livre</type>
  </wpt>
  <wpt lat="43.168090699999986" lon="-0.5930327999999999">
    <name>D238</name>
    <cmt>Amenity::entertainment:public_bookcase</cmt>
    <desc>Derrière l arrêt de bus</desc>
    <type>Boite à livre</type>
  </wpt>
  <wpt lat="44.22447109999998" lon="-1.1518441">
    <name>29 route de pontenx</name>
    <cmt>Amenity::entertainment:public_bookcase</cmt>
    <desc>Derrière la mairie, à l initiative du conseil municipal des Jeunes</desc>
    <type>Boite à livre</type>
  </wpt>
  <wpt lat="47.0083328" lon="0.08762110000000001">
    <name>Place porte de chinon</name>
    <cmt>Amenity::entertainment:public_bookcase</cmt>
    <desc>La boîte se trouve devant le laboratoire</desc>
    <type>Boite à livre</type>
  </wpt>
  <wpt lat="43.4000256" lon="-0.387791">
    <name>Rue du Béarn</name>
    <cmt>Amenity::entertainment:public_bookcase</cmt>
    <desc>La boite est située dans le parc Lechaud.</desc>
    <type>Boite à livre</type>
  </wpt>
  <wpt lat="46.82725629999998" lon="-0.1470406">
    <name>Route de Soulièvres</name>
    <cmt>Amenity::entertainment:public_bookcase</cmt>
    <desc>Boite à lire dans le parc de Soulièvres près des jeux pour enfants</desc>
    <type>Boite à livre</type>
  </wpt>
  <wpt lat="44.8562861" lon="-0.6285522">
    <name>Rue Stéhelin</name>
    <cmt>Amenity::entertainment:public_bookcase</cmt>
    <type>Boite à livre</type>
  </wpt>
  <wpt lat="46.77593749999999" lon="0.3588348">
    <name>Rue du château</name>
    <cmt>Amenity::entertainment:public_bookcase</cmt>
    <desc>Prés du château</desc>
    <type>Boite à livre</type>
  </wpt>
  <wpt lat="45.643573499999995" lon="-1.0691111">
    <name>front de mer</name>
    <cmt>Amenity::entertainment:public_bookcase</cmt>
    <desc>près de l auditorium Royan</desc>
    <type>Boite à livre</type>
  </wpt>
  <wpt lat="45.83100919999998" lon="1.0075389">
    <name>45 rue Jean Giraudoux</name>
    <cmt>Amenity::entertainment:public_bookcase</cmt>
    <desc>Devant le Vival</desc>
    <type>Boite à livre</type>
  </wpt>
  <wpt lat="46.327690600000004" lon="-0.48126099999999994">
    <name>Place Louis Jouvet</name>
    <cmt>Amenity::entertainment:public_bookcase</cmt>
    <desc>Au pied des immeubles, à proximité d une aire de jeux et d&apos;un espace arboré. Bien fréquentée et appréciée par les habitants du quartier.</desc>
    <type>Boite à livre</type>
  </wpt>
  <wpt lat="45.18417719999998" lon="-0.58136">
    <name>Ecole</name>
    <cmt>Amenity::entertainment:public_bookcase</cmt>
    <type>Boite à livre</type>
  </wpt>
  <wpt lat="44.841778899999994" lon="0.215022">
    <name>Place de la mairie</name>
    <cmt>Amenity::entertainment:public_bookcase</cmt>
    <desc>Sous les arcades</desc>
    <type>Boite à livre</type>
  </wpt>
  <wpt lat="46.10496029999999" lon="-1.0570925">
    <name>Salle du parc</name>
    <cmt>Amenity::entertainment:public_bookcase</cmt>
    <desc>Située devant le terrain de pétanque</desc>
    <type>Boite à livre</type>
  </wpt>
  <wpt lat="44.776382299999995" lon="-0.3490536">
    <name>62 Boulevard Victor Hugo</name>
    <cmt>Amenity::entertainment:public_bookcase</cmt>
    <desc>MAJ : n&apos;existe plus</desc>
    <type>Boite à livre</type>
  </wpt>
  <wpt lat="45.5118604" lon="-0.6368422">
    <name>11 rue du velodrome</name>
    <cmt>Amenity::entertainment:public_bookcase</cmt>
    <desc>devant les commerces de proximité Vival, très belle initiative.</desc>
    <type>Boite à livre</type>
  </wpt>
  <wpt lat="46.316628699999995" lon="-0.9894347000000001">
    <name>Parc de la Mairie</name>
    <cmt>Amenity::entertainment:public_bookcase</cmt>
    <desc>Elle est à côté des panneaux d affichage</desc>
    <type>Boite à livre</type>
  </wpt>
  <wpt lat="44.8652494" lon="-0.5961679">
    <name>Parc De L&apos;ermitage</name>
    <cmt>Amenity::entertainment:public_bookcase</cmt>
    <desc>La boite à lire se trouve à gauche, en entrant dans le parc, sous le grand pin parasol.</desc>
    <type>Boite à livre</type>
  </wpt>
  <wpt lat="44.78211179999999" lon="-0.5703999">
    <name>14 bis rue du Professeur Calmette</name>
    <cmt>Amenity::entertainment:public_bookcase</cmt>
    <desc>La boite à Lire se trouve juste devant l&apos;entrée de la piscine muniscipale.</desc>
    <type>Boite à livre</type>
  </wpt>
  <wpt lat="44.58221830000001" lon="-0.039008400000000006">
    <name>Rue Peysseguin</name>
    <cmt>Amenity::entertainment:public_bookcase</cmt>
    <desc>En face de la crêperie dans la ruelle</desc>
    <type>Boite à livre</type>
  </wpt>
  <wpt lat="44.60082049999999" lon="0.3598865">
    <name>5 place Martignac</name>
    <cmt>Amenity::entertainment:public_bookcase</cmt>
    <desc>Sous l&apos;abri-bus, devant le centre des impôts</desc>
    <type>Boite à livre</type>
  </wpt>
  <wpt lat="46.39238399999999" lon="1.9453489999999998">
    <name>Moutier-Palcard</name>
    <cmt>Amenity::entertainment:public_bookcase</cmt>
    <desc>Sous l abribus en face de la Mairie</desc>
    <type>Boite à livre</type>
  </wpt>
  <wpt lat="45.00624599999998" lon="-0.617424">
    <name>Caminot de Sauves</name>
    <cmt>Amenity::entertainment:public_bookcase</cmt>
    <desc>Boîte à lire associative Maily maylo Macau.</desc>
    <type>Boite à livre</type>
  </wpt>
  <wpt lat="44.284338" lon="-0.2540705">
    <name>Route de Maillas</name>
    <cmt>Amenity::entertainment:public_bookcase</cmt>
    <desc>Devant l&apos;Eglise</desc>
    <type>Boite à livre</type>
  </wpt>
  <wpt lat="45.95577559999998" lon="-0.8694659000000001">
    <name>rue du vieux puits</name>
    <cmt>Amenity::entertainment:public_bookcase</cmt>
    <desc>libre accès, se trouve sur la petite place du lieu-dit de Tonnay-Charente à la Noue, super sympa avec banc a coté pour lire tranquille, et parking.</desc>
    <type>Boite à livre</type>
  </wpt>
  <wpt lat="44.8529935" lon="0.4881309">
    <name>hall de la mairie</name>
    <cmt>Amenity::entertainment:public_bookcase</cmt>
    <type>Boite à livre</type>
  </wpt>
  <wpt lat="45.637115" lon="1.6404460000000003">
    <name>Le Bourg</name>
    <cmt>Amenity::entertainment:public_bookcase</cmt>
    <desc>Sur le parking de la commune</desc>
    <type>Boite à livre</type>
  </wpt>
  <wpt lat="44.891408600000005" lon="1.2157009">
    <name>Place de la Petite Rigaudie</name>
    <cmt>Amenity::entertainment:public_bookcase</cmt>
    <type>Boite à livre</type>
  </wpt>
  <wpt lat="46.14105970000001" lon="1.0354842">
    <name>4 rue de l église</name>
    <cmt>Amenity::entertainment:public_bookcase</cmt>
    <desc>Dans le parc du presbytère</desc>
    <type>Boite à livre</type>
  </wpt>
  <wpt lat="45.00121839999999" lon="-1.2019915">
    <name>2 allées Pierre Ortal</name>
    <cmt>Amenity::entertainment:public_bookcase</cmt>
    <desc>En haut des marches pour accéder à la plage centrale.</desc>
    <type>Boite à livre</type>
  </wpt>
  <wpt lat="44.179976520234426" lon="0.760390162467957">
    <name>Mairie</name>
    <cmt>Amenity::entertainment:public_bookcase</cmt>
    <desc>Petit panel intéressant dans la boîte de Livres Voyageurs</desc>
    <type>Boite à livre</type>
  </wpt>
  <wpt lat="46.5599052" lon="0.069951">
    <name>Rue de l Eglise</name>
    <cmt>Amenity::entertainment:public_bookcase</cmt>
    <desc>Située au coeur du village, près du restaurant  A fleur de peau en face du parking</desc>
    <type>Boite à livre</type>
  </wpt>
  <wpt lat="45.757622" lon="0.812785">
    <name>Rue de la roseraie</name>
    <cmt>Amenity::entertainment:public_bookcase</cmt>
    <desc>Sur le champ de foire, à côté de la bascule</desc>
    <type>Boite à livre</type>
  </wpt>
  <wpt lat="45.72744480000001" lon="1.1517914">
    <name>9 route de beynac</name>
    <cmt>Amenity::entertainment:public_bookcase</cmt>
    <desc>à côté du distributeur de pain, proche de la salle des fêtes</desc>
    <type>Boite à livre</type>
  </wpt>
  <wpt lat="44.817493923252286" lon="-0.589651465415955">
    <name>56 rue Roustaing</name>
    <cmt>Amenity::entertainment:public_bookcase</cmt>
    <desc>A l&apos;entrée du parc Curval</desc>
    <type>Boite à livre</type>
  </wpt>
  <wpt lat="46.22280499999999" lon="-0.144659">
    <name>Place Bujault</name>
    <cmt>Amenity::entertainment:public_bookcase</cmt>
    <desc>Installée par la municipalité en septembre 2016. On y trouve livres  revues  CD et DVD. Il en existe une seconde  près du temple.</desc>
    <type>Boite à livre</type>
  </wpt>
  <wpt lat="44.502702" lon="0.168189">
    <name>Gare Sncf</name>
    <cmt>Amenity::entertainment:public_bookcase</cmt>
    <desc>En face de la gare  petit square à côté pour s?asseoir et lire.</desc>
    <type>Boite à livre</type>
  </wpt>
  <wpt lat="45.830423200000006" lon="1.2581018">
    <name>37 rue du clocher</name>
    <cmt>Amenity::entertainment:public_bookcase</cmt>
    <type>Boite à livre</type>
  </wpt>
  <wpt lat="43.294739199999995" lon="-0.37486889999999995">
    <name>Parc du Château - Basse Plante</name>
    <cmt>Amenity::entertainment:public_bookcase</cmt>
    <desc>Une boîte à lire est installée dans le jardin basse plante du château de Pau. C est un parc ombragé, calme avec de nombreux banc, un endroit parfait pour bouquiner.</desc>
    <type>Boite à livre</type>
  </wpt>
  <wpt lat="46.1203165" lon="1.046434">
    <name>2 rue Lafayette</name>
    <cmt>Amenity::entertainment:public_bookcase</cmt>
    <desc>Dans le square de la rue Lafayette.</desc>
    <type>Boite à livre</type>
  </wpt>
  <wpt lat="44.27232969999999" lon="-1.1852053">
    <name>Place de la grange</name>
    <cmt>Amenity::entertainment:public_bookcase</cmt>
    <type>Boite à livre</type>
  </wpt>
  <wpt lat="44.521687" lon="0.37477600000000005">
    <name>Chemin de Ceinture</name>
    <cmt>Amenity::entertainment:public_bookcase</cmt>
    <desc>Devant l&apos;espace de jeu</desc>
    <type>Boite à livre</type>
  </wpt>
  <wpt lat="45.26093899999999" lon="1.7506840000000001">
    <name>Rue du 9 juin 1944</name>
    <cmt>Amenity::entertainment:public_bookcase</cmt>
    <desc>Installée par le Lion&apos;s Club</desc>
    <type>Boite à livre</type>
  </wpt>
  <wpt lat="43.49078459999999" lon="-1.4726305">
    <name>22 rue marengo</name>
    <cmt>Amenity::entertainment:public_bookcase</cmt>
    <desc>Kalostrape OstatuaMarengo Karrika 22aBibliothèque participative</desc>
    <type>Boite à livre</type>
  </wpt>
  <wpt lat="44.8449444" lon="-0.6554674">
    <name>Parc du vivier</name>
    <cmt>Amenity::entertainment:public_bookcase</cmt>
    <desc>Cette Boîte a été installée par la municipalité de Mérignac.</desc>
    <type>Boite à livre</type>
  </wpt>
  <wpt lat="43.11431819999998" lon="-0.317977">
    <name>Rue de l eglise</name>
    <cmt>Amenity::entertainment:public_bookcase</cmt>
    <desc>À côté de la salle pour tous</desc>
    <type>Boite à livre</type>
  </wpt>
  <wpt lat="43.30577699999999" lon="-0.37129970000000007">
    <name>Rue de l abbé Brémond</name>
    <cmt>Amenity::entertainment:public_bookcase</cmt>
    <desc>Située sur le parvis de l église St Joseph</desc>
    <type>Boite à livre</type>
  </wpt>
  <wpt lat="45.8732247" lon="1.0420509000000002">
    <name>Mairie de Chauzat</name>
    <cmt>Amenity::entertainment:public_bookcase</cmt>
    <desc>Installée sur la facade de la Mairie de Chauzat</desc>
    <type>Boite à livre</type>
  </wpt>
  <wpt lat="46.107822999999996" lon="-0.762425">
    <name>Rue Paul Gauguin</name>
    <cmt>Amenity::entertainment:public_bookcase</cmt>
    <desc>En face du parking et local à poubelles</desc>
    <type>Boite à livre</type>
  </wpt>
  <wpt lat="45.60374729999998" lon="-0.9851108000000001">
    <name>Place de la résistance St Georges de Didonne</name>
    <cmt>Amenity::entertainment:public_bookcase</cmt>
    <desc>Boite à Lire Lions Club</desc>
    <type>Boite à livre</type>
  </wpt>
  <wpt lat="46.1884335" lon="2.4253269">
    <name>Av Georges clémenceau</name>
    <cmt>Amenity::entertainment:public_bookcase</cmt>
    <desc>Tout prés  du bistrot d&apos;Autrefois.</desc>
    <type>Boite à livre</type>
  </wpt>
  <wpt lat="44.8022013" lon="-0.6476651">
    <name>Place du monteil</name>
    <cmt>Amenity::entertainment:public_bookcase</cmt>
    <desc>Pas très intéressant du au fait qu il y a une libraire a 50 mètre</desc>
    <type>Boite à livre</type>
  </wpt>
  <wpt lat="43.544529499999996" lon="-1.1042092">
    <name>67 rue Alsace Lorraine</name>
    <cmt>Amenity::entertainment:public_bookcase</cmt>
    <desc>Une jolie boîte à lire à Peyrehorade.</desc>
    <type>Boite à livre</type>
  </wpt>
  <wpt lat="45.00988319999998" lon="-1.2009460999999997">
    <name>route de l athantique plage nord</name>
    <cmt>Amenity::entertainment:public_bookcase</cmt>
    <desc>camping village les grands pinsdevant les commerces de proximité Vival, très belle initiative.</desc>
    <type>Boite à livre</type>
  </wpt>
  <wpt lat="45.41626999999997" lon="-0.5957919999999999">
    <name>Consac</name>
    <cmt>Amenity::entertainment:public_bookcase</cmt>
    <desc>La boite à lire, très riche, se trouve dans un bel abri en bois, à côté de l église, en face de la mairie.</desc>
    <type>Boite à livre</type>
  </wpt>
  <wpt lat="44.8192041" lon="-0.5775849">
    <name>109 rue Bertrand de Goth</name>
    <cmt>Amenity::entertainment:public_bookcase</cmt>
    <desc>Square Bertrand de Goth</desc>
    <type>Boite à livre</type>
  </wpt>
  <wpt lat="46.78657339999999" lon="0.8128632999999998">
    <name>4 cours Pasteur</name>
    <cmt>Amenity::entertainment:public_bookcase</cmt>
    <desc>Juste derrière les Thermes St Roch. Les contourner par le chemin fleuri qui descend vers la bibliothèque. Vous trouverez la boîte à lire sur votre droite, près d un banc.</desc>
    <type>Boite à livre</type>
  </wpt>
  <wpt lat="45.2014731" lon="0.6864964999999998">
    <name>Route d&apos;angouleme</name>
    <cmt>Amenity::entertainment:public_bookcase</cmt>
    <desc>A côté du Sans Reseve.</desc>
    <type>Boite à livre</type>
  </wpt>
  <wpt lat="45.699490700000005" lon="1.538921">
    <name>rue Henri Lagrange</name>
    <cmt>Amenity::entertainment:public_bookcase</cmt>
    <desc>La boite se trouve près de l arrêt du bus</desc>
    <type>Boite à livre</type>
  </wpt>
  <wpt lat="45.936055199999984" lon="-0.9611830000000001">
    <name>Rue cochon duvivier</name>
    <cmt>Amenity::entertainment:public_bookcase</cmt>
    <type>Boite à livre</type>
  </wpt>
  <wpt lat="44.841340699999996" lon="0.3181232">
    <name>Route de Lartigue</name>
    <cmt>Amenity::entertainment:public_bookcase</cmt>
    <desc>Juste à côté de la mairie de St-Nazaire et du cimetière.</desc>
    <type>Boite à livre</type>
  </wpt>
  <wpt lat="43.890970899999985" lon="-0.5028176">
    <name>Berges de la midouze</name>
    <cmt>Amenity::entertainment:public_bookcase</cmt>
    <type>Boite à livre</type>
  </wpt>
  <wpt lat="44.2004461" lon="0.6334154">
    <name>Jardin public le Floréal</name>
    <cmt>Amenity::entertainment:public_bookcase</cmt>
    <desc>Dans le jardin</desc>
    <type>Boite à livre</type>
  </wpt>
  <wpt lat="43.18469689999998" lon="-0.11511379999999999">
    <name>place saint Laurent</name>
    <cmt>Amenity::entertainment:public_bookcase</cmt>
    <desc>La boite à lire se situe dans le jardin public près de la place Saint Laurent. Livres à prendre et /ou à déposer</desc>
    <type>Boite à livre</type>
  </wpt>
  <wpt lat="45.98854099999999" lon="0.9215110000000001">
    <name>lieu dit la Brégère</name>
    <cmt>Amenity::entertainment:public_bookcase</cmt>
    <desc>Fait par mes petites mains.</desc>
    <type>Boite à livre</type>
  </wpt>
  <wpt lat="44.218728299999995" lon="-1.2043602000000002">
    <name>mairie</name>
    <cmt>Amenity::entertainment:public_bookcase</cmt>
    <desc>Armoire pleine de livres pour adultes et commode livres pour enfants derriere la mairie</desc>
    <type>Boite à livre</type>
  </wpt>
  <wpt lat="46.5833934" lon="0.3424849">
    <name>L envers du bocal</name>
    <cmt>Amenity::entertainment:public_bookcase</cmt>
    <type>Boite à livre</type>
  </wpt>
  <wpt lat="44.8534267" lon="0.4893217">
    <name>jardin perdoux</name>
    <cmt>Amenity::entertainment:public_bookcase</cmt>
    <desc>boite situé a cote du kiosque</desc>
    <type>Boite à livre</type>
  </wpt>
  <wpt lat="43.3681909672076" lon="-1.400086283683777">
    <name>Route du Bas Cambo</name>
    <cmt>Amenity::entertainment:public_bookcase</cmt>
    <desc>Boite a lire située à côté d un parking et d un terrain de basket.</desc>
    <type>Boite à livre</type>
  </wpt>
  <wpt lat="46.9206536" lon="0.2115308">
    <name>3 allée des Maronniers</name>
    <cmt>Amenity::entertainment:public_bookcase</cmt>
    <desc>Bibliothèque partagée dans la supérette communale dont je suis le gérant.</desc>
    <type>Boite à livre</type>
  </wpt>
  <wpt lat="44.681479999999986" lon="-0.527753">
    <name>Départemental 108</name>
    <cmt>Amenity::entertainment:public_bookcase</cmt>
    <desc>Située près de la salle des fêtes</desc>
    <type>Boite à livre</type>
  </wpt>
  <wpt lat="46.575070299999986" lon="0.3832937">
    <name>10 Boulevard Savari</name>
    <cmt>Amenity::entertainment:public_bookcase</cmt>
    <type>Boite à livre</type>
  </wpt>
  <wpt lat="45.645024599999985" lon="-0.9637716000000001">
    <name>Rue Georges Brassens</name>
    <cmt>Amenity::entertainment:public_bookcase</cmt>
    <desc>Boite à lire située à l&apos;arrière du centre Georges Brassens, près de la salle des fêtes</desc>
    <type>Boite à livre</type>
  </wpt>
  <wpt lat="43.116418599999996" lon="-0.8635638">
    <name>Place Centrale</name>
    <cmt>Amenity::entertainment:public_bookcase</cmt>
    <type>Boite à livre</type>
  </wpt>
  <wpt lat="44.8586691" lon="-0.2563743">
    <name>29 rue de majesté</name>
    <cmt>Amenity::entertainment:public_bookcase</cmt>
    <desc>Sur le parking de l écoleMAJ : n&apos;existe plus</desc>
    <type>Boite à livre</type>
  </wpt>
  <wpt lat="44.86704" lon="-0.609208">
    <name>78 rue du président Kennedy</name>
    <cmt>Amenity::entertainment:public_bookcase</cmt>
    <desc>Devant la maternelle de la Chenille Verte</desc>
    <type>Boite à livre</type>
  </wpt>
  <wpt lat="45.649948999999985" lon="0.146861">
    <name>Jardin vert</name>
    <cmt>Amenity::entertainment:public_bookcase</cmt>
    <desc>À l&apos;entrée du Jardin vert, côté Cathédrale.</desc>
    <type>Boite à livre</type>
  </wpt>
  <wpt lat="44.83601899999999" lon="0.7399256000000001">
    <name>3 rue du pont</name>
    <cmt>Amenity::entertainment:public_bookcase</cmt>
    <desc>La boite se trouve sur la petite place qui fait face à l église</desc>
    <type>Boite à livre</type>
  </wpt>
  <wpt lat="43.18987119999999" lon="-0.2093699">
    <name>place de la Fontaine</name>
    <cmt>Amenity::entertainment:public_bookcase</cmt>
    <desc>La boite est mobile elle se promène de commerces en commerces sur la place de la Fontaine  chaque professionnel indique sur sa vitrine l endroit où elle se trouve. Un marque page vous est offert.</desc>
    <type>Boite à livre</type>
  </wpt>
  <wpt lat="43.2970743" lon="-0.3767008">
    <name>Rue Bayard</name>
    <cmt>Amenity::entertainment:public_bookcase</cmt>
    <desc>La boîte se trouve sur le trottoir en face du laboratoire d analyse juste à côté du parking Place de Verdun.</desc>
    <type>Boite à livre</type>
  </wpt>
  <wpt lat="45.168677400000014" lon="1.4947868">
    <name>Place des Arcades</name>
    <cmt>Amenity::entertainment:public_bookcase</cmt>
    <desc>Le Conseil Municipal des Jeunes de Brive a installé sur l&apos;ensemble de la commune  plusieurs boites à lire  dont celle située place des Arcades  au coeur du quartier de Rivet.</desc>
    <type>Boite à livre</type>
  </wpt>
  <wpt lat="44.85480409999999" lon="-0.49896759999999996">
    <name>Avenue Virecourt</name>
    <cmt>Amenity::entertainment:public_bookcase</cmt>
    <desc>La boîte est située juste à côté du Feu Rouge Et De La Résidence Batailhe ...</desc>
    <type>Boite à livre</type>
  </wpt>
  <wpt lat="46.842849399999984" lon="0.2766424">
    <name>Rue de la liberté</name>
    <cmt>Amenity::entertainment:public_bookcase</cmt>
    <desc>Boite à lire mise en place par Partage Vienne 86 et l&apos;Improbable librairie de Saint-Genest d&apos;Ambière  avec le soutien de la communauté de Communes du Lencloitrais.</desc>
    <type>Boite à livre</type>
  </wpt>
  <wpt lat="45.81984639999998" lon="1.1019646">
    <name>Rue du 19 mars 1962</name>
    <cmt>Amenity::entertainment:public_bookcase</cmt>
    <desc>3 ème boîte à saint priest. Bleu clair. Réservée aux jeunes lecteurs. livres et dvd pour enfants. à côté de la boîte verte.</desc>
    <type>Boite à livre</type>
  </wpt>
  <wpt lat="44.86851699999999" lon="-0.6449720000000001">
    <name>Bois de Gramond</name>
    <cmt>Amenity::entertainment:public_bookcase</cmt>
    <desc>La Boite est Située Dans Le Parc</desc>
    <type>Boite à livre</type>
  </wpt>
  <wpt lat="45.75905759999999" lon="-0.5407344">
    <name>19 rue de la république</name>
    <cmt>Amenity::entertainment:public_bookcase</cmt>
    <desc>Bibliothèque La Chapelle des Pots</desc>
    <type>Boite à livre</type>
  </wpt>
  <wpt lat="46.97898240000001" lon="0.0994114">
    <name>4 rue de la mairie</name>
    <cmt>Amenity::entertainment:public_bookcase</cmt>
    <desc>Troc livres sous le préau de la maire. Espace lecture livres revues étagère pour enfants. Fonctionne depuis mars 2016.</desc>
    <type>Boite à livre</type>
  </wpt>
  <wpt lat="45.28014310000001" lon="0.21135590000000004">
    <name>base de loisir de Poltrot</name>
    <cmt>Amenity::entertainment:public_bookcase</cmt>
    <desc>Petite boite situéevà côté de l entrée du moulin.Cooronnées : 45.280032,0.211553</desc>
    <type>Boite à livre</type>
  </wpt>
  <wpt lat="44.803580099999984" lon="-0.6858650000000001">
    <name>Parc du Bourgaillh, serre tropicale</name>
    <cmt>Amenity::entertainment:public_bookcase</cmt>
    <desc>La boite à lire se trouve à l entrée de la serre tropicale du parc du Bourgailh</desc>
    <type>Boite à livre</type>
  </wpt>
  <wpt lat="46.678045" lon="0.24717100000000003">
    <name>rue des Lilas</name>
    <cmt>Amenity::entertainment:public_bookcase</cmt>
    <desc>Au rond point des Lilas</desc>
    <type>Boite à livre</type>
  </wpt>
  <wpt lat="44.832041399999994" lon="-0.5756486">
    <name>Place Francis de Pressensé</name>
    <cmt>Amenity::entertainment:public_bookcase</cmt>
    <type>Boite à livre</type>
  </wpt>
  <wpt lat="45.180399000000016" lon="0.7118353">
    <name>Rue du 26eme Régiment d?infanterie</name>
    <cmt>Amenity::entertainment:public_bookcase</cmt>
    <desc>Située en face du centre des impôts à côté du musée Vesunna et du jardin de Vésone</desc>
    <type>Boite à livre</type>
  </wpt>
  <wpt lat="46.46508860000001" lon="0.0682636">
    <name>6 Rue du vieux château</name>
    <cmt>Amenity::entertainment:public_bookcase</cmt>
    <desc>Ancienne cabine téléphonique joliment rénovée et peinte en rouge, sur le petit parking à côté de la bibliothèque.</desc>
    <type>Boite à livre</type>
  </wpt>
  <wpt lat="45.103819899999976" lon="-0.6465662000000001">
    <name>Le port</name>
    <cmt>Amenity::entertainment:public_bookcase</cmt>
    <type>Boite à livre</type>
  </wpt>
  <wpt lat="45.192399300000005" lon="1.4532779">
    <name>Avenue du 11 Novembre</name>
    <cmt>Amenity::entertainment:public_bookcase</cmt>
    <desc>Boîte à lire située à côté de la mairie.</desc>
    <type>Boite à livre</type>
  </wpt>
  <wpt lat="44.17998020000002" lon="0.7603863">
    <name>Mairie</name>
    <cmt>Amenity::entertainment:public_bookcase</cmt>
    <type>Boite à livre</type>
  </wpt>
  <wpt lat="45.74741589999998" lon="-0.6784347">
    <name>15 Rue Champagne Saint-Georges, 17100 Saintes</name>
    <cmt>Amenity::entertainment:public_bookcase</cmt>
    <desc>La boite se trouve dans la galerie marchande de Leclerc Saintes Les Coteaux,près du cinéma.</desc>
    <type>Boite à livre</type>
  </wpt>
  <wpt lat="46.024679000000006" lon="-0.298356">
    <name>Place du Violon</name>
    <cmt>Amenity::entertainment:public_bookcase</cmt>
    <desc>, en face de l église Saint Brice, dans le bourg de St mandé</desc>
    <type>Boite à livre</type>
  </wpt>
  <wpt lat="43.267248899999984" lon="-0.47199920000000006">
    <name>bourg du village, au bord de la D346</name>
    <cmt>Amenity::entertainment:public_bookcase</cmt>
    <desc>boite à lire de village, bien fournie, prés de l?arrêt de bus, a coté des transports Peyrucq</desc>
    <type>Boite à livre</type>
  </wpt>
  <wpt lat="45.58323209999999" lon="0.0468257">
    <name>Rue de l eglise</name>
    <cmt>Amenity::entertainment:public_bookcase</cmt>
    <desc>Elle est gigantesque et bien remplie</desc>
    <type>Boite à livre</type>
  </wpt>
  <wpt lat="44.8333733" lon="-0.5853831">
    <name>1 rue Dandicolle</name>
    <cmt>Amenity::entertainment:public_bookcase</cmt>
    <desc>Devant la maison de retraite Korian</desc>
    <type>Boite à livre</type>
  </wpt>
  <wpt lat="46.67670199999998" lon="0.217694">
    <name>Centre bourg</name>
    <cmt>Amenity::entertainment:public_bookcase</cmt>
    <type>Boite à livre</type>
  </wpt>
  <wpt lat="45.74354409999999" lon="-0.6414769000000001">
    <name>PLACE DE L EGLISE</name>
    <cmt>Amenity::entertainment:public_bookcase</cmt>
    <desc>Ancienne cabine téléphonique entièrement vitrée présentant une centaine d&apos;ouvrages, principalement des romans adultes en français.</desc>
    <type>Boite à livre</type>
  </wpt>
  <wpt lat="44.931016799999995" lon="-0.2000036">
    <name>Rue de Tropchaud</name>
    <cmt>Amenity::entertainment:public_bookcase</cmt>
    <desc>Cabane à lire installée par la municipalité en face de la Maison des Associations et de la salle polyvalente</desc>
    <type>Boite à livre</type>
  </wpt>
  <wpt lat="46.73619209999999" lon="0.24494650000000004">
    <name>Place de l église de blaslay</name>
    <cmt>Amenity::entertainment:public_bookcase</cmt>
    <desc>À côté de la mairie</desc>
    <type>Boite à livre</type>
  </wpt>
  <wpt lat="44.902668500000004" lon="-0.700909">
    <name>Place Buffon</name>
    <cmt>Amenity::entertainment:public_bookcase</cmt>
    <desc>Pour plus de précision, voici les coordonnées exactes de la boite : 44°48 37.5 N 0°39&apos;26.1W</desc>
    <type>Boite à livre</type>
  </wpt>
  <wpt lat="46.204592399999996" lon="-1.3688089">
    <name>Porte de la flotte</name>
    <cmt>Amenity::entertainment:public_bookcase</cmt>
    <desc>Boîte artisanale à l abri des intempéries</desc>
    <type>Boite à livre</type>
  </wpt>
  <wpt lat="46.365292" lon="-0.3073742">
    <name>Rte de Cherveux</name>
    <cmt>Amenity::entertainment:public_bookcase</cmt>
    <desc>A la sortie de la Crèche sur la D7 après le pont sur la droite</desc>
    <type>Boite à livre</type>
  </wpt>
  <wpt lat="44.70294729999997" lon="-0.4482149">
    <name>Rue de la papeterie</name>
    <cmt>Amenity::entertainment:public_bookcase</cmt>
    <desc>Sur le parking de la poste</desc>
    <type>Boite à livre</type>
  </wpt>
  <wpt lat="44.74980519999999" lon="-0.4345243">
    <name>Avenue de loustallaut</name>
    <cmt>Amenity::entertainment:public_bookcase</cmt>
    <desc>Sur la grande place à côté des jeux pour enfant en face de la boulangerie.</desc>
    <type>Boite à livre</type>
  </wpt>
  <wpt lat="44.86470189999999" lon="-0.6478956">
    <name>27 Rue Camille Saint-Saëns</name>
    <cmt>Amenity::entertainment:public_bookcase</cmt>
    <desc>La Boîte Est Située À Côté De La Crèche ...</desc>
    <type>Boite à livre</type>
  </wpt>
  <wpt lat="44.76747629999999" lon="-0.6095668">
    <name>Allée de Pfungstadt</name>
    <cmt>Amenity::entertainment:public_bookcase</cmt>
    <desc>Parc de Mandavit, devant l école de musique</desc>
    <type>Boite à livre</type>
  </wpt>
  <wpt lat="45.676713100000015" lon="0.1292364">
    <name>Gymnase des Berneries, 12 avenue de l&apos;union</name>
    <cmt>Amenity::entertainment:public_bookcase</cmt>
    <desc>3 cubes en diagonale installés en 2018 dans le hall du gymnase et accessible aux adhérents ou aux heures d&apos;ouverture. La sélection est vérifiée régulièrement</desc>
    <type>Boite à livre</type>
  </wpt>
  <wpt lat="44.80768119999999" lon="-0.589866">
    <name>Parc Peixotto</name>
    <cmt>Amenity::entertainment:public_bookcase</cmt>
    <desc>La boite se trouve en face de la médiathèque Castagnéra.</desc>
    <type>Boite à livre</type>
  </wpt>
  <wpt lat="45.365187" lon="0.6473939999999999">
    <name>Impasse Violet le Duc</name>
    <cmt>Amenity::entertainment:public_bookcase</cmt>
    <desc>Boîte à lire à l intersection de l&apos;avenue du 8 mai 1945 juste à côté de la boîte aux lettres de la poste.</desc>
    <type>Boite à livre</type>
  </wpt>
  <wpt lat="46.700300999999975" lon="0.43068399999999996">
    <name>la plage</name>
    <cmt>Amenity::entertainment:public_bookcase</cmt>
    <desc>Installée sur le site dénommé  la plage sur les bords du Clain, cette boite à livres est une cabine de plage.</desc>
    <type>Boite à livre</type>
  </wpt>
  <wpt lat="45.476857" lon="-0.7956205">
    <name>Place Parias</name>
    <cmt>Amenity::entertainment:public_bookcase</cmt>
    <desc>Mise en place par la Municipalité.</desc>
    <type>Boite à livre</type>
  </wpt>
  <wpt lat="44.50073549999999" lon="0.1636712">
    <name>1 place des Droits de l&apos;Homme</name>
    <cmt>Amenity::entertainment:public_bookcase</cmt>
    <type>Boite à livre</type>
  </wpt>
  <wpt lat="46.62483549999999" lon="0.40952159999999993">
    <name>Place de Sarzec</name>
    <cmt>Amenity::entertainment:public_bookcase</cmt>
    <desc>Mis en service fin 2015 à l&apos;initiative du comité de quartier de Poitiers Ouest CAPO.</desc>
    <type>Boite à livre</type>
  </wpt>
  <wpt lat="44.794845" lon="-0.6184579">
    <name>Esplanade des Antilles</name>
    <cmt>Amenity::entertainment:public_bookcase</cmt>
    <desc>La boite à lire se trouve dans le bâtiment I de l université Bordeaux Montaigne, au rez-de-chaussée, côté esplanade des Antilles</desc>
    <type>Boite à livre</type>
  </wpt>
  <wpt lat="46.717615099999996" lon="0.5399412000000001">
    <name>Place de la Libération</name>
    <cmt>Amenity::entertainment:public_bookcase</cmt>
    <desc>Boite à lire rouge</desc>
    <type>Boite à livre</type>
  </wpt>
  <wpt lat="46.72183759999998" lon="0.8618222">
    <name>PLACE DE VICQ SUR GARTEMPE</name>
    <cmt>Amenity::entertainment:public_bookcase</cmt>
    <desc>Le projet de la boîte à lire a été porté par l&apos;Association des bénévoles et amis du réseau des bibliothèques.</desc>
    <type>Boite à livre</type>
  </wpt>
  <wpt lat="45.76977109999997" lon="1.3312332">
    <name>10 route de Toulouse</name>
    <cmt>Amenity::entertainment:public_bookcase</cmt>
    <desc>Sous les halles</desc>
    <type>Boite à livre</type>
  </wpt>
  <wpt lat="46.6468325" lon="-0.2529973">
    <name>Parc paysager de Saint Paul</name>
    <cmt>Amenity::entertainment:public_bookcase</cmt>
    <desc>En se promenant dans le parc</desc>
    <type>Boite à livre</type>
  </wpt>
  <wpt lat="45.60425399999998" lon="0.247496">
    <name>Le Bourg</name>
    <cmt>Amenity::entertainment:public_bookcase</cmt>
    <desc>Sous le porche de l&apos;ancienne école dans le bourg de Dirac  une boîte à lire très richement alimentée.</desc>
    <type>Boite à livre</type>
  </wpt>
  <wpt lat="44.20774709999998" lon="0.6052264">
    <name>Pont du canal du midi</name>
    <cmt>Amenity::entertainment:public_bookcase</cmt>
    <desc>D un côté boîte à lire et de l&apos;autre hôtel à insectes</desc>
    <type>Boite à livre</type>
  </wpt>
  <wpt lat="45.577259199999986" lon="-0.3067453">
    <name>18 route de cognac</name>
    <cmt>Amenity::entertainment:public_bookcase</cmt>
    <type>Boite à livre</type>
  </wpt>
  <wpt lat="43.256906300000004" lon="-0.3289215">
    <name>Eglise</name>
    <cmt>Amenity::entertainment:public_bookcase</cmt>
    <desc>Boite derrière l eglise sur un parking</desc>
    <type>Boite à livre</type>
  </wpt>
  <wpt lat="44.83042799999999" lon="-0.520807">
    <name>Hauts De Guitres</name>
    <cmt>Amenity::entertainment:public_bookcase</cmt>
    <desc>La boîte est Située Juste À Côté De L arrêt De Bus ...</desc>
    <type>Boite à livre</type>
  </wpt>
  <wpt lat="44.825280700000015" lon="-0.6144334">
    <name>Place d&apos;Arlac</name>
    <cmt>Amenity::entertainment:public_bookcase</cmt>
    <type>Boite à livre</type>
  </wpt>
  <wpt lat="45.503887899999995" lon="-0.7567483">
    <name>Route de la Côte de Beauté</name>
    <cmt>Amenity::entertainment:public_bookcase</cmt>
    <desc>Une ancienne cabine téléphonique qui à été réhabilitée en boite à livre</desc>
    <type>Boite à livre</type>
  </wpt>
  <wpt lat="43.26390099999998" lon="-0.587356">
    <name>Rue principale</name>
    <cmt>Amenity::entertainment:public_bookcase</cmt>
    <desc>Parking de la mairie</desc>
    <type>Boite à livre</type>
  </wpt>
  <wpt lat="43.769093" lon="-0.426048">
    <name>Arènes</name>
    <cmt>Amenity::entertainment:public_bookcase</cmt>
    <desc>La boîte à lire se trouve sous les arènes qui sont en face de la salle des sports, de basket notamment. Elle est visible depuis la route et facile d accès.</desc>
    <type>Boite à livre</type>
  </wpt>
  <wpt lat="45.71307849999999" lon="1.6055546">
    <name>7 Avenue Amédée Tarrade</name>
    <cmt>Amenity::entertainment:public_bookcase</cmt>
    <desc>A l&apos;entrée du parc.</desc>
    <type>Boite à livre</type>
  </wpt>
  <wpt lat="46.30596839999999" lon="1.7676279">
    <name>Rue de la Fontaine</name>
    <cmt>Amenity::entertainment:public_bookcase</cmt>
    <desc>Petite boite bien sympatrique, dans un lieu agréable.</desc>
    <type>Boite à livre</type>
  </wpt>
  <wpt lat="45.70509299999999" lon="0.287604">
    <name>Route de la braconne</name>
    <cmt>Amenity::entertainment:public_bookcase</cmt>
    <desc>Les favrauds</desc>
    <type>Boite à livre</type>
  </wpt>
  <wpt lat="45.832703800000004" lon="1.2585578">
    <name>Place Stalingrad</name>
    <cmt>Amenity::entertainment:public_bookcase</cmt>
    <desc>Dans le square Jean-Marie Masse</desc>
    <type>Boite à livre</type>
  </wpt>
  <wpt lat="45.250472699999996" lon="-0.8351187999999999">
    <name>2 Place Saint-Pierre</name>
    <cmt>Amenity::entertainment:public_bookcase</cmt>
    <desc>Il y a trois boîtes: une sur la place, une au niveau de l&apos;éco musée, une dans le jardin de l&apos;abbaye!</desc>
    <type>Boite à livre</type>
  </wpt>
  <wpt lat="44.66762329999999" lon="-0.38278769999999995">
    <name>4 rue de la mairie</name>
    <cmt>Amenity::entertainment:public_bookcase</cmt>
    <desc>La boite est à gauche du parc de jeux pour enfants. Beaucoup de livres entre 2012 et 2016</desc>
    <type>Boite à livre</type>
  </wpt>
  <wpt lat="46.324746999999995" lon="-0.4621140000000001">
    <name>Rue Victor Hugo</name>
    <cmt>Amenity::entertainment:public_bookcase</cmt>
    <desc>Boite à lettre de la Poste recyclée en boite à lire près des bancs pour attendre la navette de bus.</desc>
    <type>Boite à livre</type>
  </wpt>
  <wpt lat="45.5429119" lon="-0.8034339999999999">
    <name>place de la mairie</name>
    <cmt>Amenity::entertainment:public_bookcase</cmt>
    <desc>petite boite dans le square sur le mur devant la bibliothèque municipal</desc>
    <type>Boite à livre</type>
  </wpt>
  <wpt lat="44.82957960000001" lon="0.227196">
    <name>67 Avenue Jean Raymond Guyon</name>
    <cmt>Amenity::entertainment:public_bookcase</cmt>
    <desc>Devant la Mairie.</desc>
    <type>Boite à livre</type>
  </wpt>
  <wpt lat="45.962807999999995" lon="-0.9821873000000001">
    <name>Rue du Fort</name>
    <cmt>Amenity::entertainment:public_bookcase</cmt>
    <desc>Sur un vélo a l intersection entre le chemin du Fort et la D214E5</desc>
    <type>Boite à livre</type>
  </wpt>
  <wpt lat="45.935617999999984" lon="-0.9624030000000001">
    <name>rue Pierre loti</name>
    <cmt>Amenity::entertainment:public_bookcase</cmt>
    <desc>à l&apos;angle de la place.</desc>
    <type>Boite à livre</type>
  </wpt>
  <wpt lat="45.70045108652681" lon="-0.7804745435714718">
    <name>Avenue Jean de Vivonne</name>
    <cmt>Amenity::entertainment:public_bookcase</cmt>
    <desc>La boîte à livres est installée dans une ancienne cabine téléphonique face à la Poste.</desc>
    <type>Boite à livre</type>
  </wpt>
  <wpt lat="43.50126999999999" lon="-0.4555920000000001">
    <name>Route de fichous</name>
    <cmt>Amenity::entertainment:public_bookcase</cmt>
    <desc>Sous l&apos;abri de bus situé juste à côté de la mairie</desc>
    <type>Boite à livre</type>
  </wpt>
  <wpt lat="46.15330059999998" lon="-1.0923859">
    <name>Parc de la mairie</name>
    <cmt>Amenity::entertainment:public_bookcase</cmt>
    <desc>Installée par les habitants de la rue des bergeronnettes, elle est près de la mairie,  à côté des balançoires.</desc>
    <type>Boite à livre</type>
  </wpt>
  <wpt lat="45.2284905" lon="1.5827606">
    <name>1718 place de l&apos;église</name>
    <cmt>Amenity::entertainment:public_bookcase</cmt>
    <type>Boite à livre</type>
  </wpt>
  <wpt lat="44.784162599999995" lon="-0.6376074">
    <name>Centre commercial Géant</name>
    <cmt>Amenity::entertainment:public_bookcase</cmt>
    <desc>C?est une grande façade de mur dans le centre commercial en face du magasin Courir</desc>
    <type>Boite à livre</type>
  </wpt>
  <wpt lat="45.806337899999995" lon="1.3301094">
    <name>2 place de la république</name>
    <cmt>Amenity::entertainment:public_bookcase</cmt>
    <desc>Au fond du parking à côté de l église, proche restaurant scolaire.</desc>
    <type>Boite à livre</type>
  </wpt>
  <wpt lat="43.353240700000015" lon="-1.7737369999999997">
    <name>proche 6 rue d Irandatz</name>
    <cmt>Amenity::entertainment:public_bookcase</cmt>
    <desc>dans un jardin public</desc>
    <type>Boite à livre</type>
  </wpt>
  <wpt lat="44.74985319999998" lon="0.341479">
    <name>Le Bourg</name>
    <cmt>Amenity::entertainment:public_bookcase</cmt>
    <desc>Placée en face de la mairie</desc>
    <type>Boite à livre</type>
  </wpt>
  <wpt lat="45.161878200000004" lon="1.5335478">
    <name>Avenue du 14 Juillet</name>
    <cmt>Amenity::entertainment:public_bookcase</cmt>
    <desc>Le Conseil Municipal des Jeunes de Brive a installé sur l&apos;ensemble de la commune  plusieurs boites à lire  dont celle située devant l&apos;office de tourisme de Brive.</desc>
    <type>Boite à livre</type>
  </wpt>
  <wpt lat="46.51830519999998" lon="0.33419719999999997">
    <name>36 avenue de la plage</name>
    <cmt>Amenity::entertainment:public_bookcase</cmt>
    <desc>proche du centre</desc>
    <type>Boite à livre</type>
  </wpt>
  <wpt lat="44.69059119999998" lon="-0.8536895">
    <name>Gare SNCF</name>
    <cmt>Amenity::entertainment:public_bookcase</cmt>
    <desc>Dans le hall de la gare SNCF</desc>
    <type>Boite à livre</type>
  </wpt>
  <wpt lat="45.24266459999999" lon="0.44371540000000004">
    <name>Place de la mairie</name>
    <cmt>Amenity::entertainment:public_bookcase</cmt>
    <desc>A coté de la mairie</desc>
    <type>Boite à livre</type>
  </wpt>
  <wpt lat="45.18437449999999" lon="0.7213079000000001">
    <name>place du Coderc</name>
    <cmt>Amenity::entertainment:public_bookcase</cmt>
    <type>Boite à livre</type>
  </wpt>
  <wpt lat="46.10611099999999" lon="2.4996999">
    <cmt>Amenity::entertainment:public_bookcase</cmt>
    <desc>Dans une cabine téléphonique près de la grande place et des containers de vêtements. Il y a même une petite ardoise pour les demandes de livres en particulier.</desc>
    <type>Boite à livre</type>
  </wpt>
  <wpt lat="45.9578779" lon="1.3951543">
    <name>1 rue Lavoisier</name>
    <cmt>Amenity::entertainment:public_bookcase</cmt>
    <desc>Dans le hall d entrée du Centre Social.</desc>
    <type>Boite à livre</type>
  </wpt>
  <wpt lat="44.85081450000001" lon="-0.440402">
    <name>Avenue De La Mairie</name>
    <cmt>Amenity::entertainment:public_bookcase</cmt>
    <desc>La Boîte Est Située Devant Le Cinéma De Pompignac , cachée juste À Côté D un Arbre ...</desc>
    <type>Boite à livre</type>
  </wpt>
  <wpt lat="45.81684619999999" lon="1.0994214">
    <name>1 rue du 19 Mars 1962</name>
    <cmt>Amenity::entertainment:public_bookcase</cmt>
    <desc>Proche école, poste et monument aux morts.</desc>
    <type>Boite à livre</type>
  </wpt>
  <wpt lat="45.74058107950545" lon="0.24151682853698697">
    <name>Place de la Mairie</name>
    <cmt>Amenity::entertainment:public_bookcase</cmt>
    <desc>Jolie petite maison façon nichoir avec 2 portes vitrées dans le parc municipal</desc>
    <type>Boite à livre</type>
  </wpt>
  <wpt lat="44.8106954" lon="-0.5835576">
    <name>113 rue de Suzon</name>
    <cmt>Amenity::entertainment:public_bookcase</cmt>
    <desc>Au fond du parc du couvent.</desc>
    <type>Boite à livre</type>
  </wpt>
  <wpt lat="45.160982000000004" lon="-0.6284699">
    <name>Parking salle des fetes</name>
    <cmt>Amenity::entertainment:public_bookcase</cmt>
    <type>Boite à livre</type>
  </wpt>
  <wpt lat="43.699342099999996" lon="-0.25886">
    <name>rue du jardin public</name>
    <cmt>Amenity::entertainment:public_bookcase</cmt>
    <desc>dans le parc a côté du terrain de rugby</desc>
    <type>Boite à livre</type>
  </wpt>
  <wpt lat="44.8250036" lon="-0.5819971">
    <name>Jardin de Saint-Gènes</name>
    <cmt>Amenity::entertainment:public_bookcase</cmt>
    <type>Boite à livre</type>
  </wpt>
  <wpt lat="44.699361499999995" lon="-1.2467011">
    <name>Route Forestière du Truc Vert</name>
    <cmt>Amenity::entertainment:public_bookcase</cmt>
    <type>Boite à livre</type>
  </wpt>
  <wpt lat="44.34866279999999" lon="-1.0717297">
    <name>Office de tourisme</name>
    <cmt>Amenity::entertainment:public_bookcase</cmt>
    <type>Boite à livre</type>
  </wpt>
  <wpt lat="45.679948399999994" lon="-0.1733419">
    <name>Rue de Condé</name>
    <cmt>Amenity::entertainment:public_bookcase</cmt>
    <desc>Sur la place du château du côté Courvoisier.</desc>
    <type>Boite à livre</type>
  </wpt>
  <wpt lat="44.830125599999995" lon="-0.5140335">
    <name>22 rue des cèdres</name>
    <cmt>Amenity::entertainment:public_bookcase</cmt>
    <type>Boite à livre</type>
  </wpt>
  <wpt lat="45.72241569999999" lon="0.2622672">
    <name>Parking de l école Le bourg</name>
    <cmt>Amenity::entertainment:public_bookcase</cmt>
    <desc>Située sous l abris au bout du parking de l&apos;école.</desc>
    <type>Boite à livre</type>
  </wpt>
  <wpt lat="46.4073032" lon="-0.5341503">
    <name>5 rue des Tilleuls</name>
    <cmt>Amenity::entertainment:public_bookcase</cmt>
    <desc>Ancienne boîte aux lettres reconvertie</desc>
    <type>Boite à livre</type>
  </wpt>
  <wpt lat="45.83138569999998" lon="-1.1509414">
    <name>Parc Ranson</name>
    <cmt>Amenity::entertainment:public_bookcase</cmt>
    <desc>Cette boite à lire se situe dans le parc Ranson, parc que ce monsieur a céder à la commune pour 1€ symbolique, une condition: pas de construction.</desc>
    <type>Boite à livre</type>
  </wpt>
  <wpt lat="43.47781349999999" lon="-1.5621577000000002">
    <name>Parc Mazon</name>
    <cmt>Amenity::entertainment:public_bookcase</cmt>
    <desc>Le parc est si petit qu&apos;on ne peut pas la manquer. Elle fait le plaisir des visiteurs venus prendre l&apos;air.</desc>
    <type>Boite à livre</type>
  </wpt>
  <wpt lat="44.672718299999985" lon="-0.4862352">
    <name>Quartier des Colchiques</name>
    <cmt>Amenity::entertainment:public_bookcase</cmt>
    <desc>MAJ : n&apos;existe plus</desc>
    <type>Boite à livre</type>
  </wpt>
  <wpt lat="43.5271473" lon="-1.4773113999999998">
    <name>A COTE DU PARKING DE LA GARE</name>
    <cmt>Amenity::entertainment:public_bookcase</cmt>
    <desc>se situe de l autre coté de la route en face de la place. pas très mise en évidence</desc>
    <type>Boite à livre</type>
  </wpt>