<?xml version='1.0' encoding='UTF-8'?>
<gpx version="1.1" creator="JOSM GPX export" xmlns="http://www.topografix.com/GPX/1/1"
    xmlns:xsi="http://www.w3.org/2001/XMLSchema-instance"
    xsi:schemaLocation="http://www.topografix.com/GPX/1/1 http://www.topografix.com/GPX/1/1/gpx.xsd">
  <metadata>
    <author>
      <name>Binnette</name>
    </author>
    <copyright author="Binnette">
      <year>2020</year>
      <license>MIT</license>
    </copyright>
    <bounds minlat="46.3319914" minlon="-2.5462186" maxlat="48.4112896" maxlon="0.7893444"/>
  </metadata>
  <wpt lat="47.226121400000004" lon="-1.5990549">
    <name>Jardin d&apos;usage Rue Louis-Le-Nain</name>
    <cmt>Amenity::entertainment:public_bookcase</cmt>
    <type>Boite à livre</type>
  </wpt>
  <wpt lat="48.003794199999994" lon="0.19710690000000003">
    <name>place de la République</name>
    <cmt>Amenity::entertainment:public_bookcase</cmt>
    <desc>place de la république, proche de la sortie du parking par les escaliers</desc>
    <type>Boite à livre</type>
  </wpt>
  <wpt lat="47.2611039" lon="-1.5707483000000004">
    <name>105 rue des renards</name>
    <cmt>Amenity::entertainment:public_bookcase</cmt>
    <desc>boîte à livres de l entreprise Arbres 44, mise à disposition devant les locaux, rentrée le soir</desc>
    <type>Boite à livre</type>
  </wpt>
  <wpt lat="47.25357780000001" lon="-1.5974135000000003">
    <name>46, avenue Alexandre Goupil</name>
    <cmt>Amenity::entertainment:public_bookcase</cmt>
    <desc>Elle se situe dans la bibliothèque.</desc>
    <type>Boite à livre</type>
  </wpt>
  <wpt lat="47.215512999999994" lon="-1.5456170000000002">
    <name>2 Rue de la Biscuiterie</name>
    <cmt>Amenity::entertainment:public_bookcase</cmt>
    <desc>Dans le jardin du LU c&apos;est-à-dire le Lieu Unique</desc>
    <type>Boite à livre</type>
  </wpt>
  <wpt lat="46.43698320000001" lon="-0.9529240999999999">
    <name>4 rue georges clémenceau</name>
    <cmt>Amenity::entertainment:public_bookcase</cmt>
    <desc>Les magasins de proximité Vival installe des boites à livres devant tous leurs magasins.</desc>
    <type>Boite à livre</type>
  </wpt>
  <wpt lat="48.107297499999994" lon="-0.8080497000000002">
    <name>Place des Combattants</name>
    <cmt>Amenity::entertainment:public_bookcase</cmt>
    <desc>La ville Changé met à disposition une boîte à lire pour partager les lectures. Pour les enfants et les adultes. Au pied du jardin du Presbytère</desc>
    <type>Boite à livre</type>
  </wpt>
  <wpt lat="46.65630699999999" lon="-0.915083">
    <name>12 Cour du Château</name>
    <cmt>Amenity::entertainment:public_bookcase</cmt>
    <desc>Dans la cour du château, avant l entrée au donjon sur la gauche</desc>
    <type>Boite à livre</type>
  </wpt>
  <wpt lat="47.36233999999999" lon="-2.014822">
    <name>Prinquiau</name>
    <cmt>Amenity::entertainment:public_bookcase</cmt>
    <desc>Bonjour, j ai découvert une boite à lire à Prinquiau, juste derrière l&apos;église, un peu de roman et des livres sur la géographie</desc>
    <type>Boite à livre</type>
  </wpt>
  <wpt lat="47.565099199999985" lon="-0.5037645">
    <name>Rue Henri Matisse</name>
    <cmt>Amenity::entertainment:public_bookcase</cmt>
    <type>Boite à livre</type>
  </wpt>
  <wpt lat="46.675805" lon="-0.84809">
    <name>Place Maréchal de Lattre de Tassigny</name>
    <cmt>Amenity::entertainment:public_bookcase</cmt>
    <desc>Boite à livres vitrée située Place Maréchal de Lattre de Tassigny face à l église</desc>
    <type>Boite à livre</type>
  </wpt>
  <wpt lat="47.94857439999999" lon="-0.2239892">
    <name>1 Rue de la Cavalcade</name>
    <cmt>Amenity::entertainment:public_bookcase</cmt>
    <desc>Dans l ancienne cabine téléphonique près de l&apos;école, gérée par l association Chevillé au fil du temps</desc>
    <type>Boite à livre</type>
  </wpt>
  <wpt lat="47.473812499999994" lon="-0.5624408">
    <name>25 Place Grégoire Bordillon</name>
    <cmt>Amenity::entertainment:public_bookcase</cmt>
    <desc>Elle se trouve devant la boutique La Petite Fermière</desc>
    <type>Boite à livre</type>
  </wpt>
  <wpt lat="46.87513919999999" lon="-2.0099226">
    <name>rue du Pont d&apos;orgueil</name>
    <cmt>Amenity::entertainment:public_bookcase</cmt>
    <desc>La boite se situe rue du Pont d&apos;orgueil  au niveau du rond point  il y a un abri bus scolaire.</desc>
    <type>Boite à livre</type>
  </wpt>
  <wpt lat="47.184177500000004" lon="-1.6838934999999997">
    <name>Rue Saint-Exupéry</name>
    <cmt>Amenity::entertainment:public_bookcase</cmt>
    <desc>Cette boîte à lire se situe à l&apos;entrée du collège Saint-Exupéry</desc>
    <type>Boite à livre</type>
  </wpt>
  <wpt lat="47.49484249999999" lon="-0.0465208">
    <name>Place des tilleuls</name>
    <cmt>Amenity::entertainment:public_bookcase</cmt>
    <desc>Ancienne cabine téléphonique</desc>
    <type>Boite à livre</type>
  </wpt>
  <wpt lat="47.40640839999998" lon="-0.7585082000000001">
    <name>Centre Social L&apos;Atelier - rue de Savennières</name>
    <cmt>Amenity::entertainment:public_bookcase</cmt>
    <desc>Saint-Georges dispose de 2 boites à Lire, dont une mobile. Celle qui était à la salle Beau Site est maintenant au centre social L&apos;Atelier et voyagera au fil des manifestations ou des demandes.</desc>
    <type>Boite à livre</type>
  </wpt>
  <wpt lat="47.2642815" lon="-0.09955500000000002">
    <name>place de la poterne</name>
    <cmt>Amenity::entertainment:public_bookcase</cmt>
    <desc>Près de la Mairie</desc>
    <type>Boite à livre</type>
  </wpt>
  <wpt lat="47.2182834" lon="-1.5633387">
    <name>Square Faustin Hélie</name>
    <cmt>Amenity::entertainment:public_bookcase</cmt>
    <desc>Décorée par les enfants de l&apos;école Harouys</desc>
    <type>Boite à livre</type>
  </wpt>
  <wpt lat="47.33910189999999" lon="-1.112338">
    <name>Rue de verdun</name>
    <cmt>Amenity::entertainment:public_bookcase</cmt>
    <desc>Accrochée a un arbre dans le parc rue de Verdun.</desc>
    <type>Boite à livre</type>
  </wpt>
  <wpt lat="47.11577100000001" lon="-2.1043621">
    <name>Rue Clémenceau</name>
    <cmt>Amenity::entertainment:public_bookcase</cmt>
    <desc>Une boîte à lire grande comme une boîte à lettres.</desc>
    <type>Boite à livre</type>
  </wpt>
  <wpt lat="47.8515425" lon="-0.30261899999999997">
    <name>Place Dom Guéranger</name>
    <cmt>Amenity::entertainment:public_bookcase</cmt>
    <type>Boite à livre</type>
  </wpt>
  <wpt lat="46.644429" lon="-0.7370580000000001">
    <name>rue Bonséjour</name>
    <cmt>Amenity::entertainment:public_bookcase</cmt>
    <desc>Un frigo customisé est en libre service dans la piscine intercommmunale</desc>
    <type>Boite à livre</type>
  </wpt>
  <wpt lat="47.05777099999998" lon="-1.487902">
    <cmt>Amenity::entertainment:public_bookcase</cmt>
    <desc>La cabane à livres sous un grand chêne et près d un banc ! Projet initié par la bibliothèque municipale en associant les services techniques pour la mise à disposition de l&apos;armoire et son installation et les ados du Spot, espaces jeunes pour le relooking et la déco.</desc>
    <type>Boite à livre</type>
  </wpt>
  <wpt lat="46.6539948570451" lon="-1.427085399627686">
    <name>Place viollet le duc</name>
    <cmt>Amenity::entertainment:public_bookcase</cmt>
    <desc>A coté de la fontaine</desc>
    <type>Boite à livre</type>
  </wpt>
  <wpt lat="47.20426680000001" lon="-0.9933371000000001">
    <name>10 Rue du Sous-préfet Barre</name>
    <cmt>Amenity::entertainment:public_bookcase</cmt>
    <desc>a coté du centre social</desc>
    <type>Boite à livre</type>
  </wpt>
  <wpt lat="46.466195199999994" lon="-1.6176534">
    <name>196 Passage de L Hôtel de ville</name>
    <cmt>Amenity::entertainment:public_bookcase</cmt>
    <desc>A côté de la médiathèque, derrière l&apos;espace des jeunes</desc>
    <type>Boite à livre</type>
  </wpt>
  <wpt lat="47.27005900000001" lon="-0.083141">
    <name>Plan d eau de Millocheau</name>
    <cmt>Amenity::entertainment:public_bookcase</cmt>
    <type>Boite à livre</type>
  </wpt>
  <wpt lat="47.89446139999999" lon="0.0677335">
    <name>rue de la mairie</name>
    <cmt>Amenity::entertainment:public_bookcase</cmt>
    <desc>Ancienne cabine téléphonique sur la place du parking au croisement des rues de la mairie et de La Suze</desc>
    <type>Boite à livre</type>
  </wpt>
  <wpt lat="47.4683774" lon="-0.5954164000000001">
    <name>Centre commercial Grand Maine</name>
    <cmt>Amenity::entertainment:public_bookcase</cmt>
    <desc>Bibliothèque partagée située dans le hall principal à côté de l ascenseur.</desc>
    <type>Boite à livre</type>
  </wpt>
  <wpt lat="47.12852619999998" lon="-2.2164049">
    <name>Grande rue</name>
    <cmt>Amenity::entertainment:public_bookcase</cmt>
    <desc>À côté du magasin  grand bazar</desc>
    <type>Boite à livre</type>
  </wpt>
  <wpt lat="47.230644100000006" lon="-1.5435422000000003">
    <name>59 rue du Coudray</name>
    <cmt>Amenity::entertainment:public_bookcase</cmt>
    <desc>Belle Boite à lire installée autour d un arbre fruitier, près de bacs à compost. Quelques bancs et tables rendent l&apos;endroit très sympa.</desc>
    <type>Boite à livre</type>
  </wpt>
  <wpt lat="47.2001828" lon="-1.5898830000000002">
    <name>1 Chemin des vignes du bourg</name>
    <cmt>Amenity::entertainment:public_bookcase</cmt>
    <desc>A gauche quand on arrive de la place Jean Macé, petite boîte à lire posée sur le mur d&apos;une propriété</desc>
    <type>Boite à livre</type>
  </wpt>
  <wpt lat="47.44332369999998" lon="-0.1565069">
    <name>Place de l église</name>
    <cmt>Amenity::entertainment:public_bookcase</cmt>
    <desc>Ancienne cabine téléphonique réadaptée</desc>
    <type>Boite à livre</type>
  </wpt>
  <wpt lat="47.19479159999998" lon="-1.5783106999999998">
    <name>quai robert surcouf</name>
    <cmt>Amenity::entertainment:public_bookcase</cmt>
    <desc>près du café du port</desc>
    <type>Boite à livre</type>
  </wpt>
  <wpt lat="47.21405359999999" lon="-1.4714752">
    <name>16 rue de l Abbaye</name>
    <cmt>Amenity::entertainment:public_bookcase</cmt>
    <desc>Au croisement entre la rue de l Abbaye et de l&apos;impasse du Muguet.</desc>
    <type>Boite à livre</type>
  </wpt>
  <wpt lat="47.485304099999986" lon="-1.2398245000000003">
    <name>Place de l&apos;église</name>
    <cmt>Amenity::entertainment:public_bookcase</cmt>
    <desc>Elle a été fabriquée et installée par les bénévoles de la bibliothèque Bouillon de lecture de Pannecé début novembre 2015.</desc>
    <type>Boite à livre</type>
  </wpt>
  <wpt lat="48.0137561" lon="0.2687976">
    <name>Rue Gougeard</name>
    <cmt>Amenity::entertainment:public_bookcase</cmt>
    <desc>La boite à lire se situe dans la Résidence du Parc. Elle est abritée à l&apos;extérieur du bâtiment d&apos;accueil.</desc>
    <type>Boite à livre</type>
  </wpt>
  <wpt lat="46.7863596" lon="-2.0280169">
    <name>Rue des Sables</name>
    <cmt>Amenity::entertainment:public_bookcase</cmt>
    <type>Boite à livre</type>
  </wpt>
  <wpt lat="46.412462599999984" lon="-1.5783540999999999">
    <name>Rue de l&apos;Océan</name>
    <cmt>Amenity::entertainment:public_bookcase</cmt>
    <desc>Dans le Jardin de l espace culturel, la boite à lire est une grande armoire vitrée située dans les jardins de la bibliothèque municipale juste derrière le jeux d échecs géant.</desc>
    <type>Boite à livre</type>
  </wpt>
  <wpt lat="48.133842099999995" lon="0.3967591999999999">
    <name>Place de la mairie</name>
    <cmt>Amenity::entertainment:public_bookcase</cmt>
    <desc>Sous le porche à côté de la Mairie</desc>
    <type>Boite à livre</type>
  </wpt>
  <wpt lat="47.47969459999999" lon="-1.5090332000000002">
    <name>les vigneaux</name>
    <cmt>Amenity::entertainment:public_bookcase</cmt>
    <desc>située près d une ferme accueillant des camping caristes, la boite à livres voyageurs ne demande qu&apos;à vivre</desc>
    <type>Boite à livre</type>
  </wpt>
  <wpt lat="46.38969099999999" lon="-0.6015985">
    <cmt>Amenity::entertainment:public_bookcase</cmt>
    <desc>Située dans le Square des poilus, près de la salle des fêtes.</desc>
    <type>Boite à livre</type>
  </wpt>
  <wpt lat="47.39786649999999" lon="-1.4543467000000003">
    <name>Rue du Stade</name>
    <cmt>Amenity::entertainment:public_bookcase</cmt>
    <desc>Cette boîte à livres se trouve sur un parking à l&apos;entrée du stade dans une cabane qui devait servir de guichet.</desc>
    <type>Boite à livre</type>
  </wpt>
  <wpt lat="47.225611999999984" lon="-1.5541609000000005">
    <name>Île de Versailles</name>
    <cmt>Amenity::entertainment:public_bookcase</cmt>
    <desc>Il y a 2 boîtes dont l&apos;une est consacrée à la littérature jeunesse.</desc>
    <type>Boite à livre</type>
  </wpt>
  <wpt lat="47.540614599999984" lon="-0.10024">
    <name>5 Place Orgerie</name>
    <cmt>Amenity::entertainment:public_bookcase</cmt>
    <desc>Réfrigérateur pour nouvelles fraichescentre culturel René D Anjou</desc>
    <type>Boite à livre</type>
  </wpt>
  <wpt lat="47.38703490000001" lon="0.0783485">
    <name>rue de l&apos;église</name>
    <cmt>Amenity::entertainment:public_bookcase</cmt>
    <desc>Aux abords du prieuré.</desc>
    <type>Boite à livre</type>
  </wpt>
  <wpt lat="47.234463700000006" lon="-2.1754876">
    <name>Parc du Pointeau</name>
    <cmt>Amenity::entertainment:public_bookcase</cmt>
    <desc>Cette boite à livres, non visible de la rue,  est située à environ 100 mètres de l entrée du Parc du Pointeau, côté de l avenue du Maréchal Foch.  La Municipalité de Saint-Brévin y a installé des bancs permettant la lecture sur place .</desc>
    <type>Boite à livre</type>
  </wpt>
  <wpt lat="47.080575" lon="-0.54393">
    <name>Place de la mairie</name>
    <cmt>Amenity::entertainment:public_bookcase</cmt>
    <desc>Dans l&apos;ancienne cabine téléphonique à la mairie devant la bibliothèque</desc>
    <type>Boite à livre</type>
  </wpt>
  <wpt lat="48.023599899999994" lon="0.20140839999999996">
    <name>Centre social l&apos;herberie</name>
    <cmt>Amenity::entertainment:public_bookcase</cmt>
    <type>Boite à livre</type>
  </wpt>
  <wpt lat="48.074880500000006" lon="0.19387830000000003">
    <name>Rue Léonard de Vinci</name>
    <cmt>Amenity::entertainment:public_bookcase</cmt>
    <desc>Boîte à livres située sur le parking de la salle polyvalente et près de l école.</desc>
    <type>Boite à livre</type>
  </wpt>
  <wpt lat="47.9218757" lon="0.7433841">
    <name>5 quai de l Anille</name>
    <cmt>Amenity::entertainment:public_bookcase</cmt>
    <desc>Sur le quai de l anille au niveau de la passerelle petite boîte jaune et rouge</desc>
    <type>Boite à livre</type>
  </wpt>
  <wpt lat="47.16725864255898" lon="-1.2667858600616462">
    <name>Route d Ancenis</name>
    <cmt>Amenity::entertainment:public_bookcase</cmt>
    <desc>La boite à lire se trouve auprès de l Espace Culturel Le Champilambart</desc>
    <type>Boite à livre</type>
  </wpt>
  <wpt lat="47.12240949999999" lon="-1.9137121000000001">
    <name>6 Rue de Nantes</name>
    <cmt>Amenity::entertainment:public_bookcase</cmt>
    <desc>En face de l hotel de ville</desc>
    <type>Boite à livre</type>
  </wpt>
  <wpt lat="47.3130868" lon="-1.3207376">
    <name>21 Rue d Anjou - D751</name>
    <cmt>Amenity::entertainment:public_bookcase</cmt>
    <desc>A coté de la mairie et d une Presse / bureau de poste.Dans une ancienne cabine téléphonique.</desc>
    <type>Boite à livre</type>
  </wpt>
  <wpt lat="47.04536509999998" lon="-0.9008715000000003">
    <name>4 allée des Aigles</name>
    <cmt>Amenity::entertainment:public_bookcase</cmt>
    <desc>Une boite à livres tout près des bacs des incroyables comestibles et du Centre Social Horizon. De la pelouse et de grands arbres à proximité pour bouquiner à l ombre !</desc>
    <type>Boite à livre</type>
  </wpt>
  <wpt lat="47.2445647" lon="-1.6355203999999999">
    <name>Boulevard Jacques Monod</name>
    <cmt>Amenity::entertainment:public_bookcase</cmt>
    <desc>ICO Centre René Gauducheau</desc>
    <type>Boite à livre</type>
  </wpt>
  <wpt lat="47.3444233" lon="-0.23250620000000005">
    <name>Piscine de Gennes</name>
    <cmt>Amenity::entertainment:public_bookcase</cmt>
    <desc>Boite à livres située devant la piscine de Gennes en bord de Loire.</desc>
    <type>Boite à livre</type>
  </wpt>
  <wpt lat="47.300401699999995" lon="-2.2103982">
    <name>ZAC de la fontaine au brun</name>
    <cmt>Amenity::entertainment:public_bookcase</cmt>
    <desc>Dans la galerie du Auchan</desc>
    <type>Boite à livre</type>
  </wpt>
  <wpt lat="47.380773" lon="-2.5462186">
    <name>Place de l&apos;église</name>
    <cmt>Amenity::entertainment:public_bookcase</cmt>
    <desc>Boite située près du calvaire.</desc>
    <type>Boite à livre</type>
  </wpt>
  <wpt lat="47.28275459999998" lon="-2.3947535">
    <name>7 Avenue Olivier Guichard</name>
    <cmt>Amenity::entertainment:public_bookcase</cmt>
    <desc>Devant l hôtel de ville.</desc>
    <type>Boite à livre</type>
  </wpt>
  <wpt lat="46.34377829999998" lon="-1.4440865">
    <name>113 Avenue Maurice Samson</name>
    <cmt>Amenity::entertainment:public_bookcase</cmt>
    <desc>Boîte à Livres située devant la bibliothèque intercommunale de la Tranche-sur-Mer. Attention à ne pas confondre avec leur boîte de retour, réservée aux documents du réseau des Médiathèques Sud Vendée Littoral</desc>
    <type>Boite à livre</type>
  </wpt>
  <wpt lat="48.20720759999998" lon="-1.0650642">
    <name>Rue Sur la Campagne</name>
    <cmt>Amenity::entertainment:public_bookcase</cmt>
    <desc>Devant la maison</desc>
    <type>Boite à livre</type>
  </wpt>
  <wpt lat="46.66980379999999" lon="-1.4299633">
    <name>Rue Georges Clémenceau</name>
    <cmt>Amenity::entertainment:public_bookcase</cmt>
    <desc>La cabine téléphonique est située rue Georges Clemenceau, à côté du jardin de la mairie.</desc>
    <type>Boite à livre</type>
  </wpt>
  <wpt lat="47.2059618" lon="-1.5877267">
    <name>136 Boulevard de la Liberté</name>
    <cmt>Amenity::entertainment:public_bookcase</cmt>
    <desc>Une petite boîte à livres est disponible dans la boulangerie</desc>
    <type>Boite à livre</type>
  </wpt>
  <wpt lat="46.6570582" lon="-0.9163811000000001">
    <name>4 rue georges clémenceau</name>
    <cmt>Amenity::entertainment:public_bookcase</cmt>
    <desc>Les magasins de proximité Vival installe des boites à livres devant tous leurs magasins.</desc>
    <type>Boite à livre</type>
  </wpt>
  <wpt lat="47.0627939" lon="-2.0011543">
    <name>3, place de l église madame</name>
    <cmt>Amenity::entertainment:public_bookcase</cmt>
    <type>Boite à livre</type>
  </wpt>
  <wpt lat="48.09799420000002" lon="-0.7896956999999999">
    <name>Parc des Ondines</name>
    <cmt>Amenity::entertainment:public_bookcase</cmt>
    <desc>La ville Changé met à disposition une boîte à lire pour partager les lectures. Pour les enfants et les adultes.</desc>
    <type>Boite à livre</type>
  </wpt>
  <wpt lat="46.39174499999999" lon="-1.019529">
    <name>rue du 8 mai 1945</name>
    <cmt>Amenity::entertainment:public_bookcase</cmt>
    <desc>La Cabinalivre est située à l entrée du complexe sportif sur le parking à l&apos;intérieur d&apos;une ancienne cabine téléphonique relookée.</desc>
    <type>Boite à livre</type>
  </wpt>
  <wpt lat="46.4554353" lon="-1.1701632">
    <name>1 rue de l hotel de ville</name>
    <cmt>Amenity::entertainment:public_bookcase</cmt>
    <desc>Devant la mairie</desc>
    <type>Boite à livre</type>
  </wpt>
  <wpt lat="47.279662800000004" lon="-2.2107246">
    <name>40 Rue Jean Jaures</name>
    <cmt>Amenity::entertainment:public_bookcase</cmt>
    <desc>Elle se trouve à coté de la Librairie les Idées Larges.</desc>
    <type>Boite à livre</type>
  </wpt>
  <wpt lat="47.238140999999985" lon="-2.27973">
    <name>Plage de Monsieur Hulot</name>
    <cmt>Amenity::entertainment:public_bookcase</cmt>
    <type>Boite à livre</type>
  </wpt>
  <wpt lat="47.27225399999998" lon="-1.6268734">
    <name>rue Robert Le Ricolais</name>
    <cmt>Amenity::entertainment:public_bookcase</cmt>
    <desc>Elle est située dans la Médiathèque Ormédo</desc>
    <type>Boite à livre</type>
  </wpt>
  <wpt lat="47.69935559999998" lon="-0.3611155">
    <name>5 bis rue de la fraternité</name>
    <cmt>Amenity::entertainment:public_bookcase</cmt>
    <desc>Juste devant la bibliothèque</desc>
    <type>Boite à livre</type>
  </wpt>
  <wpt lat="46.48927849999998" lon="-1.7652126">
    <name>Avenue Aristide Briand</name>
    <cmt>Amenity::entertainment:public_bookcase</cmt>
    <type>Boite à livre</type>
  </wpt>
  <wpt lat="46.65211269999998" lon="-0.6824133">
    <name>place St Hilaire</name>
    <cmt>Amenity::entertainment:public_bookcase</cmt>
    <desc>Elle se situe dans un frigo customisé et placé devant l&apos;espace Jeanne-Marie</desc>
    <type>Boite à livre</type>
  </wpt>
  <wpt lat="47.685320699999984" lon="-0.8701226">
    <name>Rue du Capitaine de Hauteclocque</name>
    <cmt>Amenity::entertainment:public_bookcase</cmt>
    <desc>Dans l ancienne boîte aux lettres de l&apos;Office de Tourisme...</desc>
    <type>Boite à livre</type>
  </wpt>
  <wpt lat="48.06102259999998" lon="0.1648016">
    <name>Boulevard de Maule</name>
    <cmt>Amenity::entertainment:public_bookcase</cmt>
    <desc>Ancienne cabine téléphonique anglaise rouge située dans le passage entre la Pharmacie et l agence immobilière.</desc>
    <type>Boite à livre</type>
  </wpt>
  <wpt lat="46.666329100000006" lon="-1.4286623">
    <name>Square Bayard</name>
    <cmt>Amenity::entertainment:public_bookcase</cmt>
    <desc>Près de la Fontaine</desc>
    <type>Boite à livre</type>
  </wpt>
  <wpt lat="48.116732699999986" lon="-0.7193332000000001">
    <name>Rue champollion</name>
    <cmt>Amenity::entertainment:public_bookcase</cmt>
    <desc>Boîte à livres située dans le parc de la motte près des terrains de pétanque.</desc>
    <type>Boite à livre</type>
  </wpt>
  <wpt lat="47.469989599999984" lon="-0.3290697">
    <name>46 route du Point du Jour</name>
    <cmt>Amenity::entertainment:public_bookcase</cmt>
    <desc>Une étagère dans le fond de la galerie marchande.</desc>
    <type>Boite à livre</type>
  </wpt>
  <wpt lat="46.876808499999996" lon="-2.0091409">
    <name>31 rue de la Croix de mission</name>
    <cmt>Amenity::entertainment:public_bookcase</cmt>
    <desc>Au rond point , à coté de l abri bus et de la boite aux lettres</desc>
    <type>Boite à livre</type>
  </wpt>
  <wpt lat="46.71413319999999" lon="-1.3137207000000002">
    <name>90 route nationale</name>
    <cmt>Amenity::entertainment:public_bookcase</cmt>
    <desc>Mise en place le 13 Mai 2017 par l&apos;association Bout dFicelle.</desc>
    <type>Boite à livre</type>
  </wpt>
  <wpt lat="47.3580783" lon="-1.1228542">
    <name>Boire Ste Catherine, le fossé neuf</name>
    <cmt>Amenity::entertainment:public_bookcase</cmt>
    <desc>Dans le parc de jeux pour enfants</desc>
    <type>Boite à livre</type>
  </wpt>
  <wpt lat="47.1036439" lon="-1.8103273">
    <name>place de Retz</name>
    <cmt>Amenity::entertainment:public_bookcase</cmt>
    <type>Boite à livre</type>
  </wpt>
  <wpt lat="47.620626400000006" lon="-0.5069582">
    <name>Square Renée Goujon</name>
    <cmt>Amenity::entertainment:public_bookcase</cmt>
    <desc>Buffet vitré installé en avril 2015 par les bénévoles de la bibliothèque de Cheffes, sous le porche du square de la mairie.</desc>
    <type>Boite à livre</type>
  </wpt>
  <wpt lat="47.03557567330203" lon="-1.6392266750335691">
    <name>Square du rond point de plaisance</name>
    <cmt>Amenity::entertainment:public_bookcase</cmt>
    <type>Boite à livre</type>
  </wpt>
  <wpt lat="47.175167" lon="-0.40870100000000004">
    <name>Place de la Mairie</name>
    <cmt>Amenity::entertainment:public_bookcase</cmt>
    <desc>Boite à livres située sur la façade de la mairie.</desc>
    <type>Boite à livre</type>
  </wpt>
  <wpt lat="46.99242371806575" lon="-1.819696426391602">
    <name>Rue du marché</name>
    <cmt>Amenity::entertainment:public_bookcase</cmt>
    <desc>Bien protégée dans un encoignure</desc>
    <type>Boite à livre</type>
  </wpt>
  <wpt lat="47.194320599999976" lon="-1.5289511999999998">
    <name>place du muguet nantais</name>
    <cmt>Amenity::entertainment:public_bookcase</cmt>
    <desc>Devant la Maison des confluences, arbre à livres inauguré le 18 mai 2017.</desc>
    <type>Boite à livre</type>
  </wpt>
  <wpt lat="47.02271399999998" lon="-2.2490009">
    <name>Rue des bonnotte</name>
    <cmt>Amenity::entertainment:public_bookcase</cmt>
    <desc>Boîte à dons en face de la mairie de Le Vieil, sur l île de Noirmoutier.</desc>
    <type>Boite à livre</type>
  </wpt>
  <wpt lat="47.44059099999999" lon="-0.21761600000000003">
    <name>Place du Mail</name>
    <cmt>Amenity::entertainment:public_bookcase</cmt>
    <desc>Dans la zone réservée aux jeux pour enfants</desc>
    <type>Boite à livre</type>
  </wpt>
  <wpt lat="47.374698999999985" lon="-0.688929">
    <name>LE PONTON</name>
    <cmt>Amenity::entertainment:public_bookcase</cmt>
    <desc>devant le club jeunes de la possonniere</desc>
    <type>Boite à livre</type>
  </wpt>
  <wpt lat="47.04931459999999" lon="-0.8972918000000001">
    <name>17 Square de Montgeoffroy</name>
    <cmt>Amenity::entertainment:public_bookcase</cmt>
    <type>Boite à livre</type>
  </wpt>
  <wpt lat="47.444146399999994" lon="-0.5636733">
    <name>1 bis rue Henri-Bergson</name>
    <cmt>Amenity::entertainment:public_bookcase</cmt>
    <desc>Il y en a plusieurs , en effet il y a une petite étagère dans la bibliothèque , et 2 très grosses dans le fond de la salle café.</desc>
    <type>Boite à livre</type>
  </wpt>
  <wpt lat="47.379404300000004" lon="-1.1893302">
    <name>Rue Marie Noel</name>
    <cmt>Amenity::entertainment:public_bookcase</cmt>
    <desc>Une boîte rose pour partager ses lectures!</desc>
    <type>Boite à livre</type>
  </wpt>
  <wpt lat="47.39448799999998" lon="-0.4367896">
    <name>Place de l église</name>
    <cmt>Amenity::entertainment:public_bookcase</cmt>
    <desc>Ancienne cabine téléphonique réhabilité en boîte à lire.</desc>
    <type>Boite à livre</type>
  </wpt>
  <wpt lat="47.627088900000004" lon="-0.7133169999999999">
    <name>Place de la mairie</name>
    <cmt>Amenity::entertainment:public_bookcase</cmt>
    <desc>Ancienne armoire frigorifique.</desc>
    <type>Boite à livre</type>
  </wpt>
  <wpt lat="48.01001869999999" lon="0.1812238">
    <name>4 rue Marceau</name>
    <cmt>Amenity::entertainment:public_bookcase</cmt>
    <desc>Parc Théodore Monod contre le bâtiment conciergerie du Parc, proche de l&apos;espace jeux</desc>
    <type>Boite à livre</type>
  </wpt>
  <wpt lat="47.588575399999996" lon="-2.0430945">
    <name>Rue de l&apos;hôtel denis</name>
    <cmt>Amenity::entertainment:public_bookcase</cmt>
    <desc>La boite se trouve sur le parking près du vival</desc>
    <type>Boite à livre</type>
  </wpt>
  <wpt lat="47.218479" lon="-1.5432142">
    <name>rue Ecorchard</name>
    <cmt>Amenity::entertainment:public_bookcase</cmt>
    <desc>La boite à lire se trouve au niveau de l&apos;entrée du Jardin des Plantes  rue Ecorchard  côté Gare Nord. Dans le cadre du Voyage à Nantes jusque fin août. La boîte se situe à proximité des chèvres  vers la droite après l&apos;entrée. Beaucoup de passages de touristes  donc les livres sont plus empruntés que déposés...</desc>
    <type>Boite à livre</type>
  </wpt>
  <wpt lat="47.148514999999996" lon="-1.5236310000000004">
    <name>Parc Hippolyte Derouet</name>
    <cmt>Amenity::entertainment:public_bookcase</cmt>
    <type>Boite à livre</type>
  </wpt>
  <wpt lat="47.2421409" lon="-1.600386">
    <name>Avenue de Cheverny</name>
    <cmt>Amenity::entertainment:public_bookcase</cmt>
    <desc>boite à  livre genial avec beaucoup de variété de lecturepour petit et grand</desc>
    <type>Boite à livre</type>
  </wpt>
  <wpt lat="47.54833989999999" lon="-0.0412">
    <name>place des acacias</name>
    <cmt>Amenity::entertainment:public_bookcase</cmt>
    <desc>Réfrigérateur recyclé en boite à lire redécoré installé au fond de la place sous les arbres à côté d un banc pour éventuellement échanger quelques conversations avec les amateurs de livres</desc>
    <type>Boite à livre</type>
  </wpt>
  <wpt lat="47.256857999999994" lon="-2.2640509">
    <name>332 Route de la Côte d&apos;Amour</name>
    <cmt>Amenity::entertainment:public_bookcase</cmt>
    <desc>La boite se situe en face du magasin Yves Rocher.</desc>
    <type>Boite à livre</type>
  </wpt>
  <wpt lat="47.08607880000001" lon="-1.2859682">
    <name>Parvis de la gare</name>
    <cmt>Amenity::entertainment:public_bookcase</cmt>
    <desc>Ancienne cabine téléphonique transformée en cabane à livres</desc>
    <type>Boite à livre</type>
  </wpt>
  <wpt lat="47.45113209999999" lon="-0.5422706">
    <name>jardin de l arboretum</name>
    <cmt>Amenity::entertainment:public_bookcase</cmt>
    <type>Boite à livre</type>
  </wpt>
  <wpt lat="46.667869999999986" lon="-0.7900140000000001">
    <name>Place de la mairie</name>
    <cmt>Amenity::entertainment:public_bookcase</cmt>
    <desc>A côté de la mairie</desc>
    <type>Boite à livre</type>
  </wpt>
  <wpt lat="46.767314999999996" lon="-1.517095">
    <name>Moulin à Elise</name>
    <cmt>Amenity::entertainment:public_bookcase</cmt>
    <desc>La boîte se trouve près du pont qui mène à l aire des jeux, au pied du lampadaire.</desc>
    <type>Boite à livre</type>
  </wpt>
  <wpt lat="46.6830256" lon="-1.4242594">
    <name>Rue Claude Debussy</name>
    <cmt>Amenity::entertainment:public_bookcase</cmt>
    <desc>J y ai même trouvé des magazines et des comics, bonne pioche ?</desc>
    <type>Boite à livre</type>
  </wpt>
  <wpt lat="48.006574799999974" lon="0.2092179">
    <name>4 rue Sinault</name>
    <cmt>Amenity::entertainment:public_bookcase</cmt>
    <desc>Jardin des Plantes près du plan d eau, en arrivant par la rue de l&apos;Éventail</desc>
    <type>Boite à livre</type>
  </wpt>
  <wpt lat="46.67266699999998" lon="-1.2960515">
    <name>mairie de la chaize le vicomte</name>
    <cmt>Amenity::entertainment:public_bookcase</cmt>
    <desc>A l&apos;entrée d&apos;un passage à droite de la mairie.</desc>
    <type>Boite à livre</type>
  </wpt>
  <wpt lat="47.50152549999998" lon="-0.24585150000000003">
    <name>rue de la fontaine</name>
    <cmt>Amenity::entertainment:public_bookcase</cmt>
    <desc>Dans une ancienne armoire froide, près de l aire de jeux.</desc>
    <type>Boite à livre</type>
  </wpt>
  <wpt lat="48.25883799999998" lon="0.116131">
    <name>Rue de waugoust</name>
    <cmt>Amenity::entertainment:public_bookcase</cmt>
    <desc>Au tout debut de la rue jolie boîte à lire en bois</desc>
    <type>Boite à livre</type>
  </wpt>
  <wpt lat="46.49381230000001" lon="-1.7153812">
    <name>Rue Florence Arthaud</name>
    <cmt>Amenity::entertainment:public_bookcase</cmt>
    <desc>au coeur du bourg de la Pironnière, place de la Fontaine.A certaines heures, vous pouvez même avoir droit à la compagnie des poules et coqs du coin tandis que vous explorez les livres disponibles ^_^</desc>
    <type>Boite à livre</type>
  </wpt>
  <wpt lat="47.226192899999994" lon="-2.1720646">
    <name>Boulevard de l Océan, St-Brévin l&apos;Océan</name>
    <cmt>Amenity::entertainment:public_bookcase</cmt>
    <desc>Boite à lire située à Saint-Brévin l Océan, boulevard de l&apos;Océan, entre le terrain de jeux pour enfants et le Syndicat d&apos;Initiatives.</desc>
    <type>Boite à livre</type>
  </wpt>
  <wpt lat="47.25290809999999" lon="-1.5958714000000005">
    <name>21 avenue Alexandre Goupil</name>
    <cmt>Amenity::entertainment:public_bookcase</cmt>
    <desc>Grande cabine téléphonique anglaise. Grande variété de livres pour tous âges et tous les goûts.</desc>
    <type>Boite à livre</type>
  </wpt>
  <wpt lat="46.57882679999999" lon="-1.0280877">
    <name>Place de la Mairie</name>
    <cmt>Amenity::entertainment:public_bookcase</cmt>
    <desc>Boite à livres bleue qui se trouve près du restaurant, le st-Georges. si vous trouvez le distributeur de pain, elle est juste à coté. Mais attention, elle ne se voit de la route ! N&apos;hésitez pas à allez jeter un coup d’œil et de partager vos lectures !</desc>
    <type>Boite à livre</type>
  </wpt>
  <wpt lat="47.24924589999998" lon="-1.5540089999999998">
    <name>UFR de sociologie bât F0 23 rue du recteur Schmitt</name>
    <cmt>Amenity::entertainment:public_bookcase</cmt>
    <desc>Boîte à lire disponible dans le couloir devant l&apos;amphi</desc>
    <type>Boite à livre</type>
  </wpt>
  <wpt lat="46.67106359999998" lon="-1.8269945000000003">
    <name>8 Rue Georges Clemenceau</name>
    <cmt>Amenity::entertainment:public_bookcase</cmt>
    <desc>La boîte à livres se situe devant l entrée du magasin Vival.</desc>
    <type>Boite à livre</type>
  </wpt>
  <wpt lat="46.420139" lon="-1.0838980000000003">
    <name>Square Michel Delaunay</name>
    <cmt>Amenity::entertainment:public_bookcase</cmt>
    <desc>Installée par le Lions Club de LUCON</desc>
    <type>Boite à livre</type>
  </wpt>
  <wpt lat="47.20873999999999" lon="-1.7202349999999997">
    <name>95 quai Jean-Pierre Fougerat</name>
    <cmt>Amenity::entertainment:public_bookcase</cmt>
    <desc>Dans le hall de l espace de la Tout à plomb</desc>
    <type>Boite à livre</type>
  </wpt>
  <wpt lat="46.59057179999999" lon="-1.6474411000000002">
    <name>Place de l&apos;église</name>
    <cmt>Amenity::entertainment:public_bookcase</cmt>
    <desc>La Boîte à lire se trouve entre la boulangerie et le salon de coiffure.</desc>
    <type>Boite à livre</type>
  </wpt>
  <wpt lat="47.19038520000001" lon="-1.5701522">
    <name>rue camille jouis</name>
    <cmt>Amenity::entertainment:public_bookcase</cmt>
    <desc>Construite par un particulier, dans une petite rue à côté de l église et de la mairie de Rezé, elle est installée sur le muret de sa maison. Pour ne pas la rater, elle est juste en face de l&apos;école Saint-joseph.</desc>
    <type>Boite à livre</type>
  </wpt>
  <wpt lat="47.670897999999994" lon="-0.243812">
    <name>Durtal    maine et loire</name>
    <cmt>Amenity::entertainment:public_bookcase</cmt>
    <desc>Très bon fonctionnement</desc>
    <type>Boite à livre</type>
  </wpt>
  <wpt lat="46.707764000000005" lon="-2.3329959">
    <name>27 rue du général leclerc</name>
    <cmt>Amenity::entertainment:public_bookcase</cmt>
    <desc>Les magasins de proximité Vival installe des boites à livres devant tous leurs magasins.</desc>
    <type>Boite à livre</type>
  </wpt>
  <wpt lat="47.358285" lon="-0.300328">
    <name>la sansonniere</name>
    <cmt>Amenity::entertainment:public_bookcase</cmt>
    <desc>a l entre de l&apos;école et la mairie</desc>
    <type>Boite à livre</type>
  </wpt>
  <wpt lat="47.11510019999999" lon="-2.0985996">
    <name>Parc botanique de la Ria</name>
    <cmt>Amenity::entertainment:public_bookcase</cmt>
    <desc>Située au calme, une jolie boîte en bois dans le parc botanique de la Ria</desc>
    <type>Boite à livre</type>
  </wpt>
  <wpt lat="46.396735299999996" lon="-1.375043">
    <name>Rue du port de Moricq</name>
    <cmt>Amenity::entertainment:public_bookcase</cmt>
    <type>Boite à livre</type>
  </wpt>
  <wpt lat="46.60227159999999" lon="-1.4481907">
    <name>parc de la tournerie</name>
    <cmt>Amenity::entertainment:public_bookcase</cmt>
    <desc>Dans le parc au niveau des jeux d enfants</desc>
    <type>Boite à livre</type>
  </wpt>
  <wpt lat="46.41256769999999" lon="-1.5771386">
    <name>Esplanade Serge Caillaud</name>
    <cmt>Amenity::entertainment:public_bookcase</cmt>
    <desc>Sur le port de Jard  sur l&apos;aire de jeux.</desc>
    <type>Boite à livre</type>
  </wpt>
  <wpt lat="47.261859" lon="-0.07933100000000001">
    <name>Place saint nicolas</name>
    <cmt>Amenity::entertainment:public_bookcase</cmt>
    <desc>Dépôt de livres permanent.</desc>
    <type>Boite à livre</type>
  </wpt>
  <wpt lat="47.43196720000001" lon="-0.7041796999999999">
    <name>4 Rue de la Liberté</name>
    <cmt>Amenity::entertainment:public_bookcase</cmt>
    <desc>C est un ancienne cabine téléphonique qui a été complètement transformée</desc>
    <type>Boite à livre</type>
  </wpt>
  <wpt lat="47.23855039999999" lon="-1.3492534000000003">
    <name>rue du jeu de paume</name>
    <cmt>Amenity::entertainment:public_bookcase</cmt>
    <desc>Sur la place de l&apos;église face à la laverie automatique</desc>
    <type>Boite à livre</type>
  </wpt>
  <wpt lat="47.33917649999999" lon="-1.11165">
    <name>Square Gibeot, rue d Anjou</name>
    <cmt>Amenity::entertainment:public_bookcase</cmt>
    <desc>Dans le square Gibeot.</desc>
    <type>Boite à livre</type>
  </wpt>
  <wpt lat="47.352139400000006" lon="-0.7619168000000001">
    <name>Square Jacques-Aberlenc</name>
    <cmt>Amenity::entertainment:public_bookcase</cmt>
    <desc>face à la poste</desc>
    <type>Boite à livre</type>
  </wpt>
  <wpt lat="47.23867679999999" lon="-0.3119956">
    <name>Mairie Louresse Rochemenier</name>
    <cmt>Amenity::entertainment:public_bookcase</cmt>
    <desc>Sur la place à droite de la mairie</desc>
    <type>Boite à livre</type>
  </wpt>
  <wpt lat="48.03746300000001" lon="0.5883469">
    <name>rue saint medard</name>
    <cmt>Amenity::entertainment:public_bookcase</cmt>
    <type>Boite à livre</type>
  </wpt>
  <wpt lat="47.3999147" lon="-0.3717545">
    <name>Raindron, Route de Blaison</name>
    <cmt>Amenity::entertainment:public_bookcase</cmt>
    <desc>Boîte située au croisement de la route de chemellier à côté d un abris bus.</desc>
    <type>Boite à livre</type>
  </wpt>
  <wpt lat="48.022011" lon="0.32943800000000006">
    <name>Espl. de la Liberté</name>
    <cmt>Amenity::entertainment:public_bookcase</cmt>
    <type>Boite à livre</type>
  </wpt>
  <wpt lat="46.421394599999985" lon="-0.6821146">
    <name>5 place du forail</name>
    <cmt>Amenity::entertainment:public_bookcase</cmt>
    <desc>A l&apos;entrée du Vival</desc>
    <type>Boite à livre</type>
  </wpt>
  <wpt lat="47.39953" lon="-0.3692842">
    <name>montée st sauveur</name>
    <cmt>Amenity::entertainment:public_bookcase</cmt>
    <desc>en bas de la montée st sauveur a l entrée d&apos;un nouveau lotissement 47°24&apos;02.0 N 0°22&apos;13.1W</desc>
    <type>Boite à livre</type>
  </wpt>
  <wpt lat="48.065176999999984" lon="-0.769042">
    <name>jardin de la perrine</name>
    <cmt>Amenity::entertainment:public_bookcase</cmt>
    <desc>Arbre à lire dans le Jardin de la Perrine.</desc>
    <type>Boite à livre</type>
  </wpt>
  <wpt lat="46.65391384968671" lon="-1.06518030166626">
    <name>Le Touchegray</name>
    <cmt>Amenity::entertainment:public_bookcase</cmt>
    <desc>sur l&apos;aire de loisir du touchegray</desc>
    <type>Boite à livre</type>
  </wpt>
  <wpt lat="47.4489531" lon="-0.5527365">
    <name>22 Avenue Maurice Tardat</name>
    <cmt>Amenity::entertainment:public_bookcase</cmt>
    <desc>au jardin de la roseraie , sur un côté de la cabane au fond</desc>
    <type>Boite à livre</type>
  </wpt>
  <wpt lat="47.0618198" lon="-0.8864683000000001">
    <name>12 Avenue du Maréchal Foch</name>
    <cmt>Amenity::entertainment:public_bookcase</cmt>
    <desc>La boite à lire se trouve à droite dans le jardin S.L.A. - Maison des Sciences</desc>
    <type>Boite à livre</type>
  </wpt>
  <wpt lat="47.23782089999999" lon="-1.348446">
    <name>Rue de la Source, Village La Pochaude</name>
    <cmt>Amenity::entertainment:public_bookcase</cmt>
    <desc>Au c?ur du village</desc>
    <type>Boite à livre</type>
  </wpt>
  <wpt lat="48.183121099999994" lon="-0.128627">
    <name>Place de la République</name>
    <cmt>Amenity::entertainment:public_bookcase</cmt>
    <type>Boite à livre</type>
  </wpt>
  <wpt lat="46.5930499" lon="-1.3170373">
    <name>4 place de l&apos;église</name>
    <cmt>Amenity::entertainment:public_bookcase</cmt>
    <desc>Passer sous le porche de la mairie. Boite sur la droite.</desc>
    <type>Boite à livre</type>
  </wpt>
  <wpt lat="47.251556" lon="-1.5893876">
    <name>5 rue de la source</name>
    <cmt>Amenity::entertainment:public_bookcase</cmt>
    <desc>Little Free Library</desc>
    <type>Boite à livre</type>
  </wpt>
  <wpt lat="47.3945927" lon="-0.2742294">
    <name>Port Saint Maur</name>
    <cmt>Amenity::entertainment:public_bookcase</cmt>
    <desc>Boîte à lire en bord de Loire</desc>
    <type>Boite à livre</type>
  </wpt>
  <wpt lat="47.32911989999998" lon="-0.2095326">
    <name>rue de la Sablière</name>
    <cmt>Amenity::entertainment:public_bookcase</cmt>
    <desc>A l entrée du groupe scolaire</desc>
    <type>Boite à livre</type>
  </wpt>
  <wpt lat="48.10257949999999" lon="0.7893444000000001">
    <name>25 Rue du Dr Castaing</name>
    <cmt>Amenity::entertainment:public_bookcase</cmt>
    <desc>Cachot à livre</desc>
    <type>Boite à livre</type>
  </wpt>
  <wpt lat="47.407163" lon="-2.3550579999999997">
    <name>Pompas</name>
    <cmt>Amenity::entertainment:public_bookcase</cmt>
    <desc>Armoire sous l abribus à proximité de l&apos;église de Pompas.</desc>
    <type>Boite à livre</type>
  </wpt>
  <wpt lat="47.56046279999999" lon="-0.6715694000000001">
    <name>Place Eric Tabarly</name>
    <cmt>Amenity::entertainment:public_bookcase</cmt>
    <type>Boite à livre</type>
  </wpt>
  <wpt lat="47.7939758" lon="0.3358218">
    <name>Laillé,  Route de Tours</name>
    <cmt>Amenity::entertainment:public_bookcase</cmt>
    <type>Boite à livre</type>
  </wpt>
  <wpt lat="47.091024999999995" lon="-1.064832">
    <name>Rue de l Eglise</name>
    <cmt>Amenity::entertainment:public_bookcase</cmt>
    <desc>En face l église</desc>
    <type>Boite à livre</type>
  </wpt>
  <wpt lat="47.2406336" lon="-1.4671729">
    <name>1 allée robert cheval</name>
    <cmt>Amenity::entertainment:public_bookcase</cmt>
    <desc>au niveau de la guinguette de la Sablière</desc>
    <type>Boite à livre</type>
  </wpt>
  <wpt lat="47.74682979999999" lon="0.619664">
    <name>17 rue de l&apos;Industrie</name>
    <cmt>Amenity::entertainment:public_bookcase</cmt>
    <desc>La boîte à lire est située près de la porte de la petite maison, au centre du parc de jeu. Elle est facile à repérer grâce à ses couleurs éclatantes.</desc>
    <type>Boite à livre</type>
  </wpt>
  <wpt lat="46.77933799999999" lon="-1.062556">
    <name>6 place Clémenceau</name>
    <cmt>Amenity::entertainment:public_bookcase</cmt>
    <desc>Installée par la Communauté de Communes du Pays des Herbiers</desc>
    <type>Boite à livre</type>
  </wpt>
  <wpt lat="47.13364404043598" lon="-1.732578277587891">
    <name>Rue de la rive</name>
    <cmt>Amenity::entertainment:public_bookcase</cmt>
    <desc>A l&apos;entrée du complexe sportif de la rive</desc>
    <type>Boite à livre</type>
  </wpt>
  <wpt lat="47.10984400000001" lon="-2.0894923">
    <name>87 ter rue pierre Fleury</name>
    <cmt>Amenity::entertainment:public_bookcase</cmt>
    <desc>devant la mairie Annexe de PORNIC, sur la droite, dans une cabane en forme de petite PECHERIE, cabane de pêcheur sur pilotis.</desc>
    <type>Boite à livre</type>
  </wpt>
  <wpt lat="47.71812441774455" lon="0.33298015594482405">
    <name>Place de la Mairie</name>
    <cmt>Amenity::entertainment:public_bookcase</cmt>
    <desc>La boîte à lire est située sur le mur sud de l&apos;église, face à la mairie.</desc>
    <type>Boite à livre</type>
  </wpt>
  <wpt lat="47.2847149" lon="-2.3953049000000006">
    <name>place du marché</name>
    <cmt>Amenity::entertainment:public_bookcase</cmt>
    <desc>une cabine à livres idéale pour emprunter ou déposer des livres en allant au marche</desc>
    <type>Boite à livre</type>
  </wpt>
  <wpt lat="47.47655749999998" lon="-0.577957">
    <name>Parc de la Garenne</name>
    <cmt>Amenity::entertainment:public_bookcase</cmt>
    <desc>Boîte située en face des jeux pour enfants sous un abri.</desc>
    <type>Boite à livre</type>
  </wpt>
  <wpt lat="46.49437699999998" lon="-1.7721248000000003">
    <name>salle audubon</name>
    <cmt>Amenity::entertainment:public_bookcase</cmt>
    <type>Boite à livre</type>
  </wpt>
  <wpt lat="47.189815299999985" lon="-1.6839436">
    <name>Place de l&apos;Église</name>
    <cmt>Amenity::entertainment:public_bookcase</cmt>
    <desc>Cette boîte à lire  la plus utilisée de la commune  est placée sur le mur de la Poste  en face de l&apos;église.</desc>
    <type>Boite à livre</type>
  </wpt>
  <wpt lat="47.4789681" lon="-0.10174989999999999">
    <name>rue du Soleil d Or</name>
    <cmt>Amenity::entertainment:public_bookcase</cmt>
    <desc>Ancienne cabine France TelecomParking</desc>
    <type>Boite à livre</type>
  </wpt>
  <wpt lat="47.18775659999998" lon="-1.5202841">
    <name>rue de la Gilarderie</name>
    <cmt>Amenity::entertainment:public_bookcase</cmt>
    <desc>Devant la vierge entre la rue de la Gilarderie et la rue de la Perrière.</desc>
    <type>Boite à livre</type>
  </wpt>
  <wpt lat="47.97514929999999" lon="0.2200008">
    <name>mjc jean moulin</name>
    <cmt>Amenity::entertainment:public_bookcase</cmt>
    <type>Boite à livre</type>
  </wpt>
  <wpt lat="47.10467089999999" lon="-1.8639082">
    <name>23 Rue de la Gare</name>
    <cmt>Amenity::entertainment:public_bookcase</cmt>
    <desc>Sur le parking, en face de l école Raymond Devos</desc>
    <type>Boite à livre</type>
  </wpt>
  <wpt lat="47.08796290000001" lon="-1.2863923">
    <name>Rue Ferdinand Albert</name>
    <cmt>Amenity::entertainment:public_bookcase</cmt>
    <desc>Cabine téléphonique transformée en Boite à Lire sur le parvis de la gare Rue Ferdinand Albert.</desc>
    <type>Boite à livre</type>
  </wpt>
  <wpt lat="47.4055663" lon="-0.7614572">
    <name>Rue des Peupliers</name>
    <cmt>Amenity::entertainment:public_bookcase</cmt>
    <desc>Devant la salle des fetes Beausite, a coté de l étang</desc>
    <type>Boite à livre</type>
  </wpt>
  <wpt lat="48.375496199999986" lon="0.0516811">
    <name>Place de la mairie</name>
    <cmt>Amenity::entertainment:public_bookcase</cmt>
    <desc>Ancienne cabine téléphonique</desc>
    <type>Boite à livre</type>
  </wpt>
  <wpt lat="48.032624000000006" lon="0.159039">
    <name>place de l&apos;Europe</name>
    <cmt>Amenity::entertainment:public_bookcase</cmt>
    <desc>En face de la boulangerie sur la place piétonne du village !</desc>
    <type>Boite à livre</type>
  </wpt>
  <wpt lat="47.968516499999986" lon="0.16066760000000005">
    <name>esplanade nelson mandela</name>
    <cmt>Amenity::entertainment:public_bookcase</cmt>
    <desc>PLACE SUR LA PLACE DE LA MAIRIE A COTE DES ESCALIERS</desc>
    <type>Boite à livre</type>
  </wpt>
  <wpt lat="47.81535099999998" lon="0.23174500000000003">
    <name>Mairie</name>
    <cmt>Amenity::entertainment:public_bookcase</cmt>
    <type>Boite à livre</type>
  </wpt>
  <wpt lat="47.32690899999999" lon="-0.349683">
    <name>Rue du plan d eau</name>
    <cmt>Amenity::entertainment:public_bookcase</cmt>
    <type>Boite à livre</type>
  </wpt>
  <wpt lat="46.35265659999999" lon="-1.2523612000000002">
    <name>Place du Marché</name>
    <cmt>Amenity::entertainment:public_bookcase</cmt>
    <desc>À retrouver sur le square face à la mairie, au croisement de l Allée des Arts et Rue Paul Berjonneau</desc>
    <type>Boite à livre</type>
  </wpt>
  <wpt lat="47.31302360000001" lon="-1.5428994000000003">
    <name>15 Route de Sucé</name>
    <cmt>Amenity::entertainment:public_bookcase</cmt>
    <desc>Dans la laverie du centre commercial Intermarché</desc>
    <type>Boite à livre</type>
  </wpt>
  <wpt lat="46.53704429999998" lon="-1.7742931">
    <name>3 rue du maréchal foch</name>
    <cmt>Amenity::entertainment:public_bookcase</cmt>
    <desc>Face à l&apos;église, près de l&apos;ancienne bibliothèque municipale</desc>
    <type>Boite à livre</type>
  </wpt>
  <wpt lat="47.73426399999999" lon="-0.23573520000000003">
    <name>angle rue du Maine et rue de l Ecole</name>
    <cmt>Amenity::entertainment:public_bookcase</cmt>
    <desc>Entrez dans le chemin de la propriété, la boite est à droite sous le préau</desc>
    <type>Boite à livre</type>
  </wpt>
  <wpt lat="47.21363149999998" lon="-1.7278771">
    <name>7 Boulevard François Blancho</name>
    <cmt>Amenity::entertainment:public_bookcase</cmt>
    <desc>Centre socio-culturel Pierre Legendre</desc>
    <type>Boite à livre</type>
  </wpt>
  <wpt lat="47.0969984" lon="-1.6379935">
    <name>Place des Pêcheurs</name>
    <cmt>Amenity::entertainment:public_bookcase</cmt>
    <desc>Ancien vestiaire en métal situé à côté des jeux</desc>
    <type>Boite à livre</type>
  </wpt>
  <wpt lat="48.0405839" lon="0.1743174">
    <name>Route d&apos;Alençon</name>
    <cmt>Amenity::entertainment:public_bookcase</cmt>
    <desc>Dans la galerie commerciale d&apos;Auchan, des étagères sont mises à dispositions pour déposer, échanger des livres.</desc>
    <type>Boite à livre</type>
  </wpt>
  <wpt lat="47.279781099999994" lon="-2.0624422">
    <name>Port de la maison verte</name>
    <cmt>Amenity::entertainment:public_bookcase</cmt>
    <desc>Jolie boîte en forme de pêcherie pour rappeler toutes celles qui sont situées à proximité, le long de la Loire</desc>
    <type>Boite à livre</type>
  </wpt>
  <wpt lat="47.81389349999999" lon="-0.0862626">
    <name>2 place de la république</name>
    <cmt>Amenity::entertainment:public_bookcase</cmt>
    <desc>Boîte inaugurée il y a un peu moins de deux ans. Les livres tournent bien dans l&apos;ensemble.</desc>
    <type>Boite à livre</type>
  </wpt>
  <wpt lat="46.40883689999998" lon="-1.584949">
    <name>Port de plaisance</name>
    <cmt>Amenity::entertainment:public_bookcase</cmt>
    <type>Boite à livre</type>
  </wpt>
  <wpt lat="47.1774609" lon="-1.6777939">
    <name>super u</name>
    <cmt>Amenity::entertainment:public_bookcase</cmt>
    <desc>Il y a une boîte à livre à l&apos;entrée du super u de la montagne</desc>
    <type>Boite à livre</type>
  </wpt>
  <wpt lat="47.19516589999998" lon="-0.9937340000000001">
    <name>Route de l Hippodrome</name>
    <cmt>Amenity::entertainment:public_bookcase</cmt>
    <desc>La boite à lire se trouve sous le porche d une maison en pierre auprès du rond-point - sous la piscine</desc>
    <type>Boite à livre</type>
  </wpt>
  <wpt lat="47.12666780000001" lon="-0.9940844000000001">
    <name>22 rue Jules Verne -St Macaire en Mauges</name>
    <cmt>Amenity::entertainment:public_bookcase</cmt>
    <desc>Boite à lire mise à disposition en façade du Centre Social Indigo. La boite à été fabriquée par un bénévole du centre Social. Accès libre 24/24, 365 jours par an. Un salarié du Centre Social est en charge de la boite à lire.</desc>
    <type>Boite à livre</type>
  </wpt>
  <wpt lat="46.910272699999986" lon="-2.0337767">
    <name>28 rue de la Roche</name>
    <cmt>Amenity::entertainment:public_bookcase</cmt>
    <desc>Terre de Marins</desc>
    <type>Boite à livre</type>
  </wpt>
  <wpt lat="46.833108100000004" lon="-1.8707822">
    <name>5 chemin de l&apos;Ogerie</name>
    <cmt>Amenity::entertainment:public_bookcase</cmt>
    <desc>La boite à livre se trouve à coté de la salle intergénérationnelle de l&apos;Ogerie au village-retraite de l&apos;Ogerie.</desc>
    <type>Boite à livre</type>
  </wpt>
  <wpt lat="48.3086356" lon="0.4005897">
    <name>1 Rue du Vairais</name>
    <cmt>Amenity::entertainment:public_bookcase</cmt>
    <desc>Repérée hier en allant à un concert  petite boîte à lire sur l&apos;avenue principale près de la mairie !</desc>
    <type>Boite à livre</type>
  </wpt>
  <wpt lat="47.923068999999984" lon="-0.8037830000000001">
    <name>Parc jeux enfants, terrain de petanque</name>
    <cmt>Amenity::entertainment:public_bookcase</cmt>
    <type>Boite à livre</type>
  </wpt>
  <wpt lat="46.595045499999976" lon="-1.4542073">
    <name>21 rue Saint Laurent</name>
    <cmt>Amenity::entertainment:public_bookcase</cmt>
    <desc>Petite boîte à lire à côté de Vendée Logement dans le renfoncement d un chemin accolé au mur d&apos;une maison.</desc>
    <type>Boite à livre</type>
  </wpt>
  <wpt lat="48.06433999999999" lon="0.1362701">
    <name>Place de l Europe</name>
    <cmt>Amenity::entertainment:public_bookcase</cmt>
    <type>Boite à livre</type>
  </wpt>
  <wpt lat="47.9884886" lon="0.1893602">
    <name>Miroir - Batignolles</name>
    <cmt>Amenity::entertainment:public_bookcase</cmt>
    <desc>La boite se trouve près des jeux pour enfants.</desc>
    <type>Boite à livre</type>
  </wpt>
  <wpt lat="46.642441" lon="-0.805903">
    <name>place du village</name>
    <cmt>Amenity::entertainment:public_bookcase</cmt>
    <desc>elle se trouve sous un  préau en face du cafébanc pour lire sur place si on veutmode emploi français /anglaisil parait que les peintures naturelles ont été fabriquées par les enfants de l école</desc>
    <type>Boite à livre</type>
  </wpt>
  <wpt lat="47.70281499999999" lon="-0.876342">
    <name>Place du moulin</name>
    <cmt>Amenity::entertainment:public_bookcase</cmt>
    <desc>Boîte d échange installée en 2017.</desc>
    <type>Boite à livre</type>
  </wpt>
  <wpt lat="48.037600199999986" lon="0.19123069999999998">
    <name>Rue du monnet</name>
    <cmt>Amenity::entertainment:public_bookcase</cmt>
    <desc>Armoire à livres.</desc>
    <type>Boite à livre</type>
  </wpt>
  <wpt lat="46.39983420000001" lon="-0.8981087">
    <name>place du Gué de Velluire</name>
    <cmt>Amenity::entertainment:public_bookcase</cmt>
    <desc>sur la place du Gué de Velluire, sous la halle rénovée, face à la Vendée, en face du café  le guétréen</desc>
    <type>Boite à livre</type>
  </wpt>
  <wpt lat="47.213803000000006" lon="-0.191121">
    <name>Ulmes</name>
    <cmt>Amenity::entertainment:public_bookcase</cmt>
    <desc>À côté de l&apos;église.</desc>
    <type>Boite à livre</type>
  </wpt>
  <wpt lat="48.223793300000004" lon="-0.8733137000000001">
    <name>place de la mairie</name>
    <cmt>Amenity::entertainment:public_bookcase</cmt>
    <type>Boite à livre</type>
  </wpt>
  <wpt lat="47.122895799999995" lon="-2.0595785">
    <name>RUE DES NONDALES</name>
    <cmt>Amenity::entertainment:public_bookcase</cmt>
    <desc>grande boite en bois face a l église , a coté de l&apos;école</desc>
    <type>Boite à livre</type>
  </wpt>
  <wpt lat="47.36939110000001" lon="-1.1777273">
    <name>Gare d Ancenis</name>
    <cmt>Amenity::entertainment:public_bookcase</cmt>
    <desc>Dans le hall de la gare</desc>
    <type>Boite à livre</type>
  </wpt>
  <wpt lat="47.100839" lon="-1.8101829999999999">
    <name>Place de l Abbé Portier</name>
    <cmt>Amenity::entertainment:public_bookcase</cmt>
    <type>Boite à livre</type>
  </wpt>
  <wpt lat="47.99921719999998" lon="0.207001">
    <name>3 rue Charles Larrouil</name>
    <cmt>Amenity::entertainment:public_bookcase</cmt>
    <desc>Nous avons créé cette boîte à livres pour tous les lecteurs , petits et grands.</desc>
    <type>Boite à livre</type>
  </wpt>
  <wpt lat="47.059759000000014" lon="-0.8824458999999999">
    <name>Place du Mail</name>
    <cmt>Amenity::entertainment:public_bookcase</cmt>
    <desc>Une boite à lire sur la parking du Mail derrière le tribunal</desc>
    <type>Boite à livre</type>
  </wpt>
  <wpt lat="47.27565809999999" lon="-2.4301268000000005">
    <name>rue du Maréchal Joffre</name>
    <cmt>Amenity::entertainment:public_bookcase</cmt>
    <desc>La boite à lire se trouve près du cinéma Pax.</desc>
    <type>Boite à livre</type>
  </wpt>
  <wpt lat="46.7792913" lon="-1.0626006">
    <name>6 place Clémenceau</name>
    <cmt>Amenity::entertainment:public_bookcase</cmt>
    <desc>Installée par la Communauté de Communes du Pays des Herbiers, sur la place principale.</desc>
    <type>Boite à livre</type>
  </wpt>
  <wpt lat="46.49480649868453" lon="-1.788480877876282">
    <name>Promenade de l&apos;Amiral Lafargue</name>
    <cmt>Amenity::entertainment:public_bookcase</cmt>
    <desc>Devant la place du palais de justice</desc>
    <type>Boite à livre</type>
  </wpt>
  <wpt lat="46.50414909999999" lon="-1.5737721">
    <name>Rue du moulin des landes</name>
    <cmt>Amenity::entertainment:public_bookcase</cmt>
    <type>Boite à livre</type>
  </wpt>
  <wpt lat="46.6588344" lon="-1.5714908">
    <name>Place de l église</name>
    <cmt>Amenity::entertainment:public_bookcase</cmt>
    <type>Boite à livre</type>
  </wpt>
  <wpt lat="47.4737826" lon="-1.7560753999999998">
    <name>Parc de la mairie</name>
    <cmt>Amenity::entertainment:public_bookcase</cmt>
    <desc>Cette boite à lire se trouve en face du parc de jeux au coeur du petit parc.</desc>
    <type>Boite à livre</type>
  </wpt>
  <wpt lat="47.442217400000004" lon="-0.20545370000000002">
    <name>Promenade des Rimiaux</name>
    <cmt>Amenity::entertainment:public_bookcase</cmt>
    <desc>Dans l espace jeux enfants</desc>
    <type>Boite à livre</type>
  </wpt>
  <wpt lat="47.257620499999994" lon="-2.0185557">
    <name>10 rue parc des sports</name>
    <cmt>Amenity::entertainment:public_bookcase</cmt>
    <desc>Située près de l&apos;entrée de l&apos;école, côté maternelle. La maison des livres est un petit chalet réalisé par les parents de l&apos;école Saint Vital.</desc>
    <type>Boite à livre</type>
  </wpt>
  <wpt lat="47.2353768" lon="-1.3404621">
    <name>salle de sport du complexe sportif du zephir, rue d anjou</name>
    <cmt>Amenity::entertainment:public_bookcase</cmt>
    <desc>A l extérieur devant l&apos;entrée principale du complexe</desc>
    <type>Boite à livre</type>
  </wpt>
  <wpt lat="47.4571916" lon="-0.5316553">
    <name>place de la fraternité</name>
    <cmt>Amenity::entertainment:public_bookcase</cmt>
    <desc>Elle se trouve sous le jardin sonore , derrière l&apos;arrêt de tramway</desc>
    <type>Boite à livre</type>
  </wpt>
  <wpt lat="47.99626949999998" lon="0.19197460000000002">
    <name>Boulevard Robert Jarry</name>
    <cmt>Amenity::entertainment:public_bookcase</cmt>
    <desc>Parvis Gare Nord</desc>
    <type>Boite à livre</type>
  </wpt>
  <wpt lat="47.097331700000005" lon="-1.1256381">
    <name>7bis rue Louis monnier</name>
    <cmt>Amenity::entertainment:public_bookcase</cmt>
    <desc>Ancienne cabine téléphonique située devant la boulangerie.</desc>
    <type>Boite à livre</type>
  </wpt>
  <wpt lat="47.283345999999995" lon="-1.8731685000000002">
    <name>port</name>
    <cmt>Amenity::entertainment:public_bookcase</cmt>
    <desc>Entrée du grand lac à côté du port.</desc>
    <type>Boite à livre</type>
  </wpt>
  <wpt lat="47.493563999999985" lon="0.11949700000000002">
    <name>Rue des écoles</name>
    <cmt>Amenity::entertainment:public_bookcase</cmt>
    <desc>Ancienne boîte à livres située devant l église</desc>
    <type>Boite à livre</type>
  </wpt>
  <wpt lat="46.42525200000001" lon="-1.4876879000000003">
    <name>rue de la plaine</name>
    <cmt>Amenity::entertainment:public_bookcase</cmt>
    <desc>Elle se trouve dans le parc, derrière la bibliothèque.</desc>
    <type>Boite à livre</type>
  </wpt>
  <wpt lat="47.24144259171409" lon="-1.608204245567322">
    <name>1 rue du Nil , centre com. Des Thébaudières</name>
    <cmt>Amenity::entertainment:public_bookcase</cmt>
    <desc>Un étage est réservé pour les enfants</desc>
    <type>Boite à livre</type>
  </wpt>
  <wpt lat="47.27179069999999" lon="-2.3451946">
    <name>Annexe de la mairie du Guézy</name>
    <cmt>Amenity::entertainment:public_bookcase</cmt>
    <desc>Une autre cabane à livres, devant l annexe de la mairie, au Guézy.</desc>
    <type>Boite à livre</type>
  </wpt>
  <wpt lat="47.79052670000001" lon="0.7004128000000001">
    <name>Parking du Tusson</name>
    <cmt>Amenity::entertainment:public_bookcase</cmt>
    <desc>Petite boîte a lire très bien placé alimentée par les habitants du village</desc>
    <type>Boite à livre</type>
  </wpt>
  <wpt lat="47.085845000000006" lon="-1.279577">
    <name>Rue de la montée de l Éperon</name>
    <cmt>Amenity::entertainment:public_bookcase</cmt>
    <desc>Ancienne cabine téléphonique acceuillant des livres, bercée par les clapotis de la Sèvre Nantaise</desc>
    <type>Boite à livre</type>
  </wpt>
  <wpt lat="46.69631059999999" lon="-1.9391367">
    <name>Passerelle pietonne</name>
    <cmt>Amenity::entertainment:public_bookcase</cmt>
    <desc>Les livres se renouvellent régulièrement. Beaucoup de touristes donc une explication en anglais serait interessante</desc>
    <type>Boite à livre</type>
  </wpt>
  <wpt lat="47.1627093" lon="-1.2653411000000006">
    <name>7 Boulevard Evariste Dejoie</name>
    <cmt>Amenity::entertainment:public_bookcase</cmt>
    <desc>La boite est dans le hall d accueil de la piscine Naïadolis</desc>
    <type>Boite à livre</type>
  </wpt>
  <wpt lat="47.206639399999986" lon="-1.5492607">
    <name>8 rue Grande Biesse</name>
    <cmt>Amenity::entertainment:public_bookcase</cmt>
    <desc>Troc de livre de cuisine au sein d&apos;une épicerie-bar-restaurant, La Grande Barge, sur l&apos;île de Nantes.</desc>
    <type>Boite à livre</type>
  </wpt>
  <wpt lat="47.71041419999998" lon="-0.5627044">
    <name>64 Rue des Merisiers</name>
    <cmt>Amenity::entertainment:public_bookcase</cmt>
    <desc>Un frigo en guise de boîte à livres, une belle initiatives de la bibliothèque de Marigné!</desc>
    <type>Boite à livre</type>
  </wpt>
  <wpt lat="47.0856922" lon="-1.2806287">
    <name>parc du chateau</name>
    <cmt>Amenity::entertainment:public_bookcase</cmt>
    <desc>Au pied du château.</desc>
    <type>Boite à livre</type>
  </wpt>
  <wpt lat="47.244188" lon="-1.551026">
    <name>Chemin de la Censive du Tertre, bâtiment de Droit</name>
    <cmt>Amenity::entertainment:public_bookcase</cmt>
    <desc>Bibliothèque participative lancée par l UFR Droit dans une  bibliothèque vitrée dans le hall central du bâtiment de Droit</desc>
    <type>Boite à livre</type>
  </wpt>
  <wpt lat="47.48536729999998" lon="-0.5458298">
    <name>5 rue Richard Lenoir</name>
    <cmt>Amenity::entertainment:public_bookcase</cmt>
    <desc>A la sortie du magasin l eau vive</desc>
    <type>Boite à livre</type>
  </wpt>
  <wpt lat="47.975024499999996" lon="0.2200925">
    <name>Maison Pour Tous Jean-Moulin</name>
    <cmt>Amenity::entertainment:public_bookcase</cmt>
    <desc>Boîte à livres tenue par Christine</desc>
    <type>Boite à livre</type>
  </wpt>
  <wpt lat="47.223598899999985" lon="-1.5158506">
    <name>20 rue du petit Blottereau</name>
    <cmt>Amenity::entertainment:public_bookcase</cmt>
    <desc>Boîte à livre créée par des particuliers</desc>
    <type>Boite à livre</type>
  </wpt>
  <wpt lat="47.2767323420735" lon="-2.210934162139893">
    <name>Rue de la Paix</name>
    <cmt>Amenity::entertainment:public_bookcase</cmt>
    <desc>A côté du Pop Art Café</desc>
    <type>Boite à livre</type>
  </wpt>
  <wpt lat="47.06089600000001" lon="-1.5182119">
    <name>Square des bois</name>
    <cmt>Amenity::entertainment:public_bookcase</cmt>
    <desc>4 boîtes à lire sur la commune</desc>
    <type>Boite à livre</type>
  </wpt>
  <wpt lat="47.194936799999994" lon="-1.5401456999999998">
    <name>rue Gabriel Goudy</name>
    <cmt>Amenity::entertainment:public_bookcase</cmt>
    <desc>Quartier PirmilUne très jolie boîte à livres en bois .</desc>
    <type>Boite à livre</type>
  </wpt>
  <wpt lat="46.9041571" lon="-1.3788571">
    <name>parking du stade</name>
    <cmt>Amenity::entertainment:public_bookcase</cmt>
    <desc>La  cabinalivre est une ancienne cabine téléphonique relookée pour l occasion et accueille plein de livres d&apos;occasion. Elle est située sur le parking du stade de la commune, non loin du camping</desc>
    <type>Boite à livre</type>
  </wpt>
  <wpt lat="47.47483119999998" lon="-0.5444026">
    <name>jardin des plantes</name>
    <cmt>Amenity::entertainment:public_bookcase</cmt>
    <type>Boite à livre</type>
  </wpt>
  <wpt lat="47.65056700000001" lon="-0.44496600000000003">
    <name>Place de l&apos;église</name>
    <cmt>Amenity::entertainment:public_bookcase</cmt>
    <desc>Ancienne cabine téléphonique aménagée en boite a lire.Devant le coiffeur!</desc>
    <type>Boite à livre</type>
  </wpt>
  <wpt lat="48.00843319999999" lon="0.19689399999999999">
    <name>41 RUE GRANDE RUE</name>
    <cmt>Amenity::entertainment:public_bookcase</cmt>
    <desc>PLACE SUR LA PLACE PRES DE LA MAISON DU PILIER  ROUGE ET DU SQUARE</desc>
    <type>Boite à livre</type>
  </wpt>
  <wpt lat="47.20538939999999" lon="-1.5346765">
    <name>Centre commercial beaulieu</name>
    <cmt>Amenity::entertainment:public_bookcase</cmt>
    <desc>Accueil du centreSur des etageres</desc>
    <type>Boite à livre</type>
  </wpt>
  <wpt lat="46.73923499999999" lon="-1.6085690000000001">
    <name>place de la Poste</name>
    <cmt>Amenity::entertainment:public_bookcase</cmt>
    <type>Boite à livre</type>
  </wpt>
  <wpt lat="47.22581439999998" lon="-1.5554311000000003">
    <name>2566 Quai de Versailles</name>
    <cmt>Amenity::entertainment:public_bookcase</cmt>
    <desc>Petites boîtes à livres cachées dans deux troncs d arbres coupés. Une est dédiée aux enfants.</desc>
    <type>Boite à livre</type>
  </wpt>
  <wpt lat="47.71971369999999" lon="-1.3850217">
    <name>Parc de radervormwald</name>
    <cmt>Amenity::entertainment:public_bookcase</cmt>
    <type>Boite à livre</type>
  </wpt>
  <wpt lat="46.66763120000001" lon="-1.4279082">
    <name>rue Dellile</name>
    <cmt>Amenity::entertainment:public_bookcase</cmt>
    <desc>Il en existe une deuxième à proximité du groupe scolaire de la Généraudière et une troisième actuellement en réparation se trouve place Albert 1er.</desc>
    <type>Boite à livre</type>
  </wpt>
  <wpt lat="47.15398999999998" lon="-1.474506">
    <name>château de la Frémoire</name>
    <cmt>Amenity::entertainment:public_bookcase</cmt>
    <desc>la boite à lire se trouve à gauche en entrant sur le site sous une passerelle</desc>
    <type>Boite à livre</type>
  </wpt>
  <wpt lat="46.67181149999998" lon="-1.2980575">
    <name>Impasse des Poètes</name>
    <cmt>Amenity::entertainment:public_bookcase</cmt>
    <desc>Jolie boîte située derrière la mairie près de la place de parking pour personne handicapée</desc>
    <type>Boite à livre</type>
  </wpt>
  <wpt lat="46.49132" lon="-1.426528">
    <name>MOUTIERS LES MAUXFAITS</name>
    <cmt>Amenity::entertainment:public_bookcase</cmt>
    <desc>à la poste, 29 av Georges Clémenceau</desc>
    <type>Boite à livre</type>
  </wpt>
  <wpt lat="48.14377119999999" lon="0.1705136">
    <name>Place de L église</name>
    <cmt>Amenity::entertainment:public_bookcase</cmt>
    <desc>Située derrière l&apos;église</desc>
    <type>Boite à livre</type>
  </wpt>
  <wpt lat="46.833378399999994" lon="-1.1921518999999998">
    <name>place du tilleuls</name>
    <cmt>Amenity::entertainment:public_bookcase</cmt>
    <desc>Les magasins de proximité Vival installent des boites à livres devant tous leurs magasins.</desc>
    <type>Boite à livre</type>
  </wpt>
  <wpt lat="47.21566539999999" lon="-1.545345">
    <name>Jardin Unique quai Ferdinand Favre</name>
    <cmt>Amenity::entertainment:public_bookcase</cmt>
    <desc>Boite à lire située dans le Jardin Unique, un jardin d&apos;habitants accompagnés par l&apos;Association ECOS, en contre-bas du lieu unique.</desc>
    <type>Boite à livre</type>
  </wpt>
  <wpt lat="47.4748741" lon="-2.0579874">
    <name>GRANDE RUE</name>
    <cmt>Amenity::entertainment:public_bookcase</cmt>
    <desc>Voici un projet de L ARBRE A MOTS avec la mise en place d&apos;une Boite à Livres. Installé depuis octobre  elle rencontre un vif succès.</desc>
    <type>Boite à livre</type>
  </wpt>
  <wpt lat="46.38138399999998" lon="-1.122739">
    <name>Rue du bourg Chapon</name>
    <cmt>Amenity::entertainment:public_bookcase</cmt>
    <desc>De couleur marron....</desc>
    <type>Boite à livre</type>
  </wpt>
  <wpt lat="47.6471969" lon="0.1569205">
    <name>place Francois de Nicolay</name>
    <cmt>Amenity::entertainment:public_bookcase</cmt>
    <desc>Bonjour 5 boites à lire ont été mises en place en 2017 dans LE LUDE en Sarthe près de l office de tourisme et la mairie Place Francois de Nicolay à proximité de l&apos;espace co working allée de l&apos;ancienne gare au camping Au bord du Loir route du mans au gymnase route Pontfour au foyer des lilas 2 bd Georges Sand</desc>
    <type>Boite à livre</type>
  </wpt>
  <wpt lat="47.25754029999999" lon="-1.9144393000000004">
    <name>Square de la Chaussée</name>
    <cmt>Amenity::entertainment:public_bookcase</cmt>
    <desc>A l&apos;entrée du camping municipal  cette boîte à lire a été installée par la mairie  au bord du Canal de la Martinière  tout près de l&apos;Incroyable Jardin du Migron et du Quai Vert.</desc>
    <type>Boite à livre</type>
  </wpt>
  <wpt lat="47.41691049999998" lon="-2.0841921">
    <name>L urin,</name>
    <cmt>Amenity::entertainment:public_bookcase</cmt>
    <desc>Près de l étang</desc>
    <type>Boite à livre</type>
  </wpt>
  <wpt lat="47.49200589999998" lon="-0.5126965">
    <name>Centre commercial Éventard</name>
    <cmt>Amenity::entertainment:public_bookcase</cmt>
    <desc>Boîte située au coeur du centre commercial.</desc>
    <type>Boite à livre</type>
  </wpt>
  <wpt lat="47.267934399999994" lon="-2.1678018">
    <name>Place de Bougainville, MINDIN</name>
    <cmt>Amenity::entertainment:public_bookcase</cmt>
    <desc>A proximité du Pont de Saint-Nazaire, Place de Bougainville, côté Jardin Public</desc>
    <type>Boite à livre</type>
  </wpt>
  <wpt lat="48.40584199999998" lon="-0.9246545">
    <name>L Almois</name>
    <cmt>Amenity::entertainment:public_bookcase</cmt>
    <desc>La boite à lire se trouve dans le bourg, c est une ancienne cabine téléphonique.Des romans en français, en anglais, du thriller au jeunesse.</desc>
    <type>Boite à livre</type>
  </wpt>
  <wpt lat="47.349744000000015" lon="-0.7601599000000001">
    <name>Rue des Marais</name>
    <cmt>Amenity::entertainment:public_bookcase</cmt>
    <desc>Au bord de la Loire</desc>
    <type>Boite à livre</type>
  </wpt>
  <wpt lat="47.22741999999998" lon="-0.8965068">
    <name>Place du 22 Janvier 1794</name>
    <cmt>Amenity::entertainment:public_bookcase</cmt>
    <desc>La boite à lire se trouve auprès de l étang en bas du parking</desc>
    <type>Boite à livre</type>
  </wpt>
  <wpt lat="46.966618999999994" lon="-1.5769290000000002">
    <name>rue du 8 mai 1945</name>
    <cmt>Amenity::entertainment:public_bookcase</cmt>
    <type>Boite à livre</type>
  </wpt>
  <wpt lat="46.42100310000001" lon="-1.5696218">
    <name>ESPLANADE CLEMENCEAU</name>
    <cmt>Amenity::entertainment:public_bookcase</cmt>
    <type>Boite à livre</type>
  </wpt>
  <wpt lat="46.657548500000004" lon="-1.4056847000000001">
    <name>61 chemin de la Giraudière</name>
    <cmt>Amenity::entertainment:public_bookcase</cmt>
    <desc>Maison de quartier du Bourg-sous-la-Roche.</desc>
    <type>Boite à livre</type>
  </wpt>
  <wpt lat="47.35072319406827" lon="-0.22461891174316403">
    <name>Rue du Mail</name>
    <cmt>Amenity::entertainment:public_bookcase</cmt>
    <desc>Sur la place du mail juste a côté de la fontaine avec la boule qui se renverse quand remplie d&apos;eau</desc>
    <type>Boite à livre</type>
  </wpt>
  <wpt lat="47.057709199999984" lon="-0.8730713">
    <name>1, rue Emile Grasset</name>
    <cmt>Amenity::entertainment:public_bookcase</cmt>
    <desc>Elle se trouve en bord de route à proximité du centre social pasteur</desc>
    <type>Boite à livre</type>
  </wpt>
  <wpt lat="47.33123500000001" lon="-0.477918">
    <name>4 ou 6 la blottier</name>
    <cmt>Amenity::entertainment:public_bookcase</cmt>
    <desc>sur le parking d un particulier</desc>
    <type>Boite à livre</type>
  </wpt>
  <wpt lat="47.19909770000002" lon="-1.5264986">
    <name>59 Avenue de la Martellière</name>
    <cmt>Amenity::entertainment:public_bookcase</cmt>
    <desc>Boite à lire récente, située dans l allée menant du parking du gymnase de la Martellière à l&apos;école Marie Curie. Accessible 24h/24. Régulièrement réapprovisionnée par les enfants, parents et professeurs.</desc>
    <type>Boite à livre</type>
  </wpt>
  <wpt lat="47.47109399999999" lon="-0.34986000000000006">
    <name>place Paul Mauget</name>
    <cmt>Amenity::entertainment:public_bookcase</cmt>
    <type>Boite à livre</type>
  </wpt>
  <wpt lat="47.22722600000001" lon="-1.3131990000000002">
    <name>village du Pé Bardou</name>
    <cmt>Amenity::entertainment:public_bookcase</cmt>
    <desc>au c?ur du village, près de l arrêt du car.</desc>
    <type>Boite à livre</type>
  </wpt>
  <wpt lat="47.47093339999999" lon="-0.5513821">
    <name>Place du Ralliement</name>
    <cmt>Amenity::entertainment:public_bookcase</cmt>
    <type>Boite à livre</type>
  </wpt>
  <wpt lat="46.43980659999998" lon="-1.3744448">
    <name>Mairie</name>
    <cmt>Amenity::entertainment:public_bookcase</cmt>
    <desc>Boîte à livres située à l&apos;intérieur du Café-Epicerie situé à côté de la mairie</desc>
    <type>Boite à livre</type>
  </wpt>
  <wpt lat="47.06279599999998" lon="-0.938964">
    <name>Rue de l Abbé Chauveau</name>
    <cmt>Amenity::entertainment:public_bookcase</cmt>
    <desc>La boite à lire se trouve devant la Mairie de la Séguinière</desc>
    <type>Boite à livre</type>
  </wpt>
  <wpt lat="47.489539599999986" lon="-0.5300373">
    <name>Rue du Pin</name>
    <cmt>Amenity::entertainment:public_bookcase</cmt>
    <desc>Elle se trouve dans le parc du Pin</desc>
    <type>Boite à livre</type>
  </wpt>
  <wpt lat="47.5507405" lon="-0.2878028">
    <name>Lac de Malagué</name>
    <cmt>Amenity::entertainment:public_bookcase</cmt>
    <desc>Mini bibliothèque estivale située devant la cabane d accueil.</desc>
    <type>Boite à livre</type>
  </wpt>
  <wpt lat="47.40933599999999" lon="-2.298955">
    <name>Marlais</name>
    <cmt>Amenity::entertainment:public_bookcase</cmt>
    <desc>Armoire sous l&apos;abribus à l&apos;entrée du village de Marlais.</desc>
    <type>Boite à livre</type>
  </wpt>
  <wpt lat="47.47589869999999" lon="-0.5890877">
    <name>32 Rue Henri Hamelin</name>
    <cmt>Amenity::entertainment:public_bookcase</cmt>
    <desc>à coté du bureau de poste de belle beille</desc>
    <type>Boite à livre</type>
  </wpt>
  <wpt lat="47.3713936" lon="-0.2662269">
    <name>Place de l église</name>
    <cmt>Amenity::entertainment:public_bookcase</cmt>
    <desc>Sous un petit porche appuyé à l église côté opposé au clocher.</desc>
    <type>Boite à livre</type>
  </wpt>
  <wpt lat="47.1884883" lon="-1.6836738999999998">
    <name>place Similien-Guérin</name>
    <cmt>Amenity::entertainment:public_bookcase</cmt>
    <desc>Cette boîte est installée tout près du cinéma Le Montagnard  sur la place où se tient le marché le mercredi matin.</desc>
    <type>Boite à livre</type>
  </wpt>
  <wpt lat="46.640256999999984" lon="-1.712964">
    <name>Place Jeanne d&apos;Arc</name>
    <cmt>Amenity::entertainment:public_bookcase</cmt>
    <desc>Boîte à lire mise en place par le Lions Club des Sables d&apos;Olonne.</desc>
    <type>Boite à livre</type>
  </wpt>
  <wpt lat="47.23293829999999" lon="-0.2108643">
    <name>Rue principale</name>
    <cmt>Amenity::entertainment:public_bookcase</cmt>
    <desc>Dans la cabine téléphonique</desc>
    <type>Boite à livre</type>
  </wpt>
  <wpt lat="47.160928999999996" lon="-1.265138">
    <name>Square Jim-Howart</name>
    <cmt>Amenity::entertainment:public_bookcase</cmt>
    <type>Boite à livre</type>
  </wpt>
  <wpt lat="47.2152158" lon="-1.5537231000000005">
    <name>9, rue de la bâclerie</name>
    <cmt>Amenity::entertainment:public_bookcase</cmt>
    <desc>A l intérieur de la cabane dans la cour, une boîte à livres spéciale ouvrages jeunesses, à l&apos;initiative de l&apos;association Passage Sainte Croix</desc>
    <type>Boite à livre</type>
  </wpt>
  <wpt lat="47.2885049" lon="-2.3891998">
    <name>La Gare</name>
    <cmt>Amenity::entertainment:public_bookcase</cmt>
    <desc>En face de la gare, sur le trottoir devant le café.</desc>
    <type>Boite à livre</type>
  </wpt>
  <wpt lat="47.400506064909486" lon="-0.37028968334198004">
    <name>Impasse André Joubert</name>
    <cmt>Amenity::entertainment:public_bookcase</cmt>
    <desc>Boîte située à l&apos;entrée de l&apos;impasse à l&apos;arrière de l&apos;église.</desc>
    <type>Boite à livre</type>
  </wpt>
  <wpt lat="46.8753057" lon="-2.0079243000000004">
    <name>Allée de la Mairie</name>
    <cmt>Amenity::entertainment:public_bookcase</cmt>
    <desc>Mis en place par le Conseil Municipal des Jeunes de Saint-Urbain</desc>
    <type>Boite à livre</type>
  </wpt>
  <wpt lat="47.04848589999999" lon="-0.869653">
    <name>Rue du Carteron</name>
    <cmt>Amenity::entertainment:public_bookcase</cmt>
    <desc>Elle se trouve sous le porche de l ASPTT</desc>
    <type>Boite à livre</type>
  </wpt>
  <wpt lat="47.423786999999976" lon="-0.557593">
    <name>avenue du commerce</name>
    <cmt>Amenity::entertainment:public_bookcase</cmt>
    <desc>Ancienne cabine téléphonique peinte en bleu, près du supermarché</desc>
    <type>Boite à livre</type>
  </wpt>
  <wpt lat="46.4184812" lon="-1.5550029">
    <name>ROUTE DE JARD</name>
    <cmt>Amenity::entertainment:public_bookcase</cmt>
    <desc>devant la bibliothèque</desc>
    <type>Boite à livre</type>
  </wpt>
  <wpt lat="47.88863959999998" lon="-0.233531">
    <name>Rue du Lavoir</name>
    <cmt>Amenity::entertainment:public_bookcase</cmt>
    <desc>Dans l ancienne cabine téléphonique, des bénévoles la rechargent une fois par semaine.</desc>
    <type>Boite à livre</type>
  </wpt>
  <wpt lat="47.47029149999999" lon="-0.5395021">
    <name>Parc Bellefontaine</name>
    <cmt>Amenity::entertainment:public_bookcase</cmt>
    <desc>Elle se trouve dans le parc même sur le chemin bétonné près de l entrée qui donne sur le parking et sur la rue de la Rame.</desc>
    <type>Boite à livre</type>
  </wpt>
  <wpt lat="47.2171444" lon="-1.5539257999999996">
    <name>Rue Fénélon</name>
    <cmt>Amenity::entertainment:public_bookcase</cmt>
    <desc>Juste à côté de l&apos;ancienne galerie Dulcie</desc>
    <type>Boite à livre</type>
  </wpt>
  <wpt lat="47.2644912" lon="-2.2270711">
    <name>169 rue de pornichet</name>
    <cmt>Amenity::entertainment:public_bookcase</cmt>
    <type>Boite à livre</type>
  </wpt>
  <wpt lat="47.10009900000001" lon="-1.187918">
    <name>2 Rue du Fief d&apos;Ares</name>
    <cmt>Amenity::entertainment:public_bookcase</cmt>
    <desc>Dans une ancienne cabine téléphonique à coté de la pharmacie</desc>
    <type>Boite à livre</type>
  </wpt>
  <wpt lat="47.200879799999974" lon="-1.5732543000000005">
    <name>21 quai des Antilles</name>
    <cmt>Amenity::entertainment:public_bookcase</cmt>
    <desc>En bord de Loire sur l ïle de Nantes.</desc>
    <type>Boite à livre</type>
  </wpt>
  <wpt lat="47.361933299999976" lon="-0.0391662">
    <name>place de l église</name>
    <cmt>Amenity::entertainment:public_bookcase</cmt>
    <desc>Elle est le long de l église, sur le mur du foyer des jeunes.</desc>
    <type>Boite à livre</type>
  </wpt>
  <wpt lat="47.99314639999999" lon="-0.0936113">
    <name>2 Rue de la Mairie</name>
    <cmt>Amenity::entertainment:public_bookcase</cmt>
    <desc>Dans la cour de la mairie, sous le préau</desc>
    <type>Boite à livre</type>
  </wpt>
  <wpt lat="46.99755989999999" lon="-1.7365569999999997">
    <name>24 rue des fosses</name>
    <cmt>Amenity::entertainment:public_bookcase</cmt>
    <desc>devant les commerces de proximité Vival, très belle initiative.</desc>
    <type>Boite à livre</type>
  </wpt>
  <wpt lat="47.212756600000006" lon="-1.5481860000000003">
    <name>22 Rue Emile Pehant</name>
    <cmt>Amenity::entertainment:public_bookcase</cmt>
    <desc>Dépôt de livres dans le hall d&apos;entrée.</desc>
    <type>Boite à livre</type>
  </wpt>
  <wpt lat="47.86601489999999" lon="-0.1046431">
    <name>17 Avenue du Maine</name>
    <cmt>Amenity::entertainment:public_bookcase</cmt>
    <type>Boite à livre</type>
  </wpt>
  <wpt lat="46.8322546" lon="-1.8817837">
    <name>Rue de bois fossé</name>
    <cmt>Amenity::entertainment:public_bookcase</cmt>
    <type>Boite à livre</type>
  </wpt>
  <wpt lat="47.280604699999984" lon="-2.3772509">
    <name>avenue de saumur</name>
    <cmt>Amenity::entertainment:public_bookcase</cmt>
    <desc>Je viens de voir 2 boîtes à lire en passant sur le remblais. Une en face de l&apos;avenue de Saumur, la 2è entre Pornichet et l&apos;Avenue de la Grande Dune</desc>
    <type>Boite à livre</type>
  </wpt>
  <wpt lat="48.18648069999998" lon="0.639641">
    <name>Place de la gare</name>
    <cmt>Amenity::entertainment:public_bookcase</cmt>
    <desc>A la gare</desc>
    <type>Boite à livre</type>
  </wpt>
  <wpt lat="47.22303519999999" lon="-1.5975594000000002">
    <name>21 rue Charles Roger</name>
    <cmt>Amenity::entertainment:public_bookcase</cmt>
    <desc>Boîtes à lire en face de la bibliothèque Emilienne Leroux au quartier Dervalières</desc>
    <type>Boite à livre</type>
  </wpt>
  <wpt lat="47.14844559999998" lon="-1.0572492">
    <name>Plan d eau des lavandières</name>
    <cmt>Amenity::entertainment:public_bookcase</cmt>
    <desc>2 boîtes à lire à chaque extrémité du plan d eau</desc>
    <type>Boite à livre</type>
  </wpt>
  <wpt lat="47.08654469999999" lon="-1.293025">
    <name>18 bis rue du pont du diable</name>
    <cmt>Amenity::entertainment:public_bookcase</cmt>
    <type>Boite à livre</type>
  </wpt>
  <wpt lat="46.9914777" lon="-1.0467368">
    <name>Place de la mairie</name>
    <cmt>Amenity::entertainment:public_bookcase</cmt>
    <desc>Boite à l entrée des halles</desc>
    <type>Boite à livre</type>
  </wpt>
  <wpt lat="47.889682699999994" lon="0.0276382">
    <name>place du marché</name>
    <cmt>Amenity::entertainment:public_bookcase</cmt>
    <desc>Ancienne cabine téléphonique</desc>
    <type>Boite à livre</type>
  </wpt>
  <wpt lat="47.96889300000001" lon="0.159363">
    <name>PLACE PRINCIPALE HAUTES METARIES PRES DU SALON DE COIFFURE</name>
    <cmt>Amenity::entertainment:public_bookcase</cmt>
    <desc>PLACE SUR LA PLACE PRINCIPALE DES HAUTES METAIRIES JUSTE DERRIERE LE SALON DE COIFFURE</desc>
    <type>Boite à livre</type>
  </wpt>
  <wpt lat="47.3162833" lon="-0.14834610000000004">
    <name>Rue de la mairie</name>
    <cmt>Amenity::entertainment:public_bookcase</cmt>
    <type>Boite à livre</type>
  </wpt>
  <wpt lat="46.5549229" lon="-1.1588923">
    <name>Route des Ponts</name>
    <cmt>Amenity::entertainment:public_bookcase</cmt>
    <desc>Face au Relais des Quatre Routes, sur le parking du rond-point</desc>
    <type>Boite à livre</type>
  </wpt>
  <wpt lat="46.442824499999986" lon="-1.6744838">
    <name>412 Avenue Notre Dame</name>
    <cmt>Amenity::entertainment:public_bookcase</cmt>
    <desc>En forme de petite maison</desc>
    <type>Boite à livre</type>
  </wpt>
  <wpt lat="47.206472000000005" lon="-0.9916559">
    <name>Beaupreau</name>
    <cmt>Amenity::entertainment:public_bookcase</cmt>
    <desc>Dans le parc de beaupreau</desc>
    <type>Boite à livre</type>
  </wpt>
  <wpt lat="47.4765742" lon="-0.6278324">
    <name>Avenue de la Grange aux Belles</name>
    <cmt>Amenity::entertainment:public_bookcase</cmt>
    <desc>La boite se trouve au bout du parking du groupe scolaire Maurice Ravel à proximité de l arrêt de bus.</desc>
    <type>Boite à livre</type>
  </wpt>
  <wpt lat="47.2808204" lon="-2.3835904">
    <name>Boulevard du Docteur René Dubois</name>
    <cmt>Amenity::entertainment:public_bookcase</cmt>
    <desc>Très jolie Cabine de plage à lire, assortie aux vraies de la plage.</desc>
    <type>Boite à livre</type>
  </wpt>
  <wpt lat="46.993348799999985" lon="-1.0440386">
    <name>Rue du  Stade</name>
    <cmt>Amenity::entertainment:public_bookcase</cmt>
    <desc>Elle se trouve au départ de la rue du stade près de l église et de la boulangerie</desc>
    <type>Boite à livre</type>
  </wpt>
  <wpt lat="47.1937692" lon="-0.12052070000000001">
    <name>23 Rue du Puits Venier</name>
    <cmt>Amenity::entertainment:public_bookcase</cmt>
    <desc>Sous le Préau du Magasin</desc>
    <type>Boite à livre</type>
  </wpt>
  <wpt lat="47.294691199999995" lon="-2.4311026">
    <name>Place Jean IV</name>
    <cmt>Amenity::entertainment:public_bookcase</cmt>
    <desc>La boîte se situe à gauche de l église, à côté de la longue rampe d&apos;accès, face à la maison des Paludiers</desc>
    <type>Boite à livre</type>
  </wpt>
  <wpt lat="47.2778143" lon="-1.7820945">
    <name>Place Foch</name>
    <cmt>Amenity::entertainment:public_bookcase</cmt>
    <desc>Il s&apos;agit d&apos;une cabane  bric a brac avec des étagères spécialement pour les livres. Pas loin de la fontaine du parc.</desc>
    <type>Boite à livre</type>
  </wpt>
  <wpt lat="47.43994585536607" lon="-1.497949361801148">
    <name>Rue des Mariniers</name>
    <cmt>Amenity::entertainment:public_bookcase</cmt>
    <desc>Située en haut de la rue de la Paix</desc>
    <type>Boite à livre</type>
  </wpt>
  <wpt lat="47.46688189999998" lon="0.0170752">
    <name>place de la mairie</name>
    <cmt>Amenity::entertainment:public_bookcase</cmt>
    <desc>en face du salon de coiffure</desc>
    <type>Boite à livre</type>
  </wpt>
  <wpt lat="47.21354889999999" lon="-1.5791585">
    <name>9 rue Nicolas Appert</name>
    <cmt>Amenity::entertainment:public_bookcase</cmt>
    <desc>RecycLivre (La Conserverie) ouverture le 7 juillet</desc>
    <type>Boite à livre</type>
  </wpt>
  <wpt lat="47.092783799999985" lon="-0.909854">
    <name>18 Rue d Anjou</name>
    <cmt>Amenity::entertainment:public_bookcase</cmt>
    <desc>La boite à lire se trouve au Centre Social Ocsigene</desc>
    <type>Boite à livre</type>
  </wpt>
  <wpt lat="48.411289599999996" lon="-0.8127169000000001">
    <name>7 Grande Rue</name>
    <cmt>Amenity::entertainment:public_bookcase</cmt>
    <type>Boite à livre</type>
  </wpt>
  <wpt lat="46.87027659999999" lon="-1.0042284">
    <name>13 rue de grouteau</name>
    <cmt>Amenity::entertainment:public_bookcase</cmt>
    <desc>Mise en place en 2015.</desc>
    <type>Boite à livre</type>
  </wpt>
  <wpt lat="48.13267899999998" lon="-0.751977">
    <name>chemin de halage de la mayenne</name>
    <cmt>Amenity::entertainment:public_bookcase</cmt>
    <type>Boite à livre</type>
  </wpt>
  <wpt lat="47.276952999999985" lon="-2.061635">
    <name>rue de la Cour</name>
    <cmt>Amenity::entertainment:public_bookcase</cmt>
    <desc>La boîte se situe au milieu du parking, entre la pharmacie et la boucherie.</desc>
    <type>Boite à livre</type>
  </wpt>
  <wpt lat="47.06293879999999" lon="-2.007273">
    <name>plage du pré vincent</name>
    <cmt>Amenity::entertainment:public_bookcase</cmt>
    <desc>du coté gauche de la plage , au début du sentier cotier sur le mur de la petite maison, belle boite en bois</desc>
    <type>Boite à livre</type>
  </wpt>
  <wpt lat="47.3674164" lon="-1.1978589">
    <name>Rue des Vignes</name>
    <cmt>Amenity::entertainment:public_bookcase</cmt>
    <desc>A côté de l église de St Géreon. un tonneau aménagé en boite à livres.</desc>
    <type>Boite à livre</type>
  </wpt>
  <wpt lat="48.19281919999999" lon="0.29754829999999993">
    <name>place de la mairie</name>
    <cmt>Amenity::entertainment:public_bookcase</cmt>
    <desc>En face de la mairie</desc>
    <type>Boite à livre</type>
  </wpt>
  <wpt lat="47.10599640000001" lon="-1.8105784000000003">
    <name>rue du Vigneau</name>
    <cmt>Amenity::entertainment:public_bookcase</cmt>
    <type>Boite à livre</type>
  </wpt>
  <wpt lat="47.22122999999999" lon="-1.557966">
    <name>Place du marche des Dervalieres</name>
    <cmt>Amenity::entertainment:public_bookcase</cmt>
    <desc>Creusé dans un tronc d arbre .</desc>
    <type>Boite à livre</type>
  </wpt>
  <wpt lat="46.331991399999986" lon="-1.3064084">
    <name>Avenue Amiral Courbet</name>
    <cmt>Amenity::entertainment:public_bookcase</cmt>
    <desc>Boite à lire mise en place par le réseau des médiathèques du Pays né de la Mer</desc>
    <type>Boite à livre</type>
  </wpt>
  <wpt lat="47.0601215" lon="-0.8734847000000001">
    <name>Place Saint-Pierre</name>
    <cmt>Amenity::entertainment:public_bookcase</cmt>
    <desc>Une ancienne cabine téléphonique reconvertie en boite à lire en face Le Barouf</desc>
    <type>Boite à livre</type>
  </wpt>
  <wpt lat="47.2767866" lon="-2.4278442999999994">
    <name>quai jules Sandeau</name>
    <cmt>Amenity::entertainment:public_bookcase</cmt>
    <desc>Un boite à lire se trouve sur le quai face au jeu d eau.</desc>
    <type>Boite à livre</type>
  </wpt>
  <wpt lat="47.057799699999975" lon="-0.867775">
    <name>55 Rue du Planty</name>
    <cmt>Amenity::entertainment:public_bookcase</cmt>
    <desc>Devant le Centre Social du Planty - Boite à Livre du Lions Club</desc>
    <type>Boite à livre</type>
  </wpt>
  <wpt lat="47.20577790000001" lon="-1.4580047">
    <name>165 rue de Goulaine</name>
    <cmt>Amenity::entertainment:public_bookcase</cmt>
    <desc>Sur la boîte aux lettres du numéro 165. Près de l arrêt de car.</desc>
    <type>Boite à livre</type>
  </wpt>
  <wpt lat="47.69462" lon="0.417054">
    <name>2 Avenue Jean Jaurès</name>
    <cmt>Amenity::entertainment:public_bookcase</cmt>
    <desc>À côté de l Office du tourisme, au niveau du square.</desc>
    <type>Boite à livre</type>
  </wpt>
  <wpt lat="47.23769679999999" lon="-1.6372547">
    <name>Centre René Gauducheau</name>
    <cmt>Amenity::entertainment:public_bookcase</cmt>
    <desc>ICO Centre René Gauducheau Saint-Herblain</desc>
    <type>Boite à livre</type>
  </wpt>
  <wpt lat="47.27349789999999" lon="-2.213848">
    <name>ctrost@hotmail.com</name>
    <cmt>Amenity::entertainment:public_bookcase</cmt>
    <desc>Bonjour, Il existe plusieurs bibliothèques de rue à Guérande. http://www.mediatheque.ville-guerande.fr/infos-pratiques/boites-a-livres</desc>
    <type>Boite à livre</type>
  </wpt>
  <wpt lat="46.37939819999998" lon="-0.5799913">
    <name>Rue du port de moricq proche de la rue de l ancienne chapelle. Petit parking</name>
    <cmt>Amenity::entertainment:public_bookcase</cmt>
    <desc>Sur un petit parking</desc>
    <type>Boite à livre</type>
  </wpt>
  <wpt lat="46.8369232" lon="-1.8716504999999997">
    <name>Boulevard Jean XXIII - Route des Sables</name>
    <cmt>Amenity::entertainment:public_bookcase</cmt>
    <desc>la boîte se trouve à l&apos;Hyper U : nourrir son esprit en nourrissant son corps !</desc>
    <type>Boite à livre</type>
  </wpt>
  <wpt lat="47.69859529999999" lon="-0.0735823">
    <name>parc des Carmes</name>
    <cmt>Amenity::entertainment:public_bookcase</cmt>
    <desc>à l instigation du LIONS CLUB de DURTAL LA FLECHE, posée par les services municipax</desc>
    <type>Boite à livre</type>
  </wpt>
  <wpt lat="47.2322782" lon="-1.2205059">
    <name>Place de l église</name>
    <cmt>Amenity::entertainment:public_bookcase</cmt>
    <type>Boite à livre</type>
  </wpt>
  <wpt lat="47.39208" lon="-2.4225810000000005">
    <name>rue des épis</name>
    <cmt>Amenity::entertainment:public_bookcase</cmt>
    <desc>Une armoire  livre-service gérée par les bénévoles de l association Culture et bibliothèque pour tous</desc>
    <type>Boite à livre</type>
  </wpt>
  <wpt lat="47.62874039999997" lon="-0.7158344">
    <name>Collège François d Assise</name>
    <cmt>Amenity::entertainment:public_bookcase</cmt>
    <desc>Boîte située devant le collège en bordure de route.</desc>
    <type>Boite à livre</type>
  </wpt>
  <wpt lat="47.23336919999999" lon="-1.558936">
    <name>PLace du 116ème régiment d Infanterie</name>
    <cmt>Amenity::entertainment:public_bookcase</cmt>
    <type>Boite à livre</type>
  </wpt>
  <wpt lat="47.472556" lon="-0.5528778">
    <name>29 rue de la Röe</name>
    <cmt>Amenity::entertainment:public_bookcase</cmt>
    <desc>c est à l&apos;intérieur du magasin Day by day</desc>
    <type>Boite à livre</type>
  </wpt>
  <wpt lat="47.36009269999999" lon="-2.455196">
    <name>rue du Clos Bertin</name>
    <cmt>Amenity::entertainment:public_bookcase</cmt>
    <desc>Coin de la rue</desc>
    <type>Boite à livre</type>
  </wpt>
  <wpt lat="46.992975" lon="-0.954305">
    <name>Place de la Mairie</name>
    <cmt>Amenity::entertainment:public_bookcase</cmt>
    <desc>La boite à livre se trouve à l entrée de la mairie de Saint-Laurent sur Sèvre.</desc>
    <type>Boite à livre</type>
  </wpt>
  <wpt lat="46.9287487" lon="-0.9003322000000001">
    <name>1 Rue de Tempyre</name>
    <cmt>Amenity::entertainment:public_bookcase</cmt>
    <desc>La boite à lire se trouve auprès du magasin Vival</desc>
    <type>Boite à livre</type>
  </wpt>
  <wpt lat="47.112871999999996" lon="-2.1311715">
    <name>1, place de la Libération</name>
    <cmt>Amenity::entertainment:public_bookcase</cmt>
    <desc>boîte à livres</desc>
    <type>Boite à livre</type>
  </wpt>
  <wpt lat="47.18118856875574" lon="-2.150702476501465">
    <name>RUE DU REDOIS</name>
    <cmt>Amenity::entertainment:public_bookcase</cmt>
    <desc>Derrière la médiathèque auprès de l&apos;école, dans une cabine téléphonique</desc>
    <type>Boite à livre</type>
  </wpt>
  <wpt lat="46.45664159999999" lon="-1.1541214">
    <name>Avenue de lattre de tassigny</name>
    <cmt>Amenity::entertainment:public_bookcase</cmt>
    <desc>Devant la mission locale</desc>
    <type>Boite à livre</type>
  </wpt>
  <wpt lat="47.23828699999999" lon="-1.5407957">
    <name>rue de l&apos;Eraudière</name>
    <cmt>Amenity::entertainment:public_bookcase</cmt>
    <desc>La boite à livres sera installée en septembre 2019, en face de l&apos;entrée du collège Rutigliano. Elle mettra à disposition des livres en français et langues étrangères.</desc>
    <type>Boite à livre</type>
  </wpt>
  <wpt lat="47.216274899999995" lon="-1.5487708000000004">
    <name>4 Place Marc Elder, Château des ducs de Bretagne</name>
    <cmt>Amenity::entertainment:public_bookcase</cmt>
    <desc>Sous le porche près du pont-levis du Château des ducs de Bretagne</desc>
    <type>Boite à livre</type>
  </wpt>
  <wpt lat="47.28024499999998" lon="-2.3683081">
    <name>Avenue de la Grande Dune</name>
    <cmt>Amenity::entertainment:public_bookcase</cmt>
    <desc>Une des cabanes à livres qui se trouve sur le remblais de La Baule.</desc>
    <type>Boite à livre</type>
  </wpt>
  <wpt lat="47.14752299999999" lon="-1.5607660000000003">
    <name>Rue de la Gautellerie</name>
    <cmt>Amenity::entertainment:public_bookcase</cmt>
    <desc>Près de l Etang</desc>
    <type>Boite à livre</type>
  </wpt>
  <wpt lat="47.505579999999995" lon="-0.5896298">
    <name>Esplanade de l Hôtel de Ville</name>
    <cmt>Amenity::entertainment:public_bookcase</cmt>
    <desc>Boite à livre dans une ancienne cabine téléphonique sur le parvis de la mairie d Avrillé</desc>
    <type>Boite à livre</type>
  </wpt>
  <wpt lat="46.8758097" lon="-2.0079767">
    <name>Salle des Fêtes - rue de l église</name>
    <cmt>Amenity::entertainment:public_bookcase</cmt>
    <desc>Coté Droit entrée  Salle des Fêtes</desc>
    <type>Boite à livre</type>
  </wpt>
  <wpt lat="47.14816699999999" lon="-1.5309356">
    <name>1 Rue des Sports</name>
    <cmt>Amenity::entertainment:public_bookcase</cmt>
    <desc>Suite aux incivilités des gens qui ont eu lieu au Parc hippolyte derouet, 44840 Les sorinières. La boite à livre a été déplacé derrière la mairie.</desc>
    <type>Boite à livre</type>
  </wpt>
  <wpt lat="47.181513300000006" lon="-1.5541667">
    <name>Allée des Primevères</name>
    <cmt>Amenity::entertainment:public_bookcase</cmt>
    <desc>En forme de cabine de téléphone rouge britannique</desc>
    <type>Boite à livre</type>
  </wpt>
  <wpt lat="47.38680990000001" lon="-0.8630675">
    <name>pont de Montjean</name>
    <cmt>Amenity::entertainment:public_bookcase</cmt>
    <desc>Elle se trouve au pont de Montjean...</desc>
    <type>Boite à livre</type>
  </wpt>
  <wpt lat="47.47650699999999" lon="-0.5447425">
    <name>Rue Boreau</name>
    <cmt>Amenity::entertainment:public_bookcase</cmt>
    <desc>La boite se situe au c?ur du parc du Jardin des Plantes.</desc>
    <type>Boite à livre</type>
  </wpt>
  <wpt lat="47.15915679999999" lon="-1.6585932">
    <name>41 route des Palmiers</name>
    <cmt>Amenity::entertainment:public_bookcase</cmt>
    <desc>Attenante à la bibliothèque municipale de la Montagne</desc>
    <type>Boite à livre</type>
  </wpt>
  <wpt lat="47.17185899999998" lon="-0.8891098999999999">
    <name>mairie</name>
    <cmt>Amenity::entertainment:public_bookcase</cmt>
    <desc>La boite est placée sur le mur du bâtiment annexe de la mairie</desc>
    <type>Boite à livre</type>
  </wpt>
  <wpt lat="47.161145999999995" lon="-1.266624">
    <name>rue du ribateau</name>
    <cmt>Amenity::entertainment:public_bookcase</cmt>
    <desc>Cette boite se trouve au croisement de la rue du ribateau et de la rue francois luneau, à cote de la mairie.</desc>
    <type>Boite à livre</type>
  </wpt>
  <wpt lat="47.301182999999995" lon="-1.079984">
    <name>parc de beaupreau</name>
    <cmt>Amenity::entertainment:public_bookcase</cmt>
    <desc>Au parc de beaupreau</desc>
    <type>Boite à livre</type>
  </wpt>
  <wpt lat="47.154752399999985" lon="-0.4451828">
    <name>Rue de la bonne dame</name>
    <cmt>Amenity::entertainment:public_bookcase</cmt>
    <desc>Boite à livres située sur la façade de la mairie.</desc>
    <type>Boite à livre</type>
  </wpt>
  <wpt lat="46.60165199999999" lon="-1.7561349999999998">
    <name>Place Heimenkirch</name>
    <cmt>Amenity::entertainment:public_bookcase</cmt>
    <desc>A côté du salon de coiffure.</desc>
    <type>Boite à livre</type>
  </wpt>
  <wpt lat="46.9375693" lon="-2.1664597">
    <name>Rue des Polders</name>
    <cmt>Amenity::entertainment:public_bookcase</cmt>
    <desc>Boîte à dons en face de l office du tourisme.</desc>
    <type>Boite à livre</type>
  </wpt>
  <wpt lat="47.452406999999994" lon="-0.5546621">
    <name>172 rue létanduère</name>
    <cmt>Amenity::entertainment:public_bookcase</cmt>
    <desc>A l entrée du petit Géant , face au resto</desc>
    <type>Boite à livre</type>
  </wpt>
  <wpt lat="47.08331739999999" lon="-1.2848425000000003">
    <name>Cours des marchés de bretagne</name>
    <cmt>Amenity::entertainment:public_bookcase</cmt>
    <desc>Même type que sur Clisson des belles cabines téléphoniques</desc>
    <type>Boite à livre</type>
  </wpt>
  <wpt lat="47.5438283" lon="-0.6738409000000001">
    <name>1 Rue d Anjou</name>
    <cmt>Amenity::entertainment:public_bookcase</cmt>
    <type>Boite à livre</type>
  </wpt>
  <wpt lat="46.69859389999998" lon="-1.9380137">
    <name>quai Gorin</name>
    <cmt>Amenity::entertainment:public_bookcase</cmt>
    <desc>C est une boite à dons : livres  vetements  petits objets... Elle se trouve au croisement de la passerelle piétonne  André Bénéteau et du quai Gorin</desc>
    <type>Boite à livre</type>
  </wpt>
  <wpt lat="47.452904200000006" lon="-0.5260771">
    <name>Place des justices</name>
    <cmt>Amenity::entertainment:public_bookcase</cmt>
    <desc>Ce n&apos;est pas vraiment une boîte, mais à l&apos;intérieur de la bibliothèque des 3 mâts il y a un panier où on peut échanger.</desc>
    <type>Boite à livre</type>
  </wpt>
  <wpt lat="47.478481400000014" lon="-0.5496434">
    <name>Faculté de Droit, d Economie et de gestion, Université d&apos;Angers, 13 allée François Mitterrand</name>
    <cmt>Amenity::entertainment:public_bookcase</cmt>
    <desc>La boite fonctionne sur le système de l échange : 1 livre pris = 1 livre déposé aussitôt.</desc>
    <type>Boite à livre</type>
  </wpt>