{
"type": "FeatureCollection",
"name": "waypoints",
"crs": { "type": "name", "properties": { "name": "urn:ogc:def:crs:OGC:1.3:CRS84" } },
"features": [
{ "type": "Feature", "properties": { "name": "776 chemin des crozes", "cmt": "Amenity::entertainment:public_bookcase", "type": "Boite à livre" }, "geometry": { "type": "Point", "coordinates": [ 4.098213, 44.0415188 ] } },
{ "type": "Feature", "properties": { "name": "Place du marché", "cmt": "Amenity::entertainment:public_bookcase", "type": "Boite à livre" }, "geometry": { "type": "Point", "coordinates": [ 2.5147925, 48.8677124 ] } },
{ "type": "Feature", "properties": { "name": "rue Jean Le Coz", "cmt": "Amenity::entertainment:public_bookcase", "type": "Boite à livre" }, "geometry": { "type": "Point", "coordinates": [ 2.1790034, 48.8755359 ] } },
{ "type": "Feature", "properties": { "name": "Jardin d'usage Rue Louis-Le-Nain", "cmt": "Amenity::entertainment:public_bookcase", "type": "Boite à livre" }, "geometry": { "type": "Point", "coordinates": [ -1.5990549, 47.2261214 ] } },
{ "type": "Feature", "properties": { "name": "Square Jim-Howart", "cmt": "Amenity::entertainment:public_bookcase", "type": "Boite à livre" }, "geometry": { "type": "Point", "coordinates": [ -1.265138, 47.160929 ] } },
{ "type": "Feature", "properties": { "name": "Rue de la Bouvaque", "cmt": "Amenity::entertainment:public_bookcase", "type": "Boite à livre" }, "geometry": { "type": "Point", "coordinates": [ 2.9284693, 50.5318517 ] } },
{ "type": "Feature", "properties": { "name": "Hameau de Sec-Bois", "cmt": "Amenity::entertainment:public_bookcase", "type": "Boite à livre" }, "geometry": { "type": "Point", "coordinates": [ 2.599357, 50.708467 ] } },
{ "type": "Feature", "properties": { "name": "35 Avenue du 8 Mai 1945", "cmt": "Amenity::entertainment:public_bookcase", "type": "Boite à livre" }, "geometry": { "type": "Point", "coordinates": [ 4.771071, 45.7603426 ] } },
{ "type": "Feature", "properties": { "name": "Place de la Paix", "cmt": "Amenity::entertainment:public_bookcase", "type": "Boite à livre" }, "geometry": { "type": "Point", "coordinates": [ 4.884642, 45.6988679 ] } },
{ "type": "Feature", "properties": { "name": "49 rue Professeur Roux", "cmt": "Amenity::entertainment:public_bookcase", "type": "Boite à livre" }, "geometry": { "type": "Point", "coordinates": [ 4.8578828, 45.72666 ] } },
{ "type": "Feature", "properties": { "name": "45 Boulevard Lénine", "cmt": "Amenity::entertainment:public_bookcase", "desc": "Elle n'existe plus", "type": "Boite à livre" }, "geometry": { "type": "Point", "coordinates": [ 4.8646407, 45.6924762 ] } },
{ "type": "Feature", "properties": { "name": "Square Matringe", "cmt": "Amenity::entertainment:public_bookcase", "type": "Boite à livre" }, "geometry": { "type": "Point", "coordinates": [ 4.853374, 45.708874 ] } },
{ "type": "Feature", "properties": { "name": "Place Hyppolite Péragut", "cmt": "Amenity::entertainment:public_bookcase", "type": "Boite à livre" }, "geometry": { "type": "Point", "coordinates": [ 4.7768139, 45.76134 ] } },
{ "type": "Feature", "properties": { "name": "Parc de l’Etoile", "cmt": "Amenity::entertainment:public_bookcase", "type": "Boite à livre" }, "geometry": { "type": "Point", "coordinates": [ 4.7767261, 45.7550852 ] } },
{ "type": "Feature", "properties": { "name": "Gare d’Ecully-La-Demi-Lune", "cmt": "Amenity::entertainment:public_bookcase", "type": "Boite à livre" }, "geometry": { "type": "Point", "coordinates": [ 4.7773353, 45.7657217 ] } },
{ "type": "Feature", "properties": { "name": "Rue Louis Armand", "cmt": "Amenity::entertainment:public_bookcase", "type": "Boite à livre" }, "geometry": { "type": "Point", "coordinates": [ 6.1311601, 45.9181513 ] } },
{ "type": "Feature", "properties": { "name": "100 route de Vienne", "cmt": "Amenity::entertainment:public_bookcase", "type": "Boite à livre" }, "geometry": { "type": "Point", "coordinates": [ 4.8519008, 45.7378432 ] } },
{ "type": "Feature", "properties": { "name": "11 Rue Général de Gaulle", "cmt": "Amenity::entertainment:public_bookcase", "type": "Boite à livre" }, "geometry": { "type": "Point", "coordinates": [ 4.7650074, 45.6753398 ] } },
{ "type": "Feature", "properties": { "name": "Jardin de Saint-Gènes", "cmt": "Amenity::entertainment:public_bookcase", "type": "Boite à livre" }, "geometry": { "type": "Point", "coordinates": [ -0.5819971, 44.8250036 ] } },
{ "type": "Feature", "properties": { "name": "4 Rue du Dr Castéra", "cmt": "Amenity::entertainment:public_bookcase", "type": "Boite à livre" }, "geometry": { "type": "Point", "coordinates": [ -0.6327907, 44.9103382 ] } },
{ "type": "Feature", "properties": { "name": "Place Saint Ahon", "cmt": "Amenity::entertainment:public_bookcase", "type": "Boite à livre" }, "geometry": { "type": "Point", "coordinates": [ -0.6360835, 44.9272253 ] } },
{ "type": "Feature", "properties": { "name": "Parc des coteaux", "cmt": "Amenity::entertainment:public_bookcase", "type": "Boite à livre" }, "geometry": { "type": "Point", "coordinates": [ -0.516238, 44.899835 ] } },
{ "type": "Feature", "properties": { "name": "Rue Gérard Philippe", "cmt": "Amenity::entertainment:public_bookcase", "type": "Boite à livre" }, "geometry": { "type": "Point", "coordinates": [ -1.653398, 48.092047 ] } },
{ "type": "Feature", "properties": { "name": "Centre bourg", "cmt": "Amenity::entertainment:public_bookcase", "type": "Boite à livre" }, "geometry": { "type": "Point", "coordinates": [ 0.217694, 46.676702 ] } },
{ "type": "Feature", "properties": { "name": "20 Avenue Maximilien Robespierre", "cmt": "Amenity::entertainment:public_bookcase", "type": "Boite à livre" }, "geometry": { "type": "Point", "coordinates": [ 2.387926, 48.7905536 ] } },
{ "type": "Feature", "properties": { "name": "Place du Marché aux Poissons", "cmt": "Amenity::entertainment:public_bookcase", "desc": "Boite a livre avec beaucoup de choix, renouvellement rapide.", "type": "Boite à livre" }, "geometry": { "type": "Point", "coordinates": [ 5.8901794, 48.6747441 ] } },
{ "type": "Feature", "properties": { "name": "rue des dunes", "cmt": "Amenity::entertainment:public_bookcase", "desc": "Au bord de la piste cyclable qui longe la gare maritime.", "type": "Boite à livre" }, "geometry": { "type": "Point", "coordinates": [ -0.2506346, 49.2834 ] } },
{ "type": "Feature", "properties": { "name": "4 rue saint Nazaire", "cmt": "Amenity::entertainment:public_bookcase", "type": "Boite à livre" }, "geometry": { "type": "Point", "coordinates": [ 5.1275576, 44.0566564 ] } },
{ "type": "Feature", "properties": { "name": "14 bis rue du Professeur Calmette", "cmt": "Amenity::entertainment:public_bookcase", "desc": "La boite à Lire se trouve juste devant l'entrée de la piscine muniscipale.", "type": "Boite à livre" }, "geometry": { "type": "Point", "coordinates": [ -0.5703999, 44.7821118 ] } },
{ "type": "Feature", "properties": { "name": "Musée de Lignan", "cmt": "Amenity::entertainment:public_bookcase", "desc": "La boite se trouve à côté du Musée de Lignan.", "type": "Boite à livre" }, "geometry": { "type": "Point", "coordinates": [ -0.427882, 44.795935 ] } },
{ "type": "Feature", "properties": { "name": "5 rue Henri Germond", "cmt": "Amenity::entertainment:public_bookcase", "type": "Boite à livre" }, "geometry": { "type": "Point", "coordinates": [ 1.2449024, 48.2991698 ] } },
{ "type": "Feature", "properties": { "name": "87 rue Chateaubriand", "cmt": "Amenity::entertainment:public_bookcase", "desc": "La boite à lire est aménagée dans le tronc d'un arbre au milieu du parc de la maison de Chateaubriand.", "type": "Boite à livre" }, "geometry": { "type": "Point", "coordinates": [ 2.2666213, 48.7718368 ] } },
{ "type": "Feature", "properties": { "name": "Place Jean Jaurès", "cmt": "Amenity::entertainment:public_bookcase", "type": "Boite à livre" }, "geometry": { "type": "Point", "coordinates": [ 4.8280701, 46.76915 ] } },
{ "type": "Feature", "properties": { "name": "Grand Place", "cmt": "Amenity::entertainment:public_bookcase", "type": "Boite à livre" }, "geometry": { "type": "Point", "coordinates": [ 3.4167655, 46.3115552 ] } },
{ "type": "Feature", "properties": { "name": "Le bourg", "cmt": "Amenity::entertainment:public_bookcase", "desc": "La boite se situe près de l'école.", "type": "Boite à livre" }, "geometry": { "type": "Point", "coordinates": [ -0.1347557, 44.6363856 ] } },
{ "type": "Feature", "properties": { "name": "Quai sadi carnot", "cmt": "Amenity::entertainment:public_bookcase", "desc": "La boite se situe tout au bout du quai Sadi Carnot  côté rond point  juste à côté du pont.", "type": "Boite à livre" }, "geometry": { "type": "Point", "coordinates": [ 6.953071, 48.284421 ] } },
{ "type": "Feature", "properties": { "name": "Route de Bordeaux", "cmt": "Amenity::entertainment:public_bookcase", "desc": "La boite se situe dans le hall de l'hypermarché Auchan de La Couronne.", "type": "Boite à livre" }, "geometry": { "type": "Point", "coordinates": [ 0.102983, 45.616632 ] } },
{ "type": "Feature", "properties": { "name": "place du Bourg", "cmt": "Amenity::entertainment:public_bookcase", "desc": "La boite à été mise en place par le Bar Association Le Repaire.", "type": "Boite à livre" }, "geometry": { "type": "Point", "coordinates": [ 1.8815785, 44.9107163 ] } },
{ "type": "Feature", "properties": { "cmt": "Amenity::entertainment:public_bookcase", "desc": "La boite vient d'être installée dans le village.", "type": "Boite à livre" }, "geometry": { "type": "Point", "coordinates": [ 4.8408559, 45.467873 ] } },
{ "type": "Feature", "properties": { "name": "Rue de la 1ère Armée", "cmt": "Amenity::entertainment:public_bookcase", "desc": "La boite à lire se trouve directement à gauche dans l'entrée du Super U.", "type": "Boite à livre" }, "geometry": { "type": "Point", "coordinates": [ 7.531955, 47.9177813 ] } },
{ "type": "Feature", "properties": { "name": "17 rue Benoit Bernard", "cmt": "Amenity::entertainment:public_bookcase", "desc": "Il y a même une petite terrasse en bois pour les beaux jours.", "type": "Boite à livre" }, "geometry": { "type": "Point", "coordinates": [ 4.8519144, 45.7380878 ] } },
{ "type": "Feature", "properties": { "name": "Place du Marché", "cmt": "Amenity::entertainment:public_bookcase", "desc": "C'est une petite boite clouées contre le mur du syndicat d'initiative de la commune de Rebais.", "type": "Boite à livre" }, "geometry": { "type": "Point", "coordinates": [ 3.2323923, 48.8464258 ] } },
{ "type": "Feature", "properties": { "name": "Place Peydavant", "cmt": "Amenity::entertainment:public_bookcase", "desc": "La boite est un peu en retrait du rond point.", "type": "Boite à livre" }, "geometry": { "type": "Point", "coordinates": [ -0.585438, 44.8018071 ] } },
{ "type": "Feature", "properties": { "name": "Chemin de Leysotte", "cmt": "Amenity::entertainment:public_bookcase", "desc": "La boite se trouve au niveau du Parc Sourreil et de la Maison des Arts Vivants.", "type": "Boite à livre" }, "geometry": { "type": "Point", "coordinates": [ -0.580675, 44.795172 ] } },
{ "type": "Feature", "properties": { "name": "Parc Peixotto", "cmt": "Amenity::entertainment:public_bookcase", "desc": "La boite se trouve en face de la médiathèque Castagnéra.", "type": "Boite à livre" }, "geometry": { "type": "Point", "coordinates": [ -0.589866, 44.8076812 ] } },
{ "type": "Feature", "properties": { "name": "8 Place Jean Jaurès", "cmt": "Amenity::entertainment:public_bookcase", "desc": "La boite se trouve face à la poste  près de la mairie et près de la résidence des bords de canche.  Il y a trois boite à lire à Frévent...une initiative bien sympathique de la médiathèque municipale.", "type": "Boite à livre" }, "geometry": { "type": "Point", "coordinates": [ 2.293331, 50.2784069 ] } },
{ "type": "Feature", "properties": { "name": "Boulevard Poincaré", "cmt": "Amenity::entertainment:public_bookcase", "desc": "Dans le cadre de sa politique culturelle et associative  la Ville de Metz a mis en place un réseau de boîtes à livres.", "type": "Boite à livre" }, "geometry": { "type": "Point", "coordinates": [ 6.1660625, 49.1158827 ] } },
{ "type": "Feature", "properties": { "name": "Boulevard André Maginot", "cmt": "Amenity::entertainment:public_bookcase", "desc": "Dans le cadre de sa politique culturelle et associative  la Ville de Metz a mis en place un réseau de boîtes à livres.", "type": "Boite à livre" }, "geometry": { "type": "Point", "coordinates": [ 6.1850706, 49.1175247 ] } },
{ "type": "Feature", "properties": { "name": "Route d'Ars Laquenexy", "cmt": "Amenity::entertainment:public_bookcase", "desc": "Dans le cadre de sa politique culturelle et associative  la Ville de Metz a mis en place un réseau de boîtes à livres.", "type": "Boite à livre" }, "geometry": { "type": "Point", "coordinates": [ 6.2430518, 49.0945619 ] } },
{ "type": "Feature", "properties": { "name": "Place de la comédie", "cmt": "Amenity::entertainment:public_bookcase", "desc": "Dans le cadre de sa politique culturelle et associative  la Ville de Metz a mis en place un réseau de boîtes à livres.", "type": "Boite à livre" }, "geometry": { "type": "Point", "coordinates": [ 6.173595, 49.121336 ] } },
{ "type": "Feature", "properties": { "name": "Place Philippe de Vigneulles", "cmt": "Amenity::entertainment:public_bookcase", "desc": "Dans le cadre de sa politique culturelle et associative  la Ville de Metz a mis en place un réseau de boîtes à livres.", "type": "Boite à livre" }, "geometry": { "type": "Point", "coordinates": [ 6.1670236, 49.1065487 ] } },
{ "type": "Feature", "properties": { "name": "Place du Vieux Marché", "cmt": "Amenity::entertainment:public_bookcase", "type": "Boite à livre" }, "geometry": { "type": "Point", "coordinates": [ -1.644382, 48.1830157 ] } },
{ "type": "Feature", "properties": { "name": "36 rue saint manvieu", "cmt": "Amenity::entertainment:public_bookcase", "desc": "La boite à lire se trouve au sein du café sauvage (café associatif). Ce n'est pas une boîte à lire à proprement parler mais c'est ce qui s'en rapproche le plus pour le moment sur la ville de Caen  de vraies boîtes sont en projet.", "type": "Boite à livre" }, "geometry": { "type": "Point", "coordinates": [ -0.3719345, 49.1824856 ] } },
{ "type": "Feature", "properties": { "name": "rue de la gare", "cmt": "Amenity::entertainment:public_bookcase", "desc": "Boite à lire proposée par la Ville d'Obernai.", "type": "Boite à livre" }, "geometry": { "type": "Point", "coordinates": [ 7.4884334, 48.4620911 ] } },
{ "type": "Feature", "properties": { "name": "Place Commandant Maria", "cmt": "Amenity::entertainment:public_bookcase", "desc": "J'y ai déjà déposé plusieurs livres qui sont partis très vite !", "type": "Boite à livre" }, "geometry": { "type": "Point", "coordinates": [ 7.0237031, 43.5557504 ] } },
{ "type": "Feature", "properties": { "name": "33 Rue du General Leclerc", "cmt": "Amenity::entertainment:public_bookcase", "desc": "La boite à lire se situe juste à l'entrée de la mairie de quartier de Flers Bourg  dans un meuble à porte vitrée.", "type": "Boite à livre" }, "geometry": { "type": "Point", "coordinates": [ 3.1270356, 50.6378892 ] } },
{ "type": "Feature", "properties": { "name": "1 rue Paul Lafargue", "cmt": "Amenity::entertainment:public_bookcase", "desc": "Plusieurs étagères vous attendent pour échanger livres  magazines et journaux au local du Pont comm'un  ancienne gare rer  aux heures d'ouverture. L'occasion aussi de découvrir les assos du lieu.", "type": "Boite à livre" }, "geometry": { "type": "Point", "coordinates": [ 2.3584423, 48.9161135 ] } },
{ "type": "Feature", "properties": { "name": "2 Place Hôtel de Ville", "cmt": "Amenity::entertainment:public_bookcase", "desc": "La boîte à livre se trouve dans un renfoncement au niveau du parking de l'Hôtel de Ville  Grand'Rue.", "type": "Boite à livre" }, "geometry": { "type": "Point", "coordinates": [ 7.3151968, 48.1947882 ] } },
{ "type": "Feature", "properties": { "name": "31 allee Pierre Mendes France", "cmt": "Amenity::entertainment:public_bookcase", "desc": "La boite à lire est placée dans la haie  qui donne sur un petit rond point.", "type": "Boite à livre" }, "geometry": { "type": "Point", "coordinates": [ 2.6042805, 48.8435699 ] } },
{ "type": "Feature", "properties": { "name": "142 rue Sébastien Gryphe", "cmt": "Amenity::entertainment:public_bookcase", "desc": "Une giftbox... des livres mais pas que!", "type": "Boite à livre" }, "geometry": { "type": "Point", "coordinates": [ 4.8382391, 45.7475181 ] } },
{ "type": "Feature", "properties": { "name": "Place Guichard", "cmt": "Amenity::entertainment:public_bookcase", "desc": "Boite momentanément indisponible pour cause de rénovation. Elle sera de retour le lundi 13 février", "type": "Boite à livre" }, "geometry": { "type": "Point", "coordinates": [ 4.8473042, 45.7590482 ] } },
{ "type": "Feature", "properties": { "name": "99 Rue Pierre-Gilles de Gennes", "cmt": "Amenity::entertainment:public_bookcase", "desc": "La boîte à livres se trouve dans la galerie du centre commercial d'Auchan.", "type": "Boite à livre" }, "geometry": { "type": "Point", "coordinates": [ 1.373275, 47.5723519 ] } },
{ "type": "Feature", "properties": { "name": "Parc de l'Epinette", "cmt": "Amenity::entertainment:public_bookcase", "desc": "Armoire à lire installée près de l'aire de jeux des enfants dans le parc de l'Epinette  à l'initiative du Conseil municipal des enfants.", "type": "Boite à livre" }, "geometry": { "type": "Point", "coordinates": [ -0.2344653, 44.9139853 ] } },
{ "type": "Feature", "properties": { "name": "rue Robert Le Ricolais", "cmt": "Amenity::entertainment:public_bookcase", "desc": "Elle est située dans la Médiathèque Ormédo", "type": "Boite à livre" }, "geometry": { "type": "Point", "coordinates": [ -1.6268734, 47.272254 ] } },
{ "type": "Feature", "properties": { "name": "7 rue Auguste Lacroix", "cmt": "Amenity::entertainment:public_bookcase", "desc": "La boite à lire se trouve sur la devanture de l'atelier de RecycLivre !", "type": "Boite à livre" }, "geometry": { "type": "Point", "coordinates": [ 4.8450388, 45.7554089 ] } },
{ "type": "Feature", "properties": { "name": "46, avenue Alexandre Goupil", "cmt": "Amenity::entertainment:public_bookcase", "desc": "Elle se situe dans la bibliothèque.", "type": "Boite à livre" }, "geometry": { "type": "Point", "coordinates": [ -1.5974135, 47.2535778 ] } },
{ "type": "Feature", "properties": { "name": "Allée de la Mairie", "cmt": "Amenity::entertainment:public_bookcase", "desc": "Mis en place par le Conseil Municipal des Jeunes de Saint-Urbain", "type": "Boite à livre" }, "geometry": { "type": "Point", "coordinates": [ -2.0079243, 46.8753057 ] } },
{ "type": "Feature", "properties": { "name": "Parc Marius Bourrat, avenue Maréchal Foch", "cmt": "Amenity::entertainment:public_bookcase", "desc": "Boîte à livres installée par la Mairie et construite par les élèves du collège de la ville.", "type": "Boite à livre" }, "geometry": { "type": "Point", "coordinates": [ 4.8037215, 45.7411144 ] } },
{ "type": "Feature", "properties": { "name": "Square des quatre saisons", "cmt": "Amenity::entertainment:public_bookcase", "desc": "Livr'libre  construction en matériaux recyclés.", "type": "Boite à livre" }, "geometry": { "type": "Point", "coordinates": [ 0.713777, 47.2869839 ] } },
{ "type": "Feature", "properties": { "name": "240 Rue Raphael Babet", "cmt": "Amenity::entertainment:public_bookcase", "desc": "La boite a été mise en place par le Conseil municipal des enfants et la bibliothèque.", "type": "Boite à livre" }, "geometry": { "type": "Point", "coordinates": [ 55.6159039, -21.3767025 ] } },
{ "type": "Feature", "properties": { "name": "66 Rue de Laxou", "cmt": "Amenity::entertainment:public_bookcase", "desc": "A l'intérieur  de la Maison Braquehais Boulangerie-pâtisserie", "type": "Boite à livre" }, "geometry": { "type": "Point", "coordinates": [ 6.1612795, 48.6859205 ] } },
{ "type": "Feature", "properties": { "name": "Place Raspail", "cmt": "Amenity::entertainment:public_bookcase", "desc": "Première boîte à lire de la ville de Tours inaugurée en décembre 2015.", "type": "Boite à livre" }, "geometry": { "type": "Point", "coordinates": [ 0.7103846, 47.3790942 ] } },
{ "type": "Feature", "properties": { "name": "Place de l'église", "cmt": "Amenity::entertainment:public_bookcase", "desc": "La Boîte à lire se trouve entre la boulangerie et le salon de coiffure.", "type": "Boite à livre" }, "geometry": { "type": "Point", "coordinates": [ -1.6474411, 46.5905718 ] } },
{ "type": "Feature", "properties": { "name": "48 rue george courteline", "cmt": "Amenity::entertainment:public_bookcase", "desc": "Gérée par une association", "type": "Boite à livre" }, "geometry": { "type": "Point", "coordinates": [ 0.6758937, 47.3933551 ] } },
{ "type": "Feature", "properties": { "name": "1 rue du 8 mai 1945", "cmt": "Amenity::entertainment:public_bookcase", "desc": "La boite se trouve à la jointure de la rue du Centre et de la rue du 8 mai 1945. A deux pas de la mairie...", "type": "Boite à livre" }, "geometry": { "type": "Point", "coordinates": [ 0.3097784, 46.6272061 ] } },
{ "type": "Feature", "properties": { "name": "chemin du vallon", "cmt": "Amenity::entertainment:public_bookcase", "desc": "Un large choix  il y a même eu des livres de math !", "type": "Boite à livre" }, "geometry": { "type": "Point", "coordinates": [ 4.7961195, 45.7446551 ] } },
{ "type": "Feature", "properties": { "name": "38 rue de l'église", "cmt": "Amenity::entertainment:public_bookcase", "desc": "Jolie boîte  près du restaurant le petit st Pierre.", "type": "Boite à livre" }, "geometry": { "type": "Point", "coordinates": [ -3.1293679, 47.5199532 ] } },
{ "type": "Feature", "properties": { "name": "Rue du Château 13", "cmt": "Amenity::entertainment:public_bookcase", "desc": "Une boite à côté d'un banc  dans un joli petit parc. Lire est un plaisir bien tentant!", "type": "Boite à livre" }, "geometry": { "type": "Point", "coordinates": [ 4.8669286, 50.7242958 ] } },
{ "type": "Feature", "properties": { "name": "14 rue de Toul Broc'h", "cmt": "Amenity::entertainment:public_bookcase", "desc": "Cette boite à lire tourne depuis février 2016 et est régulièrement garnie et l'été  en plus  quelques fines herbes à emporter !", "type": "Boite à livre" }, "geometry": { "type": "Point", "coordinates": [ -3.0220229, 48.797303 ] } },
{ "type": "Feature", "properties": { "name": "la basse teillais", "cmt": "Amenity::entertainment:public_bookcase", "desc": "La boite se situe dans la campagne  le long d'un chemin piétonnier  avec un banc devant. Autour il y a des bacs incroyables avec des plantes aromatiques comestibles à disposition. Elle est plus spécialisée dans les magazines", "type": "Boite à livre" }, "geometry": { "type": "Point", "coordinates": [ -1.7081186, 48.0724037 ] } },
{ "type": "Feature", "properties": { "name": "2 rue de Bel Air", "cmt": "Amenity::entertainment:public_bookcase", "desc": "C'est une boîte installée par la mairie dans le jardin derrière la bibliothèque\/espace culturel.", "type": "Boite à livre" }, "geometry": { "type": "Point", "coordinates": [ -1.9318597, 47.2440132 ] } },
{ "type": "Feature", "properties": { "name": "2 rue Eugène Spuller", "cmt": "Amenity::entertainment:public_bookcase", "desc": "Nous avons installé une boîte à livres végétalisée dans la cour d'honneur de la Mairie du 3e  rue Eugène Spuller. N'hésitez pas !", "type": "Boite à livre" }, "geometry": { "type": "Point", "coordinates": [ 2.361527, 48.8639882 ] } },
{ "type": "Feature", "properties": { "name": "13 rue de grouteau", "cmt": "Amenity::entertainment:public_bookcase", "desc": "Mise en place en 2015.", "type": "Boite à livre" }, "geometry": { "type": "Point", "coordinates": [ -1.0042284, 46.8702766 ] } },
{ "type": "Feature", "properties": { "name": "rue de Cuzieu", "cmt": "Amenity::entertainment:public_bookcase", "type": "Boite à livre" }, "geometry": { "type": "Point", "coordinates": [ 4.8000275, 45.7361688 ] } },
{ "type": "Feature", "properties": { "name": "Chemin des Prés", "cmt": "Amenity::entertainment:public_bookcase", "desc": "Boîte à lire installée par la Mairie  construite par des élèves du collège de Ste-Foy-les-Lyon.", "type": "Boite à livre" }, "geometry": { "type": "Point", "coordinates": [ 4.792232, 45.7439344 ] } },
{ "type": "Feature", "properties": { "name": "Rue de Tropchaud", "cmt": "Amenity::entertainment:public_bookcase", "desc": "Cabane à lire installée par la municipalité en face de la Maison des Associations et de la salle polyvalente", "type": "Boite à livre" }, "geometry": { "type": "Point", "coordinates": [ -0.2000036, 44.9310168 ] } },
{ "type": "Feature", "properties": { "name": "rue du Pont d'orgueil", "cmt": "Amenity::entertainment:public_bookcase", "desc": "La boite se situe rue du Pont d'orgueil  au niveau du rond point  il y a un abri bus scolaire.", "type": "Boite à livre" }, "geometry": { "type": "Point", "coordinates": [ -2.0099226, 46.8751392 ] } },
{ "type": "Feature", "properties": { "name": "59 chemin de l'Orme", "cmt": "Amenity::entertainment:public_bookcase", "desc": "La boite à lire est située à l?entrée de la galerie marchande du centre LECLERC. Elle est installée par l'Association Les Passeurs de Livres", "type": "Boite à livre" }, "geometry": { "type": "Point", "coordinates": [ 6.9464792, 43.6515962 ] } },
{ "type": "Feature", "properties": { "name": "71 rue Marc Delage", "cmt": "Amenity::entertainment:public_bookcase", "desc": "Boîte à lire fabriquée et mise à disposition par la librairie.", "type": "Boite à livre" }, "geometry": { "type": "Point", "coordinates": [ 6.0071771, 43.1246534 ] } },
{ "type": "Feature", "properties": { "name": "5 rue Léon Olphe-Gaillard", "cmt": "Amenity::entertainment:public_bookcase", "desc": "Une ancienne cabine France Télécom customisée par l équipe du Fab'Alpes.", "type": "Boite à livre" }, "geometry": { "type": "Point", "coordinates": [ 6.079758, 44.559638 ] } },
{ "type": "Feature", "properties": { "name": "place d armes", "cmt": "Amenity::entertainment:public_bookcase", "desc": "Pour y déposer des livres ou magazines récents dont vous ne voulez plus.", "type": "Boite à livre" }, "geometry": { "type": "Point", "coordinates": [ 6.135616, 47.6026639 ] } },
{ "type": "Feature", "properties": { "name": "Boulevard Résistance et Déportation", "cmt": "Amenity::entertainment:public_bookcase", "desc": "La boite se situe dans le Jardin du Mail", "type": "Boite à livre" }, "geometry": { "type": "Point", "coordinates": [ -0.5474988, 47.4708651 ] } },
{ "type": "Feature", "properties": { "name": "Coulée verte", "cmt": "Amenity::entertainment:public_bookcase", "desc": "Au coeur du parc de la coulée verte.", "type": "Boite à livre" }, "geometry": { "type": "Point", "coordinates": [ -1.6646289, 48.1372453 ] } },
{ "type": "Feature", "properties": { "name": "9 Rue du Château d'Orgemont", "cmt": "Amenity::entertainment:public_bookcase", "desc": "La boîte se situe dans le Jardin de l'Arboretum  dans un écrin végétal propice à la lecture.", "type": "Boite à livre" }, "geometry": { "type": "Point", "coordinates": [ -0.5444507, 47.4506897 ] } },
{ "type": "Feature", "properties": { "name": "Place du Ralliement", "cmt": "Amenity::entertainment:public_bookcase", "type": "Boite à livre" }, "geometry": { "type": "Point", "coordinates": [ -0.5513821, 47.4709334 ] } },
{ "type": "Feature", "properties": { "name": "6 lotissement Naudettes", "cmt": "Amenity::entertainment:public_bookcase", "desc": "Une jolie boîte à lire mise en place par un particulier sur la murette de sa maison.", "type": "Boite à livre" }, "geometry": { "type": "Point", "coordinates": [ 1.3934329, 43.2402906 ] } },
{ "type": "Feature", "properties": { "name": "Gare de Lille Europe", "cmt": "Amenity::entertainment:public_bookcase", "desc": "Entre les halls 1 et 2 de la gare Lille Europe.", "type": "Boite à livre" }, "geometry": { "type": "Point", "coordinates": [ 3.0757133, 50.6388611 ] } },
{ "type": "Feature", "properties": { "name": "rue marechal Clauzel", "cmt": "Amenity::entertainment:public_bookcase", "desc": "La boite a été fabriquée et installée en juin 2016. Elle se situe au pied de l'espace Incroyables Comestibles.", "type": "Boite à livre" }, "geometry": { "type": "Point", "coordinates": [ 1.6149692, 43.1134771 ] } },
{ "type": "Feature", "properties": { "name": "Rue Boreau", "cmt": "Amenity::entertainment:public_bookcase", "desc": "La boite se situe au c?ur du parc du Jardin des Plantes.", "type": "Boite à livre" }, "geometry": { "type": "Point", "coordinates": [ -0.5447425, 47.476507 ] } },
{ "type": "Feature", "properties": { "name": "Rue Henri Delaborde", "cmt": "Amenity::entertainment:public_bookcase", "desc": "La boîte est située à l'angle de la rue Henri Delaborde et de la Rue Bertrand Robidou", "type": "Boite à livre" }, "geometry": { "type": "Point", "coordinates": [ -1.658769, 48.107872 ] } },
{ "type": "Feature", "properties": { "name": "26 bis rue Bigot de Préameneu", "cmt": "Amenity::entertainment:public_bookcase", "type": "Boite à livre" }, "geometry": { "type": "Point", "coordinates": [ -1.6671286, 48.0971534 ] } },
{ "type": "Feature", "properties": { "name": "Port de Saint-Goustan", "cmt": "Amenity::entertainment:public_bookcase", "desc": "Cette bib. de rue est installée à Saint-Goustan sur le port  près de la maison de quartier. Venez emprunter et déposer ce qui vous fait plaisir...", "type": "Boite à livre" }, "geometry": { "type": "Point", "coordinates": [ -2.9772986, 47.6657655 ] } },
{ "type": "Feature", "properties": { "name": "10 rue abbé Rochon", "cmt": "Amenity::entertainment:public_bookcase", "desc": "Bibliothèque de rue adossée à l espace solidaire alternatif Au Coin d'la Rue à l'entrée de la rue de Saint Malo.", "type": "Boite à livre" }, "geometry": { "type": "Point", "coordinates": [ -4.486076, 48.390394 ] } },
{ "type": "Feature", "properties": { "name": "Venelle du Créou", "cmt": "Amenity::entertainment:public_bookcase", "desc": "Le Troc lavoir est un espace dédié à la lecture et au partage de livres au sein de l'ancien lavoir du Créou. Un beau projet de voisinage !", "type": "Boite à livre" }, "geometry": { "type": "Point", "coordinates": [ -3.824714, 48.579205 ] } },
{ "type": "Feature", "properties": { "name": "39 rue Georges Courteline", "cmt": "Amenity::entertainment:public_bookcase", "desc": "Donnez une seconde vie à vos livres et déposez les au CCO dans un frigo bibliothèque spécialement construit pour les accueillir.", "type": "Boite à livre" }, "geometry": { "type": "Point", "coordinates": [ 4.8784623, 45.7794681 ] } },
{ "type": "Feature", "properties": { "name": "Parc Saint chrétienne - Sablon", "cmt": "Amenity::entertainment:public_bookcase", "desc": "Plusieurs petits nids pour des ouvrages à partager...", "type": "Boite à livre" }, "geometry": { "type": "Point", "coordinates": [ 6.180377, 49.0961172 ] } },
{ "type": "Feature", "properties": { "name": "951 Rue de la Libération", "cmt": "Amenity::entertainment:public_bookcase", "desc": "Cabine de plage", "type": "Boite à livre" }, "geometry": { "type": "Point", "coordinates": [ 3.2132289, 50.5306305 ] } },
{ "type": "Feature", "properties": { "name": "47 Rue du Général de Gaulle", "cmt": "Amenity::entertainment:public_bookcase", "desc": "Cabane en bois mobile", "type": "Boite à livre" }, "geometry": { "type": "Point", "coordinates": [ 3.1714996, 50.5095527 ] } },
{ "type": "Feature", "properties": { "name": "Rue de l'église", "cmt": "Amenity::entertainment:public_bookcase", "desc": "Une belle boite à lire sur le parking de l'église de haut Langoiran à l'ombre des ombres.", "type": "Boite à livre" }, "geometry": { "type": "Point", "coordinates": [ -0.3647563, 44.6862613 ] } },
{ "type": "Feature", "properties": { "name": "Place de l'église", "cmt": "Amenity::entertainment:public_bookcase", "desc": "Elle a été fabriquée et installée par les bénévoles de la bibliothèque Bouillon de lecture de Pannecé début novembre 2015.", "type": "Boite à livre" }, "geometry": { "type": "Point", "coordinates": [ -1.2398245, 47.4853041 ] } },
{ "type": "Feature", "properties": { "name": "Forêt de Villecartier", "cmt": "Amenity::entertainment:public_bookcase", "desc": "Mise en place par le réseau des bibliothèques d'Antrain Communauté  cette boite à lire se trouve au c?ur de la base de loisirs Récrénature en forêt de Villecartier. A l'entrée de l espace ludique  vous trouverez cette petite maisonnette contenant des dizaines de livres! Servez-vous et bonne lecture à tous !", "type": "Boite à livre" }, "geometry": { "type": "Point", "coordinates": [ -1.5613889, 48.4722222 ] } },
{ "type": "Feature", "properties": { "name": "Rue Rabelais", "cmt": "Amenity::entertainment:public_bookcase", "desc": "Ancien parcmètre recyclé en petite bibliothèque de rue. Prenez Lisez déposez ! Les livres sont en liberté !", "type": "Boite à livre" }, "geometry": { "type": "Point", "coordinates": [ 0.24148, 47.165888 ] } },
{ "type": "Feature", "properties": { "name": "Place de l'église", "cmt": "Amenity::entertainment:public_bookcase", "desc": "Boite en forme de maisonnette située sur la place de l église.", "type": "Boite à livre" }, "geometry": { "type": "Point", "coordinates": [ -1.512774, 48.39858 ] } },
{ "type": "Feature", "properties": { "name": "Place des Arcades", "cmt": "Amenity::entertainment:public_bookcase", "desc": "Le Conseil Municipal des Jeunes de Brive a installé sur l'ensemble de la commune  plusieurs boites à lire  dont celle située place des Arcades  au coeur du quartier de Rivet.", "type": "Boite à livre" }, "geometry": { "type": "Point", "coordinates": [ 1.4947868, 45.1686774 ] } },
{ "type": "Feature", "properties": { "name": "Place du Calvaire", "cmt": "Amenity::entertainment:public_bookcase", "desc": "Une ancienne cabine téléphonique Anglaise.", "type": "Boite à livre" }, "geometry": { "type": "Point", "coordinates": [ -4.3693623, 48.3741572 ] } },
{ "type": "Feature", "properties": { "name": "Place Charles De Gaulle", "cmt": "Amenity::entertainment:public_bookcase", "desc": "Le Conseil Municipal des Jeunes de Brive a installé sur l'ensemble de la ville de Brive plusieurs boites à lire dont celle située Place Charles de Gaulle.", "type": "Boite à livre" }, "geometry": { "type": "Point", "coordinates": [ 1.5333197, 45.158636 ] } },
{ "type": "Feature", "properties": { "name": "Avenue du 14 Juillet", "cmt": "Amenity::entertainment:public_bookcase", "desc": "Le Conseil Municipal des Jeunes de Brive a installé sur l'ensemble de la commune  plusieurs boites à lire  dont celle située devant l'office de tourisme de Brive.", "type": "Boite à livre" }, "geometry": { "type": "Point", "coordinates": [ 1.5335478, 45.1618782 ] } },
{ "type": "Feature", "properties": { "name": "Boulevard Voltaire", "cmt": "Amenity::entertainment:public_bookcase", "desc": "Le Conseil Municipal des Jeunes de Brive a installé sur l'ensemble de la commune  plusieurs boites à lire  dont celle située sur le parking de la piscine municipale.", "type": "Boite à livre" }, "geometry": { "type": "Point", "coordinates": [ 1.5406139, 45.1594553 ] } },
{ "type": "Feature", "properties": { "name": "29 Avenue Raoul Dautry", "cmt": "Amenity::entertainment:public_bookcase", "desc": "Le Conseil Municipal des Jeunes de Brive a installé sur l'ensemble de la commune  plusieurs boites à lire  dont celle située devant le centre socioculturel Raoul Dautry dans le quartier des Chapélies.", "type": "Boite à livre" }, "geometry": { "type": "Point", "coordinates": [ 1.5500586, 45.1548357 ] } },
{ "type": "Feature", "properties": { "name": "162 Avenue Jean Jaurès", "cmt": "Amenity::entertainment:public_bookcase", "desc": "Le Conseil Municipal des Jeunes de Brive a installé sur l'ensemble de la commune  plusieurs boites à lire  dont celle située sur le parvis de la Gare SNCF de Brive.", "type": "Boite à livre" }, "geometry": { "type": "Point", "coordinates": [ 1.528624, 45.152642 ] } },
{ "type": "Feature", "properties": { "name": "Rue Jacques Monod", "cmt": "Amenity::entertainment:public_bookcase", "desc": "Le Conseil Municipal des Jeunes de Brive a installé sur l ensemble de la commune  plusieurs boites à lire  dont celle située au coeur du quartier de Tujac à proximité du centre socioculturel Jacques Cartier.", "type": "Boite à livre" }, "geometry": { "type": "Point", "coordinates": [ 1.4915167, 45.1555811 ] } },
{ "type": "Feature", "properties": { "name": "Square Germain Auboiroux", "cmt": "Amenity::entertainment:public_bookcase", "desc": "Le Conseil Municipal des Jeunes de Brive a installé sur l'ensemble de la commune  plusieurs boites à lire  dont celle située entre le potager et le square.", "type": "Boite à livre" }, "geometry": { "type": "Point", "coordinates": [ 1.5334711, 45.1559405 ] } },
{ "type": "Feature", "properties": { "name": "Rue Jules Vallès", "cmt": "Amenity::entertainment:public_bookcase", "desc": "Le Conseil Municipal des Jeunes de Brive a installé sur l ensemble de la commune  plusieurs boites à lire  dont celle située au coeur même du campus universitaire briviste.", "type": "Boite à livre" }, "geometry": { "type": "Point", "coordinates": [ 1.5088967, 45.1543821 ] } },
{ "type": "Feature", "properties": { "name": "Square du Château", "cmt": "Amenity::entertainment:public_bookcase", "type": "Boite à livre" }, "geometry": { "type": "Point", "coordinates": [ 7.7500573, 48.6032688 ] } },
{ "type": "Feature", "properties": { "name": "Parc de L'Orangerie", "cmt": "Amenity::entertainment:public_bookcase", "type": "Boite à livre" }, "geometry": { "type": "Point", "coordinates": [ 7.7759099, 48.5918794 ] } },
{ "type": "Feature", "properties": { "name": "32 Rue Victor Hugo", "cmt": "Amenity::entertainment:public_bookcase", "desc": "Installée près du Manoir de la Tour.", "type": "Boite à livre" }, "geometry": { "type": "Point", "coordinates": [ 0.6706466, 47.4026472 ] } },
{ "type": "Feature", "properties": { "name": "Parc de la Perraudière", "cmt": "Amenity::entertainment:public_bookcase", "desc": "La boite se trouve près des jeux enfants.", "type": "Boite à livre" }, "geometry": { "type": "Point", "coordinates": [ 0.6679545, 47.3990975 ] } },
{ "type": "Feature", "properties": { "name": "Cour Bernadette et Jean Mars", "cmt": "Amenity::entertainment:public_bookcase", "desc": "La boîte à lire est une ancienne cabine téléphonique anglaise  offerte par la municipalité de Basingstoke à la Ville d Alençon. Elle entame donc une deuxième vie  tout comme les livres qu on peut y trouver ! Elle se trouve près de la Médiathèque Aveline.", "type": "Boite à livre" }, "geometry": { "type": "Point", "coordinates": [ 0.091266, 48.432856 ] } },
{ "type": "Feature", "properties": { "name": "Allée du Bourbonnais", "cmt": "Amenity::entertainment:public_bookcase", "desc": "Dans le jardin des senteurs à côté de La Poste", "type": "Boite à livre" }, "geometry": { "type": "Point", "coordinates": [ 1.943066, 48.761473 ] } },
{ "type": "Feature", "properties": { "name": "place du 11 novembre 1918", "cmt": "Amenity::entertainment:public_bookcase", "desc": "La boite se trouve au niveau de la place 11 novembre 1918 et de l'école Gérard Philipe.", "type": "Boite à livre" }, "geometry": { "type": "Point", "coordinates": [ 0.6000337, 47.4040129 ] } },
{ "type": "Feature", "properties": { "name": "Place de la mairie", "cmt": "Amenity::entertainment:public_bookcase", "desc": "Bibliothèque créée dans une niche en pierre à droite de la mairie de Ribeauvillé", "type": "Boite à livre" }, "geometry": { "type": "Point", "coordinates": [ 7.3975401, 48.1873717 ] } },
{ "type": "Feature", "properties": { "name": "Croisée des Lys", "cmt": "Amenity::entertainment:public_bookcase", "desc": "Boîte située au milieu de la place de la Croisée des Lys.", "type": "Boite à livre" }, "geometry": { "type": "Point", "coordinates": [ 7.5621595, 47.5861837 ] } },
{ "type": "Feature", "properties": { "name": "Nouveau Bassin", "cmt": "Amenity::entertainment:public_bookcase", "desc": "La boîte de couleur jaune vif se trouve à l'extrémité ouest du Nouveau Bassin  près de l'arrêt Nordfeld de la ligne 2 du tram.", "type": "Boite à livre" }, "geometry": { "type": "Point", "coordinates": [ 7.3468551, 47.7533208 ] } },
{ "type": "Feature", "properties": { "name": "Boulevard Vercingetorix", "cmt": "Amenity::entertainment:public_bookcase", "desc": "A l'angle du bd vercingetorix et du bd lafayette, juste à coté de ce que les clermontois appelent la pyramide", "type": "Boite à livre" }, "geometry": { "type": "Point", "coordinates": [ 3.0868831, 45.7723528 ] } },
{ "type": "Feature", "properties": { "name": "114ter Avenue des Martyrs de la Résistance", "cmt": "Amenity::entertainment:public_bookcase", "desc": "La boite se situe dans le Jardin des plantes.", "type": "Boite à livre" }, "geometry": { "type": "Point", "coordinates": [ 1.0794763, 49.4219401 ] } },
{ "type": "Feature", "properties": { "name": "rue de la république", "cmt": "Amenity::entertainment:public_bookcase", "desc": "Elle est rue de la République  la grande rue qui aboutit au port  sur la droite en allant vers le port.", "type": "Boite à livre" }, "geometry": { "type": "Point", "coordinates": [ 0.230755805969238, 49.416892298008818 ] } },
{ "type": "Feature", "properties": { "name": "6 Allée Simone Signoret", "cmt": "Amenity::entertainment:public_bookcase", "desc": "Elle est localisée à 2 mètres du cinéma Le Pandora. Elle est petite  haute sur pattes et bien décorée.", "type": "Boite à livre" }, "geometry": { "type": "Point", "coordinates": [ 2.0673003, 48.960985 ] } },
{ "type": "Feature", "properties": { "name": "Avenue de Lagord Vendôme", "cmt": "Amenity::entertainment:public_bookcase", "type": "Boite à livre" }, "geometry": { "type": "Point", "coordinates": [ -1.1595909, 46.1756287 ] } },
{ "type": "Feature", "properties": { "name": "avenue du Lieutenant colonel Bernier", "cmt": "Amenity::entertainment:public_bookcase", "desc": "La boite se situe dans le petit renfoncement du mur entre la boîte aux lettres et les conteneurs de dépôt de verre -en face du 112.", "type": "Boite à livre" }, "geometry": { "type": "Point", "coordinates": [ -1.1584587, 46.1695126 ] } },
{ "type": "Feature", "properties": { "name": "Place Saint-Epvre", "cmt": "Amenity::entertainment:public_bookcase", "desc": "L'Arbre aux Livres est installé place saint Epvre à Nancy depuis le 7 septembre 2013. Il est entretenue et alimenté par l'association Ville Vieille en action et la Mjc Lillebonne.", "type": "Boite à livre" }, "geometry": { "type": "Point", "coordinates": [ 6.1794725, 48.696338 ] } },
{ "type": "Feature", "properties": { "name": "Place de l'Ancien marché", "cmt": "Amenity::entertainment:public_bookcase", "type": "Boite à livre" }, "geometry": { "type": "Point", "coordinates": [ 2.487327, 48.83773 ] } },
{ "type": "Feature", "properties": { "name": "Place du Général Leclerc", "cmt": "Amenity::entertainment:public_bookcase", "type": "Boite à livre" }, "geometry": { "type": "Point", "coordinates": [ 2.4736933, 48.8353689 ] } },
{ "type": "Feature", "properties": { "name": "100 Enclos des Récollets", "cmt": "Amenity::entertainment:public_bookcase", "desc": "Il s agit d'une boite à lire uniquement jeunesse en partenariat avec la bibliothèque de Verviers.", "type": "Boite à livre" }, "geometry": { "type": "Point", "coordinates": [ 5.8605075, 50.5944427 ] } },
{ "type": "Feature", "properties": { "name": "320 rue Garibaldi", "cmt": "Amenity::entertainment:public_bookcase", "desc": "Boîte présente au Dépôt Imaginaire collectif de 12 éditeurs indépendants des Imaginaires. Accessible dans l'espace détente du Dépôt. Le surplus de livres est conservé dans un caisse qui  une fois pleine  est remise à des associations de réinsertion sociale.", "type": "Boite à livre" }, "geometry": { "type": "Point", "coordinates": [ 4.853853, 45.7499463 ] } },
{ "type": "Feature", "properties": { "name": "23 boulevard Albert 1er", "cmt": "Amenity::entertainment:public_bookcase", "desc": "Un bel Arbre aux Livres tout en palette à destination des étudiants. Il se situe dans le hall du Campus Lettres et Sciences Humaines..", "type": "Boite à livre" }, "geometry": { "type": "Point", "coordinates": [ 6.1672585, 48.6954374 ] } },
{ "type": "Feature", "properties": { "cmt": "Amenity::entertainment:public_bookcase", "type": "Boite à livre" }, "geometry": { "type": "Point", "coordinates": [ -1.1805876, 46.15866 ] } },
{ "type": "Feature", "properties": { "name": "12 Rue de la Halle", "cmt": "Amenity::entertainment:public_bookcase", "desc": "Au rez-de chaussée du centre commercial  au niveau du salon  devant l'accueil.", "type": "Boite à livre" }, "geometry": { "type": "Point", "coordinates": [ 3.5245718, 50.3570311 ] } },
{ "type": "Feature", "properties": { "name": "rue Clémenceau", "cmt": "Amenity::entertainment:public_bookcase", "desc": "Située dans une ancienne boîte à lettres  dans le mur d une maison", "type": "Boite à livre" }, "geometry": { "type": "Point", "coordinates": [ -2.1043621, 47.115771 ] } },
{ "type": "Feature", "properties": { "name": "22 Rue Emile Pehant", "cmt": "Amenity::entertainment:public_bookcase", "desc": "Dépôt de livres dans le hall d'entrée.", "type": "Boite à livre" }, "geometry": { "type": "Point", "coordinates": [ -1.548186, 47.2127566 ] } },
{ "type": "Feature", "properties": { "name": "Rue cuvier", "cmt": "Amenity::entertainment:public_bookcase", "desc": "La boite à lire se trouve accrochée à un arbre à hauteur d'homme.", "type": "Boite à livre" }, "geometry": { "type": "Point", "coordinates": [ 2.4237477, 48.8509751 ] } },
{ "type": "Feature", "properties": { "name": "Le bourg", "cmt": "Amenity::entertainment:public_bookcase", "desc": "Située en milieu rural  dans un village de 500 habitants  elle rencontre un franc succès. Placée tout près de l'école  venez y piocher et déposer des livres.", "type": "Boite à livre" }, "geometry": { "type": "Point", "coordinates": [ -0.1347557, 44.6363856 ] } },
{ "type": "Feature", "properties": { "name": "Place Jacques Madaule", "cmt": "Amenity::entertainment:public_bookcase", "desc": "Une cabine téléphonique transformée en bibliothèque partagée !", "type": "Boite à livre" }, "geometry": { "type": "Point", "coordinates": [ 2.2610622, 48.823826 ] } },
{ "type": "Feature", "properties": { "name": "Gare Sncf", "cmt": "Amenity::entertainment:public_bookcase", "desc": "En face de la gare  petit square à côté pour s?asseoir et lire.", "type": "Boite à livre" }, "geometry": { "type": "Point", "coordinates": [ 0.168189, 44.502702 ] } },
{ "type": "Feature", "properties": { "name": "rue des deportes", "cmt": "Amenity::entertainment:public_bookcase", "desc": "J'ai mis cette boite en fonction avec l'aide de ma Mairie car je peux faire partager ma passion et mon métier je suis libraire.", "type": "Boite à livre" }, "geometry": { "type": "Point", "coordinates": [ 0.3557949, 47.29413 ] } },
{ "type": "Feature", "properties": { "name": "rue des deportes", "cmt": "Amenity::entertainment:public_bookcase", "desc": "J'ai mis cette boite en fonction avec l'aide de ma Mairie car je peux faire partager ma passion et mon métier je suis libraire.", "type": "Boite à livre" }, "geometry": { "type": "Point", "coordinates": [ 0.3557949, 47.29413 ] } },
{ "type": "Feature", "properties": { "name": "6 rue du Moulin", "cmt": "Amenity::entertainment:public_bookcase", "desc": "La boite à lire se trouve juste à côté de la Médiathèque. Il s agit d'un ancien four reconverti  également appelé four à lire. Il y a des romans adultes et enfants  des documentaires et même quelques BD !", "type": "Boite à livre" }, "geometry": { "type": "Point", "coordinates": [ 7.452016, 47.6524662 ] } },
{ "type": "Feature", "properties": { "name": "9 rue Nicolas Appert", "cmt": "Amenity::entertainment:public_bookcase", "desc": "RecycLivre (La Conserverie) ouverture le 7 juillet", "type": "Boite à livre" }, "geometry": { "type": "Point", "coordinates": [ -1.5791585, 47.2135489 ] } },
{ "type": "Feature", "properties": { "name": "place du bicentenaire", "cmt": "Amenity::entertainment:public_bookcase", "type": "Boite à livre" }, "geometry": { "type": "Point", "coordinates": [ -0.5480627, 44.8071133 ] } },
{ "type": "Feature", "properties": { "name": "Place Jean Cayrol", "cmt": "Amenity::entertainment:public_bookcase", "type": "Boite à livre" }, "geometry": { "type": "Point", "coordinates": [ -0.571902, 44.879685 ] } },
{ "type": "Feature", "properties": { "name": "Cours de Verdun", "cmt": "Amenity::entertainment:public_bookcase", "desc": "Dans le jardin public", "type": "Boite à livre" }, "geometry": { "type": "Point", "coordinates": [ -0.5757368, 44.8486992 ] } },
{ "type": "Feature", "properties": { "name": "rue Mandron", "cmt": "Amenity::entertainment:public_bookcase", "type": "Boite à livre" }, "geometry": { "type": "Point", "coordinates": [ -0.583134, 44.855023 ] } },
{ "type": "Feature", "properties": { "name": "Place des Martyrs de la Résistance", "cmt": "Amenity::entertainment:public_bookcase", "type": "Boite à livre" }, "geometry": { "type": "Point", "coordinates": [ -0.5846553, 44.8423986 ] } },
{ "type": "Feature", "properties": { "name": "Esplanade Charles de Gaulle", "cmt": "Amenity::entertainment:public_bookcase", "type": "Boite à livre" }, "geometry": { "type": "Point", "coordinates": [ -0.6019932, 44.8496305 ] } },
{ "type": "Feature", "properties": { "name": "Rue Georges Mandel", "cmt": "Amenity::entertainment:public_bookcase", "desc": "Dans le jardin Georges Mandel", "type": "Boite à livre" }, "geometry": { "type": "Point", "coordinates": [ -0.5929279, 44.8422616 ] } },
{ "type": "Feature", "properties": { "name": "quai Richelieu", "cmt": "Amenity::entertainment:public_bookcase", "desc": "Devant la maison écocitoyenne", "type": "Boite à livre" }, "geometry": { "type": "Point", "coordinates": [ -0.5673386, 44.8385555 ] } },
{ "type": "Feature", "properties": { "name": "Place Charles Gruet", "cmt": "Amenity::entertainment:public_bookcase", "type": "Boite à livre" }, "geometry": { "type": "Point", "coordinates": [ -0.5803084, 44.8464554 ] } },
{ "type": "Feature", "properties": { "name": "Rue Jenny Lépreux", "cmt": "Amenity::entertainment:public_bookcase", "type": "Boite à livre" }, "geometry": { "type": "Point", "coordinates": [ -0.6118439, 44.832562 ] } },
{ "type": "Feature", "properties": { "name": "Place Amédée Larrieu", "cmt": "Amenity::entertainment:public_bookcase", "type": "Boite à livre" }, "geometry": { "type": "Point", "coordinates": [ -0.581719, 44.8303299 ] } },
{ "type": "Feature", "properties": { "name": "Place Gavinès", "cmt": "Amenity::entertainment:public_bookcase", "desc": "Jardin Gaviniès", "type": "Boite à livre" }, "geometry": { "type": "Point", "coordinates": [ -0.5947369, 44.8331087 ] } },
{ "type": "Feature", "properties": { "name": "Place d'Arlac", "cmt": "Amenity::entertainment:public_bookcase", "type": "Boite à livre" }, "geometry": { "type": "Point", "coordinates": [ -0.6144334, 44.8252807 ] } },
{ "type": "Feature", "properties": { "name": "rue de la Béchade", "cmt": "Amenity::entertainment:public_bookcase", "desc": "Jardin Béchade", "type": "Boite à livre" }, "geometry": { "type": "Point", "coordinates": [ -0.5988514, 44.8249589 ] } },
{ "type": "Feature", "properties": { "name": "Rue du professeur Thimothée Piéchaud", "cmt": "Amenity::entertainment:public_bookcase", "type": "Boite à livre" }, "geometry": { "type": "Point", "coordinates": [ -0.6118658, 44.8266972 ] } },
{ "type": "Feature", "properties": { "name": "Place Simiot", "cmt": "Amenity::entertainment:public_bookcase", "type": "Boite à livre" }, "geometry": { "type": "Point", "coordinates": [ -0.577918, 44.823156 ] } },
{ "type": "Feature", "properties": { "name": "Place Nansouty", "cmt": "Amenity::entertainment:public_bookcase", "type": "Boite à livre" }, "geometry": { "type": "Point", "coordinates": [ -0.5719534, 44.8204682 ] } },
{ "type": "Feature", "properties": { "name": "109 rue Bertrand de Goth", "cmt": "Amenity::entertainment:public_bookcase", "desc": "Square Bertrand de Goth", "type": "Boite à livre" }, "geometry": { "type": "Point", "coordinates": [ -0.5775849, 44.8192041 ] } },
{ "type": "Feature", "properties": { "name": "9 boulevard Albert 1er", "cmt": "Amenity::entertainment:public_bookcase", "desc": "Jardin Moulin d'Ars", "type": "Boite à livre" }, "geometry": { "type": "Point", "coordinates": [ -0.5711186, 44.8141544 ] } },
{ "type": "Feature", "properties": { "name": "Place Francis de Pressensé", "cmt": "Amenity::entertainment:public_bookcase", "type": "Boite à livre" }, "geometry": { "type": "Point", "coordinates": [ -0.5756486, 44.8320414 ] } },
{ "type": "Feature", "properties": { "name": "Place Ferdinand Buisson", "cmt": "Amenity::entertainment:public_bookcase", "type": "Boite à livre" }, "geometry": { "type": "Point", "coordinates": [ -0.5515627, 44.8238909 ] } },
{ "type": "Feature", "properties": { "name": "Place Dormoy", "cmt": "Amenity::entertainment:public_bookcase", "type": "Boite à livre" }, "geometry": { "type": "Point", "coordinates": [ -0.5643787, 44.8263996 ] } },
{ "type": "Feature", "properties": { "name": "20 rue de Chateauneuf", "cmt": "Amenity::entertainment:public_bookcase", "desc": "Maison cantonale", "type": "Boite à livre" }, "geometry": { "type": "Point", "coordinates": [ -0.5531541, 44.8413903 ] } },
{ "type": "Feature", "properties": { "name": "Esplanade Linné", "cmt": "Amenity::entertainment:public_bookcase", "type": "Boite à livre" }, "geometry": { "type": "Point", "coordinates": [ -0.5593504, 44.8446081 ] } },
{ "type": "Feature", "properties": { "name": "Rue Stéhelin", "cmt": "Amenity::entertainment:public_bookcase", "type": "Boite à livre" }, "geometry": { "type": "Point", "coordinates": [ -0.6285522, 44.8562861 ] } },
{ "type": "Feature", "properties": { "name": "Rue du bocage", "cmt": "Amenity::entertainment:public_bookcase", "desc": "Dans le parc bordelais", "type": "Boite à livre" }, "geometry": { "type": "Point", "coordinates": [ -0.5996904, 44.8521698 ] } },
{ "type": "Feature", "properties": { "name": "Avenue Raymond Poincaré", "cmt": "Amenity::entertainment:public_bookcase", "desc": "Square Raymond Poincaré", "type": "Boite à livre" }, "geometry": { "type": "Point", "coordinates": [ -0.619157, 44.844818 ] } },
{ "type": "Feature", "properties": { "name": "Place Centrale", "cmt": "Amenity::entertainment:public_bookcase", "desc": "Boîte à lire  vous prenez un livre  vous en mettez un!", "type": "Boite à livre" }, "geometry": { "type": "Point", "coordinates": [ 2.959873, 43.086944 ] } },
{ "type": "Feature", "properties": { "name": "Square Thérèse Léon Blum", "cmt": "Amenity::entertainment:public_bookcase", "type": "Boite à livre" }, "geometry": { "type": "Point", "coordinates": [ 3.0075667, 43.1874472 ] } },
{ "type": "Feature", "properties": { "name": "Boulevard Docteur Lacroix", "cmt": "Amenity::entertainment:public_bookcase", "desc": "Livres comme l air  livres en libre circulation dans le jardin ouvert de 10h à 19h  vous prenez un livre  vous en mettez un.", "type": "Boite à livre" }, "geometry": { "type": "Point", "coordinates": [ 3.000527, 43.180523 ] } },
{ "type": "Feature", "properties": { "name": "rue du Général Auguste La Houlle", "cmt": "Amenity::entertainment:public_bookcase", "desc": "Dans le quartier du Gumenen  Maison Livre réalisée par une classe de 3ème du Lycée Kerplouz  Installées en extérieur  dans un lieu de passage  chacun peut venir y retirer un livre  avec pour seule contrainte d'en déposer un autre à la place...", "type": "Boite à livre" }, "geometry": { "type": "Point", "coordinates": [ -2.997539, 47.670454 ] } },
{ "type": "Feature", "properties": { "name": "place Notre Dame", "cmt": "Amenity::entertainment:public_bookcase", "desc": "Cabine Livre  réalisée par les menuisiers et les peintres de la Ville d'Auray. Installées en extérieur  dans un lieu de passage  chacun peut venir y retirer un livre  avec pour seule contrainte d en déposer un autre à la place...", "type": "Boite à livre" }, "geometry": { "type": "Point", "coordinates": [ -2.9863832, 47.6666086 ] } },
{ "type": "Feature", "properties": { "name": "Marlais", "cmt": "Amenity::entertainment:public_bookcase", "desc": "Armoire sous l'abribus à l'entrée du village de Marlais.", "type": "Boite à livre" }, "geometry": { "type": "Point", "coordinates": [ -2.298955, 47.409336 ] } },
{ "type": "Feature", "properties": { "name": "Pompas", "cmt": "Amenity::entertainment:public_bookcase", "desc": "Armoire sous l abribus à proximité de l'église de Pompas.", "type": "Boite à livre" }, "geometry": { "type": "Point", "coordinates": [ -2.355058, 47.407163 ] } },
{ "type": "Feature", "properties": { "name": "Rue de la Carreyre", "cmt": "Amenity::entertainment:public_bookcase", "desc": "Boîte à lire  située sur la place du val de l'Eyre  très sollicitée  où les livres voyagent et s échangent grâce aux barpais qui jouent le jeu !", "type": "Boite à livre" }, "geometry": { "type": "Point", "coordinates": [ -0.7689177, 44.6100048 ] } },
{ "type": "Feature", "properties": { "name": "rue du Champ-Rosey", "cmt": "Amenity::entertainment:public_bookcase", "desc": "Elle est située à la piscine municipale.", "type": "Boite à livre" }, "geometry": { "type": "Point", "coordinates": [ 4.831199, 46.770023 ] } },
{ "type": "Feature", "properties": { "name": "Place Hubert Jolivet", "cmt": "Amenity::entertainment:public_bookcase", "type": "Boite à livre" }, "geometry": { "type": "Point", "coordinates": [ 2.217872, 49.112288 ] } },
{ "type": "Feature", "properties": { "name": "Rue Saint-Lazare", "cmt": "Amenity::entertainment:public_bookcase", "desc": "Passage Saint-Lazare", "type": "Boite à livre" }, "geometry": { "type": "Point", "coordinates": [ 2.2175178, 49.1075934 ] } },
{ "type": "Feature", "properties": { "name": "Promenade André Devambez", "cmt": "Amenity::entertainment:public_bookcase", "desc": "Petite boîte à lire située sur un chemin piéton en bord de marne.", "type": "Boite à livre" }, "geometry": { "type": "Point", "coordinates": [ 2.5154957, 48.8517783 ] } },
{ "type": "Feature", "properties": { "name": "Place de la halle", "cmt": "Amenity::entertainment:public_bookcase", "desc": "Sur la place  en face de la halle.", "type": "Boite à livre" }, "geometry": { "type": "Point", "coordinates": [ 1.9413476, 47.7223414 ] } },
{ "type": "Feature", "properties": { "name": "36 Rue Marceau", "cmt": "Amenity::entertainment:public_bookcase", "desc": "Elle se trouve dans le hall d'entrée de la clinique des ormeaux  à droite  à disposition de tous  résidents ou non.", "type": "Boite à livre" }, "geometry": { "type": "Point", "coordinates": [ 0.1355359, 49.4874079 ] } },
{ "type": "Feature", "properties": { "name": "Hôtel De Ville", "cmt": "Amenity::entertainment:public_bookcase", "type": "Boite à livre" }, "geometry": { "type": "Point", "coordinates": [ 5.620483, 44.845564 ] } },
{ "type": "Feature", "properties": { "name": "Place Louis Sallé", "cmt": "Amenity::entertainment:public_bookcase", "type": "Boite à livre" }, "geometry": { "type": "Point", "coordinates": [ 1.9014574, 47.8650456 ] } },
{ "type": "Feature", "properties": { "name": "Chemin de l écluse", "cmt": "Amenity::entertainment:public_bookcase", "desc": "Boite à lire créée à l'initiative de la médiathèque de Malestroit située près de l'écluse au bord du canal de Nantes à Brest.", "type": "Boite à livre" }, "geometry": { "type": "Point", "coordinates": [ -2.382426, 47.8128211 ] } },
{ "type": "Feature", "properties": { "name": "place félix éboué", "cmt": "Amenity::entertainment:public_bookcase", "desc": "Une boite à dons  dont des livres... à la sortie du métro Daumesnil rue de reuilly. A garnir visiblement !", "type": "Boite à livre" }, "geometry": { "type": "Point", "coordinates": [ 2.396109, 48.8395845 ] } },
{ "type": "Feature", "properties": { "name": "Caminot de Sauves", "cmt": "Amenity::entertainment:public_bookcase", "desc": "Boîte à lire associative Maily maylo Macau.", "type": "Boite à livre" }, "geometry": { "type": "Point", "coordinates": [ -0.617424, 45.006246 ] } },
{ "type": "Feature", "properties": { "name": "Grande Rue", "cmt": "Amenity::entertainment:public_bookcase", "desc": "Inauguration de la Boîte à Lire Mercredi 29 juin 2016. La Boîte à lire a été confectionnée par un ébéniste du village avec la participation financière de LA BERGERIE  et de la caisse locale du Crédit Agricole.", "type": "Boite à livre" }, "geometry": { "type": "Point", "coordinates": [ 5.507319, 48.150487 ] } },
{ "type": "Feature", "properties": { "name": "Croix d'Ambilly", "cmt": "Amenity::entertainment:public_bookcase", "desc": "Vous trouverez la boite à lire au Carrefour.", "type": "Boite à livre" }, "geometry": { "type": "Point", "coordinates": [ 6.224742, 46.191818 ] } },
{ "type": "Feature", "properties": { "name": "2 rue du château", "cmt": "Amenity::entertainment:public_bookcase", "desc": "Devant la Mairie de Pont de Metz.", "type": "Boite à livre" }, "geometry": { "type": "Point", "coordinates": [ 2.243275, 49.8810224 ] } },
{ "type": "Feature", "properties": { "name": "1 Rue du Vairais", "cmt": "Amenity::entertainment:public_bookcase", "desc": "Repérée hier en allant à un concert  petite boîte à lire sur l'avenue principale près de la mairie !", "type": "Boite à livre" }, "geometry": { "type": "Point", "coordinates": [ 0.4005897, 48.3086356 ] } },
{ "type": "Feature", "properties": { "name": "Place du Général de Gaulle", "cmt": "Amenity::entertainment:public_bookcase", "desc": "Boite aux lettres située sur la gauche de la place.", "type": "Boite à livre" }, "geometry": { "type": "Point", "coordinates": [ -0.2459873, 44.5529638 ] } },
{ "type": "Feature", "properties": { "name": "45 Chaussée Jules ferry", "cmt": "Amenity::entertainment:public_bookcase", "desc": "La cabine anglaise de la Chaussée Jules Ferry s'est refaite une beauté ! Transformée en Boîte à lire  elle fait le bonheur de ses nouveaux usagers !", "type": "Boite à livre" }, "geometry": { "type": "Point", "coordinates": [ 2.3237698, 49.8842368 ] } },
{ "type": "Feature", "properties": { "name": "Avenue de Bourgogne", "cmt": "Amenity::entertainment:public_bookcase", "desc": "Une nouvelle Boîte à lire installée par Amiens Métropole devant le Diapason  école de musique d'Etouvie.", "type": "Boite à livre" }, "geometry": { "type": "Point", "coordinates": [ 2.2521289, 49.9150685 ] } },
{ "type": "Feature", "properties": { "name": "Rue Henri Poincaré", "cmt": "Amenity::entertainment:public_bookcase", "desc": "boite installée à l'initiative d'un habitant", "type": "Boite à livre" }, "geometry": { "type": "Point", "coordinates": [ 0.21304, 49.143456 ] } },
{ "type": "Feature", "properties": { "name": "1 Avenue Taunton", "cmt": "Amenity::entertainment:public_bookcase", "desc": "A l intérieur du Centre Socioculturel CAF", "type": "Boite à livre" }, "geometry": { "type": "Point", "coordinates": [ 0.2404834, 49.1428804 ] } },
{ "type": "Feature", "properties": { "name": "4 Rue Roger Aini", "cmt": "Amenity::entertainment:public_bookcase", "desc": "Boite à lire dans le hall d'entrée de l'hôpital. Mise en place par l'hôpital.", "type": "Boite à livre" }, "geometry": { "type": "Point", "coordinates": [ 0.2435208, 49.1436999 ] } },
{ "type": "Feature", "properties": { "name": "21 Place Mozart", "cmt": "Amenity::entertainment:public_bookcase", "type": "Boite à livre" }, "geometry": { "type": "Point", "coordinates": [ 0.2549758, 49.143692 ] } },
{ "type": "Feature", "properties": { "name": "13 Grande Rue", "cmt": "Amenity::entertainment:public_bookcase", "desc": "Projet Partagé Au Fil des Pages mis en place par des habitants de la commune.", "type": "Boite à livre" }, "geometry": { "type": "Point", "coordinates": [ 2.596359, 47.2414296 ] } },
{ "type": "Feature", "properties": { "name": "Place Avet", "cmt": "Amenity::entertainment:public_bookcase", "desc": "Librairie Papeterie des Aravis. Sur la façade de la librairie.", "type": "Boite à livre" }, "geometry": { "type": "Point", "coordinates": [ 6.3224483, 45.8817956 ] } },
{ "type": "Feature", "properties": { "name": "Rue Jean Jaurès 2", "cmt": "Amenity::entertainment:public_bookcase", "desc": "À l entrée de la maison communale.", "type": "Boite à livre" }, "geometry": { "type": "Point", "coordinates": [ 4.3747096, 50.4596024 ] } },
{ "type": "Feature", "properties": { "name": "place Lazare Goujon", "cmt": "Amenity::entertainment:public_bookcase", "desc": "Juste devant la mairie   les boîtes à lire sont disposées au croisement de l'avenue Henri Barbusse aux Gratte Ciel.", "type": "Boite à livre" }, "geometry": { "type": "Point", "coordinates": [ 4.8796622, 45.7662954 ] } },
{ "type": "Feature", "properties": { "name": "Place de la poste", "cmt": "Amenity::entertainment:public_bookcase", "desc": "Cette boite à lire est sur le terre plein en face de la mairie  juste à côté de la poste...", "type": "Boite à livre" }, "geometry": { "type": "Point", "coordinates": [ -3.566092, 48.769253 ] } },
{ "type": "Feature", "properties": { "name": "cours des carmes", "cmt": "Amenity::entertainment:public_bookcase", "desc": "Boite aux lettres située au niveau de la place des Carmes au niveau du centre culturel sur la gauche.", "type": "Boite à livre" }, "geometry": { "type": "Point", "coordinates": [ -0.2449845, 44.5548401 ] } },
{ "type": "Feature", "properties": { "name": "boulevard François Mauriac", "cmt": "Amenity::entertainment:public_bookcase", "desc": "Au niveau du Lycée Jean Moulin sur la gauche.", "type": "Boite à livre" }, "geometry": { "type": "Point", "coordinates": [ -0.2565149, 44.5478647 ] } },
{ "type": "Feature", "properties": { "name": "53 Bd de Saint-Loup", "cmt": "Amenity::entertainment:public_bookcase", "desc": "Joyeux Troc Livres  créé par les Rudologistes Associés  Sophie Barbaux et Colas Baillieul  pour la MECS Le Mas Joyeux  en avril 2016. Cette bibliothèque urbaine prolonge la convivialité  l échange et le recyclage qui sont les bases du Joyeux Jardin  où enfants et personnes âgées cultivent ensemble un joyeux potager.", "type": "Boite à livre" }, "geometry": { "type": "Point", "coordinates": [ 5.430068, 43.2824399 ] } },
{ "type": "Feature", "properties": { "name": "Place de l'église", "cmt": "Amenity::entertainment:public_bookcase", "type": "Boite à livre" }, "geometry": { "type": "Point", "coordinates": [ 3.4329761, 46.1636263 ] } },
{ "type": "Feature", "properties": { "name": "Place Richard Feuillet", "cmt": "Amenity::entertainment:public_bookcase", "desc": "Boîte à lire se trouvant sur la Place Richard Feuillet  là où se tient le marché. Une jolie boîte très colorée où on peut y trouver de jolies trouvailles !", "type": "Boite à livre" }, "geometry": { "type": "Point", "coordinates": [ -1.4463641, 43.5620842 ] } },
{ "type": "Feature", "properties": { "name": "Place de l'église", "cmt": "Amenity::entertainment:public_bookcase", "desc": "Ancienne cabine téléphonique anglaise recyclée en cabane à lire.", "type": "Boite à livre" }, "geometry": { "type": "Point", "coordinates": [ 2.6060248, 49.3003516 ] } },
{ "type": "Feature", "properties": { "name": "place de la Fontaine", "cmt": "Amenity::entertainment:public_bookcase", "desc": "La boite est mobile elle se promène de commerces en commerces sur la place de la Fontaine  chaque professionnel indique sur sa vitrine l endroit où elle se trouve. Un marque page vous est offert.", "type": "Boite à livre" }, "geometry": { "type": "Point", "coordinates": [ -0.2093699, 43.1898712 ] } },
{ "type": "Feature", "properties": { "name": "Vieille route du Teil", "cmt": "Amenity::entertainment:public_bookcase", "desc": "Cachée derrière une rose trémière", "type": "Boite à livre" }, "geometry": { "type": "Point", "coordinates": [ 4.7257345, 44.5594992 ] } },
{ "type": "Feature", "properties": { "name": "rue jean moulin", "cmt": "Amenity::entertainment:public_bookcase", "desc": "La boite à lire se trouve devant la Mjc rive gauche et à côté du centre de loisirs de Jurançon.", "type": "Boite à livre" }, "geometry": { "type": "Point", "coordinates": [ -0.3929476, 43.2892257 ] } },
{ "type": "Feature", "properties": { "name": "Rue Amédée Roussille", "cmt": "Amenity::entertainment:public_bookcase", "desc": "La boite à lire se trouve dans le jardin partagé de Marsan derrière le restauration à la maison en bordure du Gave de Pau.", "type": "Boite à livre" }, "geometry": { "type": "Point", "coordinates": [ -0.3818682, 43.293316 ] } },
{ "type": "Feature", "properties": { "name": "11 Rue Francis-Ponge", "cmt": "Amenity::entertainment:public_bookcase", "desc": "Boite à lire installée dans le jardin Herold par la Cie par Has Arts", "type": "Boite à livre" }, "geometry": { "type": "Point", "coordinates": [ 2.3944381, 48.8821815 ] } },
{ "type": "Feature", "properties": { "name": "Place de la Prairie", "cmt": "Amenity::entertainment:public_bookcase", "desc": "Face au lycée professionnel  proposée par la médiathèque de Gourdan.", "type": "Boite à livre" }, "geometry": { "type": "Point", "coordinates": [ 0.585491, 43.076631 ] } },
{ "type": "Feature", "properties": { "name": "rue Hoche", "cmt": "Amenity::entertainment:public_bookcase", "desc": "Devant la police et la poste", "type": "Boite à livre" }, "geometry": { "type": "Point", "coordinates": [ 2.4921348, 48.833842 ] } },
{ "type": "Feature", "properties": { "name": "Jouy", "cmt": "Amenity::entertainment:public_bookcase", "desc": "Dans le parc de sculptures contemporaines  3 boites à lire sont à la disposition des visiteurs: thème principal écrits d'artistes  poésie  sculpture.", "type": "Boite à livre" }, "geometry": { "type": "Point", "coordinates": [ 2.865334, 46.820262 ] } },
{ "type": "Feature", "properties": { "name": "1 Ter Rue de Beaune", "cmt": "Amenity::entertainment:public_bookcase", "desc": "Cette boîte à lire est située dans une MJC. Elle est accessible à tout le monde aux heures d ouverture. On y trouve des livres pour les petits  certes  mais aussi pour les plus grands !", "type": "Boite à livre" }, "geometry": { "type": "Point", "coordinates": [ 5.0381381, 47.3315064 ] } },
{ "type": "Feature", "properties": { "name": "rue de Biesheim", "cmt": "Amenity::entertainment:public_bookcase", "desc": "Boîte à lire mise en place par la bibliothèque municipale pour tout l'été (2016).", "type": "Boite à livre" }, "geometry": { "type": "Point", "coordinates": [ 0.21868, 44.411503 ] } },
{ "type": "Feature", "properties": { "name": "Rue Clémenceau", "cmt": "Amenity::entertainment:public_bookcase", "desc": "Une boîte à lire grande comme une boîte à lettres.", "type": "Boite à livre" }, "geometry": { "type": "Point", "coordinates": [ -2.1043621, 47.115771 ] } },
{ "type": "Feature", "properties": { "name": "Route Minervoise", "cmt": "Amenity::entertainment:public_bookcase", "desc": "Située sur un petit parking face à la mairie.", "type": "Boite à livre" }, "geometry": { "type": "Point", "coordinates": [ 2.627681, 43.2242973 ] } },
{ "type": "Feature", "properties": { "name": "Rue des Chevaliers", "cmt": "Amenity::entertainment:public_bookcase", "desc": "Boîte à livres bien caché sous des escaliers.", "type": "Boite à livre" }, "geometry": { "type": "Point", "coordinates": [ 2.7202341, 43.2679855 ] } },
{ "type": "Feature", "properties": { "name": "Jardin public de Fougères", "cmt": "Amenity::entertainment:public_bookcase", "desc": "La boite à lire se trouve près de l'entrée du jardin public  à gauche de l'église Saint Léonard.", "type": "Boite à livre" }, "geometry": { "type": "Point", "coordinates": [ -1.209357, 48.3539 ] } },
{ "type": "Feature", "properties": { "name": "1 place Jean-Philippe Rameau", "cmt": "Amenity::entertainment:public_bookcase", "desc": "Boîte à lire située à l intérieur de l'Espace Rameau  près de l'entrée de la bibliothèque municipale.", "type": "Boite à livre" }, "geometry": { "type": "Point", "coordinates": [ 2.8822876, 49.2262845 ] } },
{ "type": "Feature", "properties": { "name": "Lac de Trémelin", "cmt": "Amenity::entertainment:public_bookcase", "desc": "Quatre boites disposées autour du lac : plage  office de tourisme  ponton et devant L'aparté", "type": "Boite à livre" }, "geometry": { "type": "Point", "coordinates": [ -2.0328676, 48.099667 ] } },
{ "type": "Feature", "properties": { "name": "6 grand rue", "cmt": "Amenity::entertainment:public_bookcase", "desc": "Elle a été installée en 2013 dans le cadre de l'opération Lectures communes initiée par l'association des maires ruraux de France. Elle mène depuis une existence indépendante.", "type": "Boite à livre" }, "geometry": { "type": "Point", "coordinates": [ 3.1484927, 49.3875462 ] } },
{ "type": "Feature", "properties": { "name": "Quai Navier", "cmt": "Amenity::entertainment:public_bookcase", "desc": "Elle se situe avenue Jean Jaures à côté de la boulangerie du port du canal et au coin de l'école Jean Jaures", "type": "Boite à livre" }, "geometry": { "type": "Point", "coordinates": [ 5.0255621, 47.3141118 ] } },
{ "type": "Feature", "properties": { "name": "Place de la Fontaine", "cmt": "Amenity::entertainment:public_bookcase", "desc": "Seconde boîte à lire voyageur installée dans le village en mai 2014.", "type": "Boite à livre" }, "geometry": { "type": "Point", "coordinates": [ 3.155393, 49.405538 ] } },
{ "type": "Feature", "properties": { "name": "rue Ecorchard", "cmt": "Amenity::entertainment:public_bookcase", "desc": "La boite à lire se trouve au niveau de l'entrée du Jardin des Plantes  rue Ecorchard  côté Gare Nord. Dans le cadre du Voyage à Nantes jusque fin août. La boîte se situe à proximité des chèvres  vers la droite après l'entrée. Beaucoup de passages de touristes  donc les livres sont plus empruntés que déposés...", "type": "Boite à livre" }, "geometry": { "type": "Point", "coordinates": [ -1.5432142, 47.218479 ] } },
{ "type": "Feature", "properties": { "name": "Place Schwalbach", "cmt": "Amenity::entertainment:public_bookcase", "desc": "La boite se situe à côté de l?hôtel de ville.", "type": "Boite à livre" }, "geometry": { "type": "Point", "coordinates": [ -0.6014938, 47.5041679 ] } },
{ "type": "Feature", "properties": { "name": "Place du Général de Gaulle", "cmt": "Amenity::entertainment:public_bookcase", "type": "Boite à livre" }, "geometry": { "type": "Point", "coordinates": [ 2.9318335, 50.5290839 ] } },
{ "type": "Feature", "properties": { "name": "100 route de Vienne", "cmt": "Amenity::entertainment:public_bookcase", "type": "Boite à livre" }, "geometry": { "type": "Point", "coordinates": [ 4.8521346, 45.7378822 ] } },
{ "type": "Feature", "properties": { "name": "Rond-Point Stalingrad", "cmt": "Amenity::entertainment:public_bookcase", "type": "Boite à livre" }, "geometry": { "type": "Point", "coordinates": [ 2.5108316, 48.8730579 ] } },
{ "type": "Feature", "properties": { "name": "Rue des Renouilleres", "cmt": "Amenity::entertainment:public_bookcase", "type": "Boite à livre" }, "geometry": { "type": "Point", "coordinates": [ 2.5093546, 48.8651604 ] } },
{ "type": "Feature", "properties": { "name": "Voie Lamarque", "cmt": "Amenity::entertainment:public_bookcase", "type": "Boite à livre" }, "geometry": { "type": "Point", "coordinates": [ 2.509752, 48.8600572 ] } },
{ "type": "Feature", "properties": { "name": "avenue de la Gare", "cmt": "Amenity::entertainment:public_bookcase", "type": "Boite à livre" }, "geometry": { "type": "Point", "coordinates": [ 4.7633181, 45.6739991 ] } },
{ "type": "Feature", "properties": { "name": "14 Rue des Champs", "cmt": "Amenity::entertainment:public_bookcase", "type": "Boite à livre" }, "geometry": { "type": "Point", "coordinates": [ 6.147782, 45.91348 ] } },
{ "type": "Feature", "properties": { "name": "Rue du 8 mai 1945", "cmt": "Amenity::entertainment:public_bookcase", "type": "Boite à livre" }, "geometry": { "type": "Point", "coordinates": [ 4.948651, 45.6913003 ] } },
{ "type": "Feature", "properties": { "name": "3 rue de Grumesnil", "cmt": "Amenity::entertainment:public_bookcase", "type": "Boite à livre" }, "geometry": { "type": "Point", "coordinates": [ 1.7263908, 49.6481928 ] } },
{ "type": "Feature", "properties": { "name": "1 rue de la Fraternité", "cmt": "Amenity::entertainment:public_bookcase", "type": "Boite à livre" }, "geometry": { "type": "Point", "coordinates": [ 2.9521197, 49.1598598 ] } },
{ "type": "Feature", "properties": { "name": "place de l'Eglise", "cmt": "Amenity::entertainment:public_bookcase", "desc": "livres de qualité  il y a des lecteurs qui aiment les beaux livres très certainement", "type": "Boite à livre" }, "geometry": { "type": "Point", "coordinates": [ -2.5908161, 47.7322799 ] } },
{ "type": "Feature", "properties": { "name": "Bord du halage", "cmt": "Amenity::entertainment:public_bookcase", "desc": "une boîte qui comporte beaucoup d anciens livres  la littérature Anglaise est aussi présente et quelques livres plus récents très intéressant", "type": "Boite à livre" }, "geometry": { "type": "Point", "coordinates": [ -2.383339, 47.810173 ] } },
{ "type": "Feature", "properties": { "name": "6 Rue Charles de Gaulle", "cmt": "Amenity::entertainment:public_bookcase", "desc": "Installée en Mai 2016  et récemment inaugurée avec le Réseau de médiathèques de la Communauté d'agglomération Pau Pyrénées  notre boîte à lire est un outil d'échange et de liberté. Merci aux jeunes qui l'ont assemblée et décorée!", "type": "Boite à livre" }, "geometry": { "type": "Point", "coordinates": [ -0.390684, 43.2872525 ] } },
{ "type": "Feature", "properties": { "name": "Place des Arts", "cmt": "Amenity::entertainment:public_bookcase", "type": "Boite à livre" }, "geometry": { "type": "Point", "coordinates": [ 4.718821, 45.991471 ] } },
{ "type": "Feature", "properties": { "name": "19 rue Jean Jaurès", "cmt": "Amenity::entertainment:public_bookcase", "desc": "Tombereau à livres  face à la mairie et la bibliothèque.", "type": "Boite à livre" }, "geometry": { "type": "Point", "coordinates": [ 6.1053959, 49.2690049 ] } },
{ "type": "Feature", "properties": { "name": "100 avenue d'Alsace", "cmt": "Amenity::entertainment:public_bookcase", "type": "Boite à livre" }, "geometry": { "type": "Point", "coordinates": [ 7.3651811, 48.0699052 ] } },
{ "type": "Feature", "properties": { "name": "Place de la Mairie", "cmt": "Amenity::entertainment:public_bookcase", "desc": "Place de la mairie  à côté de l'église  dans un ancien parcmètre.", "type": "Boite à livre" }, "geometry": { "type": "Point", "coordinates": [ 0.3073971, 47.1369409 ] } },
{ "type": "Feature", "properties": { "name": "Square des Frères Rose", "cmt": "Amenity::entertainment:public_bookcase", "desc": "Square à l'angle du boulevard Victor Hugo et de la rue de la Paix. Avec en prime des bancs!", "type": "Boite à livre" }, "geometry": { "type": "Point", "coordinates": [ 2.046982, 48.929584 ] } },
{ "type": "Feature", "properties": { "name": "Square Marcel Halbout", "cmt": "Amenity::entertainment:public_bookcase", "type": "Boite à livre" }, "geometry": { "type": "Point", "coordinates": [ 1.1079124, 49.4430656 ] } },
{ "type": "Feature", "properties": { "name": "Leof. Posidonos 70", "cmt": "Amenity::entertainment:public_bookcase", "desc": "Boîte à livres installée par la municipalité de Glyfada en bord de plage  pour les habitants et les touristes.", "type": "Boite à livre" }, "geometry": { "type": "Point", "coordinates": [ 23.7409956, 37.8655817 ] } },
{ "type": "Feature", "properties": { "name": "Leof. Sofokli Venizelou ke Leof. Protopapa", "cmt": "Amenity::entertainment:public_bookcase", "desc": "Boîte à livres gérée par la municipalité d'Iliopouli à Athènes. Installée devant la mairie  elle est accessible 24h\/24.", "type": "Boite à livre" }, "geometry": { "type": "Point", "coordinates": [ 23.7587431, 37.9329575 ] } },
{ "type": "Feature", "properties": { "name": "310 Rue Jean Marie Vianney", "cmt": "Amenity::entertainment:public_bookcase", "desc": "Elle est toute bleue  toute belle.", "type": "Boite à livre" }, "geometry": { "type": "Point", "coordinates": [ 4.8211194, 45.9934835 ] } },
{ "type": "Feature", "properties": { "name": "124 Avenue Gustave Eiffel", "cmt": "Amenity::entertainment:public_bookcase", "desc": "Elle se situe à l'entrée du jardin du Château de Larrey. En bois  il y a pas mal de flux entrant et sortant.", "type": "Boite à livre" }, "geometry": { "type": "Point", "coordinates": [ 5.0134912, 47.3135244 ] } },
{ "type": "Feature", "properties": { "name": "Place de l'église", "cmt": "Amenity::entertainment:public_bookcase", "desc": "Une grande boite à lire avec de nombreux livres pour tous les amateurs de lecture.", "type": "Boite à livre" }, "geometry": { "type": "Point", "coordinates": [ 2.2220228, 47.2598471 ] } },
{ "type": "Feature", "properties": { "name": "Skyros", "cmt": "Amenity::entertainment:public_bookcase", "desc": "Sur le port  à l arrivée des bateaux de plaisance  on y trouve des livres dans toutes les langues.", "type": "Boite à livre" }, "geometry": { "type": "Point", "coordinates": [ 24.5382951, 38.8428128 ] } },
{ "type": "Feature", "properties": { "name": "Aggelochori", "cmt": "Amenity::entertainment:public_bookcase", "desc": "Initiative d'un habitant du village d'Aggelochori amoureux des livres  elle est en place depuis deux ans.", "type": "Boite à livre" }, "geometry": { "type": "Point", "coordinates": [ 22.834533, 40.4975568 ] } },
{ "type": "Feature", "properties": { "name": "Navarhou Votsi", "cmt": "Amenity::entertainment:public_bookcase", "desc": "Installée en 2015  l'intérieur est tapissé d'étagères. Il faut passer dessous et mettre sa tête directement dans la boîte pour avoir accès aux livres.", "type": "Boite à livre" }, "geometry": { "type": "Point", "coordinates": [ 22.9360786, 40.6331882 ] } },
{ "type": "Feature", "properties": { "name": "Avenue Vouliagmeni 276", "cmt": "Amenity::entertainment:public_bookcase", "desc": "Dans la station de métro Agios Dimitrios  en face du point de vente des titres de transport.", "type": "Boite à livre" }, "geometry": { "type": "Point", "coordinates": [ 23.7403763, 37.9408412 ] } },
{ "type": "Feature", "properties": { "name": "rue Pierre Audat", "cmt": "Amenity::entertainment:public_bookcase", "type": "Boite à livre" }, "geometry": { "type": "Point", "coordinates": [ 2.545226, 48.959629 ] } },
{ "type": "Feature", "properties": { "name": "Place Georges Clémenceau", "cmt": "Amenity::entertainment:public_bookcase", "desc": "Cabane à livres  aménagée dans une ancienne cabine téléphonique", "type": "Boite à livre" }, "geometry": { "type": "Point", "coordinates": [ 6.2760037, 43.5841513 ] } },
{ "type": "Feature", "properties": { "name": "Place Benedict Tessier", "cmt": "Amenity::entertainment:public_bookcase", "desc": "Boite à lire située à l'angle de la Place Benedict Tessier.", "type": "Boite à livre" }, "geometry": { "type": "Point", "coordinates": [ 4.7975989, 45.7558487 ] } },
{ "type": "Feature", "properties": { "name": "95 rue grand rue", "cmt": "Amenity::entertainment:public_bookcase", "desc": "Dans la pizzeria La Tour de Pizz...a", "type": "Boite à livre" }, "geometry": { "type": "Point", "coordinates": [ -0.3058945, 43.8925543 ] } },
{ "type": "Feature", "properties": { "name": "155 Rue Carreterie", "cmt": "Amenity::entertainment:public_bookcase", "desc": "Petite bibliothèque extérieure de la librairie  Camili BOOKS et TEA anglophone en accès libre. Attention  les livres de cette boite à lire sont donc tous en anglais! Un petit panneau indique qu'il est demandé de laisser un livre sur place lorsqu'on en emprunte un.", "type": "Boite à livre" }, "geometry": { "type": "Point", "coordinates": [ 4.8170408, 43.9516506 ] } },
{ "type": "Feature", "properties": { "name": "Grande Rue", "cmt": "Amenity::entertainment:public_bookcase", "type": "Boite à livre" }, "geometry": { "type": "Point", "coordinates": [ 5.3220658, 45.1542513 ] } },
{ "type": "Feature", "properties": { "name": "38 rue de l'église", "cmt": "Amenity::entertainment:public_bookcase", "desc": "Elle est orange vous ne pouvez pas la louper.", "type": "Boite à livre" }, "geometry": { "type": "Point", "coordinates": [ -3.1293679, 47.5199532 ] } },
{ "type": "Feature", "properties": { "name": "5 rue yves de pont sal", "cmt": "Amenity::entertainment:public_bookcase", "desc": "boite aux lettres situées près du plan de la commune", "type": "Boite à livre" }, "geometry": { "type": "Point", "coordinates": [ -2.9173213, 47.6533707 ] } },
{ "type": "Feature", "properties": { "name": "Route de Muret", "cmt": "Amenity::entertainment:public_bookcase", "desc": "La boite se situe au niveau du rond-point du magasin Lidl. Boîte installée par la mairie. Sculpture d'un homme papillon", "type": "Boite à livre" }, "geometry": { "type": "Point", "coordinates": [ 1.2167937, 43.5116463 ] } },
{ "type": "Feature", "properties": { "name": "rue de l'église", "cmt": "Amenity::entertainment:public_bookcase", "desc": "Derrière l église Sculpture de St-Julien", "type": "Boite à livre" }, "geometry": { "type": "Point", "coordinates": [ 1.1780518, 43.5144758 ] } },
{ "type": "Feature", "properties": { "name": "Ul Nikole Tesle", "cmt": "Amenity::entertainment:public_bookcase", "type": "Boite à livre" }, "geometry": { "type": "Point", "coordinates": [ 13.5994697, 45.2313417 ] } },
{ "type": "Feature", "properties": { "name": "22 rue des fontaines", "cmt": "Amenity::entertainment:public_bookcase", "desc": "La boîte à lire voyageurs de l'atelier-galerie.", "type": "Boite à livre" }, "geometry": { "type": "Point", "coordinates": [ 4.9809457, 44.4432575 ] } },
{ "type": "Feature", "properties": { "name": "lotissement du Gambaud", "cmt": "Amenity::entertainment:public_bookcase", "desc": "Micro-bibliothèque très sympa dans une rue toute en dos-d âne.", "type": "Boite à livre" }, "geometry": { "type": "Point", "coordinates": [ 5.1913124, 45.7321871 ] } },
{ "type": "Feature", "properties": { "name": "Route de Nantes", "cmt": "Amenity::entertainment:public_bookcase", "desc": "Elle est à côté de l'église.", "type": "Boite à livre" }, "geometry": { "type": "Point", "coordinates": [ -2.2986129, 47.517753 ] } },
{ "type": "Feature", "properties": { "name": "Rue des Hauts Varengs", "cmt": "Amenity::entertainment:public_bookcase", "desc": "Elle se trouve à côté du centre social Le Totem.", "type": "Boite à livre" }, "geometry": { "type": "Point", "coordinates": [ -1.6668157, 49.6423355 ] } },
{ "type": "Feature", "properties": { "name": "6 Grande-rue", "cmt": "Amenity::entertainment:public_bookcase", "desc": "Boîte à lire devant la Mairie  dans une ancienne cabine téléphonique  projet initié par la Mairie.", "type": "Boite à livre" }, "geometry": { "type": "Point", "coordinates": [ 0.508143, 49.1491568 ] } },
{ "type": "Feature", "properties": { "name": "17 rue Dr Hutinel", "cmt": "Amenity::entertainment:public_bookcase", "desc": "Deux boites à lire : une dans un service de la mairie et une  sous forme de valise  dans la bibliothèque.", "type": "Boite à livre" }, "geometry": { "type": "Point", "coordinates": [ 2.7354598, 48.740261 ] } },
{ "type": "Feature", "properties": { "name": "Rue des Marcs d'Or", "cmt": "Amenity::entertainment:public_bookcase", "desc": "Au niveau de l'esplanade des marcs d'ors. La boite est ccrochée à son arbre  à l'intersection rue de bel air \/ rue des marcs d'or.", "type": "Boite à livre" }, "geometry": { "type": "Point", "coordinates": [ 4.999643, 47.317272 ] } },
{ "type": "Feature", "properties": { "name": "rue de soultz", "cmt": "Amenity::entertainment:public_bookcase", "desc": "Boîte à lire rouge  parking à côté  très bon roulement", "type": "Boite à livre" }, "geometry": { "type": "Point", "coordinates": [ 7.2589519, 47.8607026 ] } },
{ "type": "Feature", "properties": { "name": "Rue Ferdinand Mercusot", "cmt": "Amenity::entertainment:public_bookcase", "desc": "À la mairie", "type": "Boite à livre" }, "geometry": { "type": "Point", "coordinates": [ 4.7090308, 47.3083211 ] } },
{ "type": "Feature", "properties": { "name": "Rue Marie Noel", "cmt": "Amenity::entertainment:public_bookcase", "desc": "Une boîte rose pour partager ses lectures!", "type": "Boite à livre" }, "geometry": { "type": "Point", "coordinates": [ -1.1893302, 47.3794043 ] } },
{ "type": "Feature", "properties": { "name": "Boulevard Padioleau", "cmt": "Amenity::entertainment:public_bookcase", "desc": "Très jolie boîte à lire à deux faces identiques  fabriquée par une personne qui créé des jeux en bois. Assortie au Burger-glacier La cuisine d Apolline juste à côté. Face à l'Estuaire et Saint Nazaire.", "type": "Boite à livre" }, "geometry": { "type": "Point", "coordinates": [ -2.169577, 47.247038 ] } },
{ "type": "Feature", "properties": { "name": "75 Rue du Lieutenant Dagorno", "cmt": "Amenity::entertainment:public_bookcase", "desc": "Nouvelle boite à lire ! Elle se trouve juste devant la bibliothèque.", "type": "Boite à livre" }, "geometry": { "type": "Point", "coordinates": [ 2.5338266, 48.7202579 ] } },
{ "type": "Feature", "properties": { "name": "allées de morlàas", "cmt": "Amenity::entertainment:public_bookcase", "desc": "Boite à lire toujours pleine", "type": "Boite à livre" }, "geometry": { "type": "Point", "coordinates": [ -0.3453781, 43.3057891 ] } },
{ "type": "Feature", "properties": { "name": "81 Avenue du Loup,", "cmt": "Amenity::entertainment:public_bookcase", "desc": "Boite à lire située à l'intérieur de la MJC", "type": "Boite à livre" }, "geometry": { "type": "Point", "coordinates": [ -0.3551021, 43.3150754 ] } },
{ "type": "Feature", "properties": { "name": "Rue Sur la Campagne", "cmt": "Amenity::entertainment:public_bookcase", "desc": "Devant la maison", "type": "Boite à livre" }, "geometry": { "type": "Point", "coordinates": [ -1.0650642, 48.2072076 ] } },
{ "type": "Feature", "properties": { "name": "4 rue Levidou", "cmt": "Amenity::entertainment:public_bookcase", "desc": "Sur le trottoir en face de la boulangerie Paul.", "type": "Boite à livre" }, "geometry": { "type": "Point", "coordinates": [ 23.8136596, 38.0723678 ] } },
{ "type": "Feature", "properties": { "name": "Allée Anna de Noailles", "cmt": "Amenity::entertainment:public_bookcase", "desc": "Parc Beaumont  devant le kiosque à musique", "type": "Boite à livre" }, "geometry": { "type": "Point", "coordinates": [ -0.360599, 43.2949129 ] } },
{ "type": "Feature", "properties": { "name": "rue de la Ferme aux Fées", "cmt": "Amenity::entertainment:public_bookcase", "desc": "Quartier paul doumerPassez la place verdun  et la caserne  passez le coin de la croix-rouge  la boite à lire est au fond de la rue  devant un immeuble...", "type": "Boite à livre" }, "geometry": { "type": "Point", "coordinates": [ -0.3465971, 43.3192848 ] } },
{ "type": "Feature", "properties": { "name": "5 rue de la source", "cmt": "Amenity::entertainment:public_bookcase", "desc": "Little Free Library", "type": "Boite à livre" }, "geometry": { "type": "Point", "coordinates": [ -1.5893876, 47.251556 ] } },
{ "type": "Feature", "properties": { "name": "quai robert surcouf", "cmt": "Amenity::entertainment:public_bookcase", "desc": "près du café du port", "type": "Boite à livre" }, "geometry": { "type": "Point", "coordinates": [ -1.5783107, 47.1947916 ] } },
{ "type": "Feature", "properties": { "name": "389 Route D Andres", "cmt": "Amenity::entertainment:public_bookcase", "desc": "Vieille cabine téléphonique transformée en Cabine à livres juste à côté de la poste aux Attaques.", "type": "Boite à livre" }, "geometry": { "type": "Point", "coordinates": [ 1.9319716, 50.9048426 ] } },
{ "type": "Feature", "properties": { "name": "Kerouriec", "cmt": "Amenity::entertainment:public_bookcase", "desc": "Fabriquée dans un vieux frigo  elle est fixée au mur d'une maison. Quand on va vers la plage  après l'élevage de chèvres il faut tourner à droite dans un petit village. La boite est un peu plus loin sur la droite.", "type": "Boite à livre" }, "geometry": { "type": "Point", "coordinates": [ -3.178009, 47.6303447 ] } },
{ "type": "Feature", "properties": { "name": "17 Promenade du Belvédère", "cmt": "Amenity::entertainment:public_bookcase", "desc": "Boite a lire dans la boulangerie La Fournée de Torcy", "type": "Boite à livre" }, "geometry": { "type": "Point", "coordinates": [ 2.6534094, 48.8405438 ] } },
{ "type": "Feature", "properties": { "name": "Ruelle de Chora", "cmt": "Amenity::entertainment:public_bookcase", "desc": "Initiative de l association Kimolites.", "type": "Boite à livre" }, "geometry": { "type": "Point", "coordinates": [ 24.5596228, 36.8172871 ] } },
{ "type": "Feature", "properties": { "name": "Etang de la Guette", "cmt": "Amenity::entertainment:public_bookcase", "desc": "Boite à livres mise en place par les bénévoles de la bibliothèque de St Nicolas du Tertre", "type": "Boite à livre" }, "geometry": { "type": "Point", "coordinates": [ -2.220603, 47.802741 ] } },
{ "type": "Feature", "properties": { "name": "14 rue neuve", "cmt": "Amenity::entertainment:public_bookcase", "desc": "Il y a deux boites à lire sur cette commune. Une autre se situe au 162 rue du 4 septembtre", "type": "Boite à livre" }, "geometry": { "type": "Point", "coordinates": [ 2.7829752, 48.4095998 ] } },
{ "type": "Feature", "properties": { "name": "45 avenue du gnéral de gaulle", "cmt": "Amenity::entertainment:public_bookcase", "desc": "Une grande boite a livre dans le petit parc à coté de la mairie  une autre plus petite disponible dans le parc à coté de l église.", "type": "Boite à livre" }, "geometry": { "type": "Point", "coordinates": [ 2.6717658, 48.7614876 ] } },
{ "type": "Feature", "properties": { "name": "Avenue de la Gare", "cmt": "Amenity::entertainment:public_bookcase", "desc": "Vers l'accès aux trains", "type": "Boite à livre" }, "geometry": { "type": "Point", "coordinates": [ 1.5906997, 48.5426521 ] } },
{ "type": "Feature", "properties": { "name": "46 rue montorgueil", "cmt": "Amenity::entertainment:public_bookcase", "desc": "Centre Cerise", "type": "Boite à livre" }, "geometry": { "type": "Point", "coordinates": [ 2.3467916, 48.8646148 ] } },
{ "type": "Feature", "properties": { "name": "Place de l Eglise", "cmt": "Amenity::entertainment:public_bookcase", "desc": "Très bien situé avec un banc pour savourer les livres...", "type": "Boite à livre" }, "geometry": { "type": "Point", "coordinates": [ 1.392492, 45.805532 ] } },
{ "type": "Feature", "properties": { "name": "Île de Frioul", "cmt": "Amenity::entertainment:public_bookcase", "type": "Boite à livre" }, "geometry": { "type": "Point", "coordinates": [ 5.304357, 43.275017 ] } },
{ "type": "Feature", "properties": { "name": "Place du Maréchal Joffre", "cmt": "Amenity::entertainment:public_bookcase", "desc": "Boîte à lire rouge  installée dans le petit parc de la place du Maréchal Joffre", "type": "Boite à livre" }, "geometry": { "type": "Point", "coordinates": [ 2.30347, 49.8879383 ] } },
{ "type": "Feature", "properties": { "name": "Parc de la Mairie", "cmt": "Amenity::entertainment:public_bookcase", "desc": "Boite à lire installée par la mairie", "type": "Boite à livre" }, "geometry": { "type": "Point", "coordinates": [ 4.449389, 45.490467 ] } },
{ "type": "Feature", "properties": { "name": "Parc de Fraisse", "cmt": "Amenity::entertainment:public_bookcase", "desc": "Boite à lire installée par la mairie", "type": "Boite à livre" }, "geometry": { "type": "Point", "coordinates": [ 4.449389, 45.490467 ] } },
{ "type": "Feature", "properties": { "name": "Place du Château", "cmt": "Amenity::entertainment:public_bookcase", "desc": "La boite à lire se trouve en face du château  à côté d un restaurant", "type": "Boite à livre" }, "geometry": { "type": "Point", "coordinates": [ 1.569415, 48.619039 ] } },
{ "type": "Feature", "properties": { "name": "Place des Halles", "cmt": "Amenity::entertainment:public_bookcase", "desc": "A côté de l arrêt de bus 114", "type": "Boite à livre" }, "geometry": { "type": "Point", "coordinates": [ 4.817008, 46.178189 ] } },
{ "type": "Feature", "properties": { "name": "Place de l arrivée", "cmt": "Amenity::entertainment:public_bookcase", "desc": "Un totem lecture derrière la gare  à côté de l aire de jeu pour les enfants", "type": "Boite à livre" }, "geometry": { "type": "Point", "coordinates": [ 2.5067596, 48.699807 ] } },
{ "type": "Feature", "properties": { "name": "Rue du Général Leclerc", "cmt": "Amenity::entertainment:public_bookcase", "desc": "Devant la mairie annexe de Flers-Bourg", "type": "Boite à livre" }, "geometry": { "type": "Point", "coordinates": [ 3.127397, 50.637707 ] } },
{ "type": "Feature", "properties": { "name": "Rue de la république", "cmt": "Amenity::entertainment:public_bookcase", "desc": "Boite a lire en face de la mairie derrière le manège régulièrement remplie très sympathique.", "type": "Boite à livre" }, "geometry": { "type": "Point", "coordinates": [ 7.2052444, 47.9138961 ] } },
{ "type": "Feature", "properties": { "name": "24 rue jacques Prevert", "cmt": "Amenity::entertainment:public_bookcase", "desc": "Boîte située au niveau de l'aire de jeu de l'ecole ouverte de Belbex", "type": "Boite à livre" }, "geometry": { "type": "Point", "coordinates": [ 2.4210914, 44.9156967 ] } },
{ "type": "Feature", "properties": { "name": "95 Avenue de la République", "cmt": "Amenity::entertainment:public_bookcase", "desc": "Boite a lire située sur le trottoir  au niveau de l école Paul Doumer", "type": "Boite à livre" }, "geometry": { "type": "Point", "coordinates": [ 2.4370267, 44.9229676 ] } },
{ "type": "Feature", "properties": { "name": "7 Place Jacques de Beaune", "cmt": "Amenity::entertainment:public_bookcase", "desc": "La boite se situe dans la cour de la Mairie !", "type": "Boite à livre" }, "geometry": { "type": "Point", "coordinates": [ 0.5810005, 47.4996931 ] } },
{ "type": "Feature", "properties": { "name": "Rue de Jolivet", "cmt": "Amenity::entertainment:public_bookcase", "desc": "Boîte à lire située à la moitié de la rue.", "type": "Boite à livre" }, "geometry": { "type": "Point", "coordinates": [ 0.4826197, 47.2280546 ] } },
{ "type": "Feature", "properties": { "name": "Place de l'église", "cmt": "Amenity::entertainment:public_bookcase", "desc": "Une boite à lire à l'initiative du réseau des bibliothèques pour partager le plaisir de la lecture. N'hésitez pas c'est en livre-échange ! Lisez  gardez  offrez   redéposez !", "type": "Boite à livre" }, "geometry": { "type": "Point", "coordinates": [ -1.512774, 48.39858 ] } },
{ "type": "Feature", "properties": { "name": "429 route du chef lieu", "cmt": "Amenity::entertainment:public_bookcase", "desc": "www.grainededahu.fr", "type": "Boite à livre" }, "geometry": { "type": "Point", "coordinates": [ 5.9821613, 46.0238494 ] } },
{ "type": "Feature", "properties": { "name": "Avenue Amiral Courbet", "cmt": "Amenity::entertainment:public_bookcase", "desc": "Boite à lire mise en place par le réseau des médiathèques du Pays né de la Mer", "type": "Boite à livre" }, "geometry": { "type": "Point", "coordinates": [ -1.3064084, 46.3319914 ] } },
{ "type": "Feature", "properties": { "name": "Parc d Argentré", "cmt": "Amenity::entertainment:public_bookcase", "desc": "La Boîte à Livres est située au c?ur des jardins du Palais d'Argentré  endroit propice à la lecture... Vous y trouverez des romans  des magazines  des BD pour les enfants mais aussi plus les plus grands ! Partager  découvrir et surtout LIRE sont les maîtres-mots de cette aventure !", "type": "Boite à livre" }, "geometry": { "type": "Point", "coordinates": [ 0.172625, 48.605919 ] } },
{ "type": "Feature", "properties": { "name": "9 Avenue Amédée Hesse", "cmt": "Amenity::entertainment:public_bookcase", "desc": "A l'extérieur de la piscine communale", "type": "Boite à livre" }, "geometry": { "type": "Point", "coordinates": [ 5.8829733, 50.4982524 ] } },
{ "type": "Feature", "properties": { "name": "Bordé Blanque", "cmt": "Amenity::entertainment:public_bookcase", "desc": "La boite est adossée à la salle des fêtes du village  près des jeux d enfants et de l'école.", "type": "Boite à livre" }, "geometry": { "type": "Point", "coordinates": [ 1.7206831, 43.7344508 ] } },