
{
    "type": "FeatureCollection",
    "generator": "JOSM",
    "features": [
        {
            "type": "Feature",
            "properties": {
                "name": "Beauchastel",
                "icon": "16",
                "id": "16078"
            },
            "geometry": {
                "type": "Point",
                "coordinates": [
                    4.80849000000,
                    44.83287000000
                ]
            }
        },
        {
            "type": "Feature",
            "properties": {
                "name": "Clermont-Ferrand",
                "icon": "83",
                "id": "1965"
            },
            "geometry": {
                "type": "Point",
                "coordinates": [
                    3.07943000000,
                    45.76836000000
                ]
            }
        },
        {
            "type": "Feature",
            "properties": {
                "id": "2489",
                "icon": "89",
                "name": "Villefranche-sur-Saône"
            },
            "geometry": {
                "type": "Point",
                "coordinates": [
                    4.71693000000,
                    45.98826000000
                ]
            }
        },
        {
            "type": "Feature",
            "properties": {
                "id": "13793",
                "name": "Balan",
                "icon": "11"
            },
            "geometry": {
                "type": "Point",
                "coordinates": [
                    5.09675000000,
                    45.83341000000
                ]
            }
        },
        {
            "type": "Feature",
            "properties": {
                "icon": "94",
                "id": "196",
                "name": "Annecy"
            },
            "geometry": {
                "type": "Point",
                "coordinates": [
                    6.11175000000,
                    45.89316000000
                ]
            }
        },
        {
            "type": "Feature",
            "properties": {
                "id": "14855",
                "icon": "11",
                "name": "Aranc"
            },
            "geometry": {
                "type": "Point",
                "coordinates": [
                    5.50837000000,
                    46.00362000000
                ]
            }
        },
        {
            "type": "Feature",
            "properties": {
                "name": "Miribel",
                "icon": "11",
                "id": "9897"
            },
            "geometry": {
                "type": "Point",
                "coordinates": [
                    4.95331000000,
                    45.82488000000
                ]
            }
        },
        {
            "type": "Feature",
            "properties": {
                "id": "12795",
                "icon": "94",
                "name": "Annecy"
            },
            "geometry": {
                "type": "Point",
                "coordinates": [
                    6.09813000000,
                    45.91874000000
                ]
            }
        },
        {
            "type": "Feature",
            "properties": {
                "id": "7257",
                "icon": "13",
                "name": "Néris-les-Bains"
            },
            "geometry": {
                "type": "Point",
                "coordinates": [
                    2.65767000000,
                    46.28801000000
                ]
            }
        },
        {
            "type": "Feature",
            "properties": {
                "icon": "93",
                "name": "Saint-Jean-de-Maurienne",
                "id": "8767"
            },
            "geometry": {
                "type": "Point",
                "coordinates": [
                    6.35297000000,
                    45.27101000000
                ]
            }
        },
        {
            "type": "Feature",
            "properties": {
                "id": "11996",
                "icon": "89",
                "name": "Craponne"
            },
            "geometry": {
                "type": "Point",
                "coordinates": [
                    4.72305000000,
                    45.74317000000
                ]
            }
        },
        {
            "type": "Feature",
            "properties": {
                "icon": "52",
                "name": "Andrézieux-Bouthéon",
                "id": "4960"
            },
            "geometry": {
                "type": "Point",
                "coordinates": [
                    4.25740000000,
                    45.52454000000
                ]
            }
        },
        {
            "type": "Feature",
            "properties": {
                "id": "8615",
                "icon": "48",
                "name": "La Tronche"
            },
            "geometry": {
                "type": "Point",
                "coordinates": [
                    5.75080000000,
                    45.20067000000
                ]
            }
        },
        {
            "type": "Feature",
            "properties": {
                "name": "Irigny",
                "id": "2399",
                "icon": "89"
            },
            "geometry": {
                "type": "Point",
                "coordinates": [
                    4.82394000000,
                    45.67298000000
                ]
            }
        },
        {
            "type": "Feature",
            "properties": {
                "icon": "94",
                "id": "2737",
                "name": "Pringy"
            },
            "geometry": {
                "type": "Point",
                "coordinates": [
                    6.08899000000,
                    45.96712000000
                ]
            }
        },
        {
            "type": "Feature",
            "properties": {
                "icon": "53",
                "name": "Alleyras",
                "id": "14493"
            },
            "geometry": {
                "type": "Point",
                "coordinates": [
                    3.68172000000,
                    44.90695000000
                ]
            }
        },
        {
            "type": "Feature",
            "properties": {
                "id": "8452",
                "icon": "94",
                "name": "Faverges-Seythenex"
            },
            "geometry": {
                "type": "Point",
                "coordinates": [
                    6.29439000000,
                    45.74654000000
                ]
            }
        },
        {
            "type": "Feature",
            "properties": {
                "icon": "53",
                "id": "17859",
                "name": "Brives-Charensac"
            },
            "geometry": {
                "type": "Point",
                "coordinates": [
                    3.92524000000,
                    45.04780000000
                ]
            }
        },
        {
            "type": "Feature",
            "properties": {
                "name": "Lyon",
                "id": "2458",
                "icon": "89"
            },
            "geometry": {
                "type": "Point",
                "coordinates": [
                    4.81666000000,
                    45.75581000000
                ]
            }
        },
        {
            "type": "Feature",
            "properties": {
                "id": "13345",
                "icon": "94",
                "name": "Beaumont (74)"
            },
            "geometry": {
                "type": "Point",
                "coordinates": [
                    6.10152000000,
                    46.09441000000
                ]
            }
        },
        {
            "type": "Feature",
            "properties": {
                "icon": "94",
                "name": "Sallanches",
                "id": "16676"
            },
            "geometry": {
                "type": "Point",
                "coordinates": [
                    6.64017000000,
                    45.93257000000
                ]
            }
        },
        {
            "type": "Feature",
            "properties": {
                "icon": "94",
                "name": "Annecy",
                "id": "8987"
            },
            "geometry": {
                "type": "Point",
                "coordinates": [
                    6.13118000000,
                    45.91795000000
                ]
            }
        },
        {
            "type": "Feature",
            "properties": {
                "id": "12181",
                "icon": "13",
                "name": "Saint-Pourçain-sur-Sioule"
            },
            "geometry": {
                "type": "Point",
                "coordinates": [
                    3.29380000000,
                    46.30835000000
                ]
            }
        },
        {
            "type": "Feature",
            "properties": {
                "id": "15699",
                "icon": "48",
                "name": "Meyrié"
            },
            "geometry": {
                "type": "Point",
                "coordinates": [
                    5.28635000000,
                    45.55871000000
                ]
            }
        },
        {
            "type": "Feature",
            "properties": {
                "id": "8719",
                "name": "Saint-Priest",
                "icon": "89"
            },
            "geometry": {
                "type": "Point",
                "coordinates": [
                    4.94266000000,
                    45.69913000000
                ]
            }
        },
        {
            "type": "Feature",
            "properties": {
                "id": "11559",
                "name": "Vénosc",
                "icon": "48"
            },
            "geometry": {
                "type": "Point",
                "coordinates": [
                    6.12161000000,
                    44.98474000000
                ]
            }
        },
        {
            "type": "Feature",
            "properties": {
                "icon": "53",
                "name": "Aiguilhe",
                "id": "7677"
            },
            "geometry": {
                "type": "Point",
                "coordinates": [
                    3.88327000000,
                    45.04900000000
                ]
            }
        },
        {
            "type": "Feature",
            "properties": {
                "icon": "94",
                "name": "Messery",
                "id": "8501"
            },
            "geometry": {
                "type": "Point",
                "coordinates": [
                    6.29323000000,
                    46.35091000000
                ]
            }
        },
        {
            "type": "Feature",
            "properties": {
                "name": "Francheville",
                "id": "5274",
                "icon": "89"
            },
            "geometry": {
                "type": "Point",
                "coordinates": [
                    4.76950000000,
                    45.73960000000
                ]
            }
        },
        {
            "type": "Feature",
            "properties": {
                "name": "Sorbiers",
                "icon": "52",
                "id": "8018"
            },
            "geometry": {
                "type": "Point",
                "coordinates": [
                    4.43581000000,
                    45.48729000000
                ]
            }
        },
        {
            "type": "Feature",
            "properties": {
                "id": "16936",
                "name": "Albertville",
                "icon": "93"
            },
            "geometry": {
                "type": "Point",
                "coordinates": [
                    6.38030000000,
                    45.67519000000
                ]
            }
        },
        {
            "type": "Feature",
            "properties": {
                "name": "Lyon",
                "id": "2436",
                "icon": "89"
            },
            "geometry": {
                "type": "Point",
                "coordinates": [
                    4.84775000000,
                    45.75602000000
                ]
            }
        },
        {
            "type": "Feature",
            "properties": {
                "id": "4500",
                "icon": "11",
                "name": "Ambérieu-en-Bugey"
            },
            "geometry": {
                "type": "Point",
                "coordinates": [
                    5.35209000000,
                    45.97291000000
                ]
            }
        },
        {
            "type": "Feature",
            "properties": {
                "icon": "94",
                "name": "Vétraz-Monthoux",
                "id": "14822"
            },
            "geometry": {
                "type": "Point",
                "coordinates": [
                    6.25935000000,
                    46.17354000000
                ]
            }
        },
        {
            "type": "Feature",
            "properties": {
                "id": "262",
                "name": "Aurillac",
                "icon": "24"
            },
            "geometry": {
                "type": "Point",
                "coordinates": [
                    2.43664000000,
                    44.92325000000
                ]
            }
        },
        {
            "type": "Feature",
            "properties": {
                "icon": "93",
                "name": "La Giettaz",
                "id": "16189"
            },
            "geometry": {
                "type": "Point",
                "coordinates": [
                    6.52481000000,
                    45.87884000000
                ]
            }
        },
        {
            "type": "Feature",
            "properties": {
                "name": "La Bourboule",
                "id": "1963",
                "icon": "83"
            },
            "geometry": {
                "type": "Point",
                "coordinates": [
                    2.74387000000,
                    45.58887000000
                ]
            }
        },
        {
            "type": "Feature",
            "properties": {
                "name": "Grenoble",
                "icon": "48",
                "id": "2495"
            },
            "geometry": {
                "type": "Point",
                "coordinates": [
                    5.72083000000,
                    45.18292000000
                ]
            }
        },
        {
            "type": "Feature",
            "properties": {
                "name": "Poisy",
                "id": "14072",
                "icon": "94"
            },
            "geometry": {
                "type": "Point",
                "coordinates": [
                    6.06257000000,
                    45.92264000000
                ]
            }
        },
        {
            "type": "Feature",
            "properties": {
                "id": "15527",
                "name": "Banne",
                "icon": "16"
            },
            "geometry": {
                "type": "Point",
                "coordinates": [
                    4.15681000000,
                    44.35250000000
                ]
            }
        },
        {
            "type": "Feature",
            "properties": {
                "id": "9908",
                "icon": "94",
                "name": "Annecy"
            },
            "geometry": {
                "type": "Point",
                "coordinates": [
                    6.12675000000,
                    45.91481000000
                ]
            }
        },
        {
            "type": "Feature",
            "properties": {
                "icon": "94",
                "id": "12990",
                "name": "Groisy"
            },
            "geometry": {
                "type": "Point",
                "coordinates": [
                    6.16992000000,
                    46.00924000000
                ]
            }
        },
        {
            "type": "Feature",
            "properties": {
                "icon": "53",
                "name": "Le Puy-en-Velay",
                "id": "7399"
            },
            "geometry": {
                "type": "Point",
                "coordinates": [
                    3.88291000000,
                    45.03897000000
                ]
            }
        },
        {
            "type": "Feature",
            "properties": {
                "name": "Belley",
                "id": "8800",
                "icon": "11"
            },
            "geometry": {
                "type": "Point",
                "coordinates": [
                    5.68627000000,
                    45.75913000000
                ]
            }
        },
        {
            "type": "Feature",
            "properties": {
                "id": "12004",
                "name": "Mercury",
                "icon": "93"
            },
            "geometry": {
                "type": "Point",
                "coordinates": [
                    6.37562000000,
                    45.68087000000
                ]
            }
        },
        {
            "type": "Feature",
            "properties": {
                "name": "Saint-Fons",
                "id": "5052",
                "icon": "89"
            },
            "geometry": {
                "type": "Point",
                "coordinates": [
                    4.85495000000,
                    45.70840000000
                ]
            }
        },
        {
            "type": "Feature",
            "properties": {
                "name": "Moûtiers",
                "icon": "93",
                "id": "8676"
            },
            "geometry": {
                "type": "Point",
                "coordinates": [
                    6.52399000000,
                    45.48596000000
                ]
            }
        },
        {
            "type": "Feature",
            "properties": {
                "name": "Bourbon-l'Archambault",
                "icon": "13",
                "id": "4422"
            },
            "geometry": {
                "type": "Point",
                "coordinates": [
                    3.05226000000,
                    46.58256000000
                ]
            }
        },
        {
            "type": "Feature",
            "properties": {
                "name": "Saint-Marcel-l'Éclairé",
                "id": "14521",
                "icon": "89"
            },
            "geometry": {
                "type": "Point",
                "coordinates": [
                    4.43386000000,
                    45.87548000000
                ]
            }
        },
        {
            "type": "Feature",
            "properties": {
                "name": "Albertville",
                "icon": "93",
                "id": "8457"
            },
            "geometry": {
                "type": "Point",
                "coordinates": [
                    6.37857000000,
                    45.67416000000
                ]
            }
        },
        {
            "type": "Feature",
            "properties": {
                "icon": "94",
                "id": "17984",
                "name": "Montmin"
            },
            "geometry": {
                "type": "Point",
                "coordinates": [
                    6.26339000000,
                    45.80303000000
                ]
            }
        },
        {
            "type": "Feature",
            "properties": {
                "id": "2412",
                "name": "Sainte-Foy-lès-Lyon",
                "icon": "89"
            },
            "geometry": {
                "type": "Point",
                "coordinates": [
                    4.80367000000,
                    45.74103000000
                ]
            }
        },
        {
            "type": "Feature",
            "properties": {
                "id": "2483",
                "name": "Rillieux-la-Pape",
                "icon": "89"
            },
            "geometry": {
                "type": "Point",
                "coordinates": [
                    4.91115000000,
                    45.83361000000
                ]
            }
        },
        {
            "type": "Feature",
            "properties": {
                "icon": "93",
                "id": "13400",
                "name": "Bourg-Saint-Maurice"
            },
            "geometry": {
                "type": "Point",
                "coordinates": [
                    6.76952000000,
                    45.62173000000
                ]
            }
        },
        {
            "type": "Feature",
            "properties": {
                "icon": "94",
                "name": "Saint-Jorioz",
                "id": "16685"
            },
            "geometry": {
                "type": "Point",
                "coordinates": [
                    6.16591000000,
                    45.83402000000
                ]
            }
        },
        {
            "type": "Feature",
            "properties": {
                "id": "9748",
                "icon": "94",
                "name": "Val de Chaise"
            },
            "geometry": {
                "type": "Point",
                "coordinates": [
                    6.32745000000,
                    45.74901000000
                ]
            }
        },
        {
            "type": "Feature",
            "properties": {
                "id": "12433",
                "icon": "94",
                "name": "Archamps"
            },
            "geometry": {
                "type": "Point",
                "coordinates": [
                    6.13329000000,
                    46.13494000000
                ]
            }
        },
        {
            "type": "Feature",
            "properties": {
                "icon": "52",
                "id": "15969",
                "name": "Aveizieux"
            },
            "geometry": {
                "type": "Point",
                "coordinates": [
                    4.37045000000,
                    45.56567000000
                ]
            }
        },
        {
            "type": "Feature",
            "properties": {
                "id": "8739",
                "name": "Feyzin",
                "icon": "89"
            },
            "geometry": {
                "type": "Point",
                "coordinates": [
                    4.85886000000,
                    45.67429000000
                ]
            }
        },
        {
            "type": "Feature",
            "properties": {
                "id": "11632",
                "name": "Droiturier",
                "icon": "13"
            },
            "geometry": {
                "type": "Point",
                "coordinates": [
                    3.71836000000,
                    46.23047000000
                ]
            }
        },
        {
            "type": "Feature",
            "properties": {
                "name": "Villeurbanne",
                "id": "7904",
                "icon": "89"
            },
            "geometry": {
                "type": "Point",
                "coordinates": [
                    4.86231000000,
                    45.77585000000
                ]
            }
        },
        {
            "type": "Feature",
            "properties": {
                "name": "Saint-Ferréol",
                "icon": "94",
                "id": "8513"
            },
            "geometry": {
                "type": "Point",
                "coordinates": [
                    6.30706000000,
                    45.76574000000
                ]
            }
        },
        {
            "type": "Feature",
            "properties": {
                "name": "Saint-Flour",
                "id": "5350",
                "icon": "24"
            },
            "geometry": {
                "type": "Point",
                "coordinates": [
                    3.10396000000,
                    45.03370000000
                ]
            }
        },
        {
            "type": "Feature",
            "properties": {
                "icon": "94",
                "id": "8543",
                "name": "Ambilly"
            },
            "geometry": {
                "type": "Point",
                "coordinates": [
                    6.22821000000,
                    46.19417000000
                ]
            }
        },
        {
            "type": "Feature",
            "properties": {
                "name": "Grenoble",
                "icon": "48",
                "id": "17233"
            },
            "geometry": {
                "type": "Point",
                "coordinates": [
                    5.73693000000,
                    45.19121000000
                ]
            }
        },
        {
            "type": "Feature",
            "properties": {
                "name": "Clermont-Ferrand",
                "id": "1972",
                "icon": "83"
            },
            "geometry": {
                "type": "Point",
                "coordinates": [
                    3.08704000000,
                    45.77730000000
                ]
            }
        },
        {
            "type": "Feature",
            "properties": {
                "name": "La Baume-de-Transit",
                "icon": "36",
                "id": "4566"
            },
            "geometry": {
                "type": "Point",
                "coordinates": [
                    4.86617000000,
                    44.33775000000
                ]
            }
        },
        {
            "type": "Feature",
            "properties": {
                "icon": "94",
                "id": "14820",
                "name": "Saint-Cergues"
            },
            "geometry": {
                "type": "Point",
                "coordinates": [
                    6.32182000000,
                    46.23535000000
                ]
            }
        },
        {
            "type": "Feature",
            "properties": {
                "name": "Aix-les-Bains",
                "icon": "93",
                "id": "8159"
            },
            "geometry": {
                "type": "Point",
                "coordinates": [
                    5.91493000000,
                    45.68797000000
                ]
            }
        },
        {
            "type": "Feature",
            "properties": {
                "icon": "83",
                "id": "16524",
                "name": "Beaumont"
            },
            "geometry": {
                "type": "Point",
                "coordinates": [
                    3.09621000000,
                    45.75253000000
                ]
            }
        },
        {
            "type": "Feature",
            "properties": {
                "name": "Lumbin",
                "id": "2715",
                "icon": "48"
            },
            "geometry": {
                "type": "Point",
                "coordinates": [
                    5.91309000000,
                    45.30639000000
                ]
            }
        },
        {
            "type": "Feature",
            "properties": {
                "name": "Taluyers",
                "id": "14200",
                "icon": "89"
            },
            "geometry": {
                "type": "Point",
                "coordinates": [
                    4.71629000000,
                    45.63972000000
                ]
            }
        },
        {
            "type": "Feature",
            "properties": {
                "name": "Aurillac",
                "id": "266",
                "icon": "24"
            },
            "geometry": {
                "type": "Point",
                "coordinates": [
                    2.42149000000,
                    44.91708000000
                ]
            }
        },
        {
            "type": "Feature",
            "properties": {
                "id": "15599",
                "icon": "24",
                "name": "Bassignac"
            },
            "geometry": {
                "type": "Point",
                "coordinates": [
                    2.38658000000,
                    45.29744000000
                ]
            }
        },
        {
            "type": "Feature",
            "properties": {
                "id": "8809",
                "icon": "11",
                "name": "Ornex"
            },
            "geometry": {
                "type": "Point",
                "coordinates": [
                    6.09777000000,
                    46.26700000000
                ]
            }
        },
        {
            "type": "Feature",
            "properties": {
                "id": "13083",
                "name": "Pérouges",
                "icon": "11"
            },
            "geometry": {
                "type": "Point",
                "coordinates": [
                    5.17667000000,
                    45.90456000000
                ]
            }
        },
        {
            "type": "Feature",
            "properties": {
                "icon": "53",
                "name": "Le Puy-en-Velay",
                "id": "7397"
            },
            "geometry": {
                "type": "Point",
                "coordinates": [
                    3.88949000000,
                    45.02251000000
                ]
            }
        },
        {
            "type": "Feature",
            "properties": {
                "id": "8683",
                "name": "Montferrat",
                "icon": "48"
            },
            "geometry": {
                "type": "Point",
                "coordinates": [
                    5.59213000000,
                    45.48970000000
                ]
            }
        },
        {
            "type": "Feature",
            "properties": {
                "name": "Anglards-de-Salers",
                "icon": "24",
                "id": "12187"
            },
            "geometry": {
                "type": "Point",
                "coordinates": [
                    2.43950000000,
                    45.20279000000
                ]
            }
        },
        {
            "type": "Feature",
            "properties": {
                "name": "Tassin-la-Demi-Lune",
                "id": "5053",
                "icon": "89"
            },
            "geometry": {
                "type": "Point",
                "coordinates": [
                    4.77949000000,
                    45.76562000000
                ]
            }
        },
        {
            "type": "Feature",
            "properties": {
                "name": "Sévrier",
                "icon": "94",
                "id": "8466"
            },
            "geometry": {
                "type": "Point",
                "coordinates": [
                    6.14174000000,
                    45.86361000000
                ]
            }
        },
        {
            "type": "Feature",
            "properties": {
                "id": "5262",
                "name": "Grenoble",
                "icon": "48"
            },
            "geometry": {
                "type": "Point",
                "coordinates": [
                    5.71947000000,
                    45.18879000000
                ]
            }
        },
        {
            "type": "Feature",
            "properties": {
                "icon": "53",
                "id": "14579",
                "name": "Araules"
            },
            "geometry": {
                "type": "Point",
                "coordinates": [
                    4.15969000000,
                    45.06317000000
                ]
            }
        },
        {
            "type": "Feature",
            "properties": {
                "name": "Villeurbanne",
                "id": "7906",
                "icon": "89"
            },
            "geometry": {
                "type": "Point",
                "coordinates": [
                    4.89999000000,
                    45.76599000000
                ]
            }
        },
        {
            "type": "Feature",
            "properties": {
                "id": "18066",
                "icon": "94",
                "name": "Sciez"
            },
            "geometry": {
                "type": "Point",
                "coordinates": [
                    6.38685000000,
                    46.32926000000
                ]
            }
        },
        {
            "type": "Feature",
            "properties": {
                "name": "Tassin-la-Demi-Lune",
                "id": "2418",
                "icon": "89"
            },
            "geometry": {
                "type": "Point",
                "coordinates": [
                    4.77527000000,
                    45.75791000000
                ]
            }
        },
        {
            "type": "Feature",
            "properties": {
                "name": "Cusset",
                "icon": "13",
                "id": "4454"
            },
            "geometry": {
                "type": "Point",
                "coordinates": [
                    3.44299000000,
                    46.13813000000
                ]
            }
        },
        {
            "type": "Feature",
            "properties": {
                "icon": "52",
                "id": "13660",
                "name": "Saint-Cyprien (Loire-Forez)"
            },
            "geometry": {
                "type": "Point",
                "coordinates": [
                    4.23491000000,
                    45.53650000000
                ]
            }
        },
        {
            "type": "Feature",
            "properties": {
                "name": "Albertville",
                "icon": "93",
                "id": "16845"
            },
            "geometry": {
                "type": "Point",
                "coordinates": [
                    6.39222000000,
                    45.67782000000
                ]
            }
        },
        {
            "type": "Feature",
            "properties": {
                "icon": "52",
                "name": "Riorges",
                "id": "1178"
            },
            "geometry": {
                "type": "Point",
                "coordinates": [
                    4.03522000000,
                    46.04338000000
                ]
            }
        },
        {
            "type": "Feature",
            "properties": {
                "id": "2479",
                "name": "Rillieux-la-Pape",
                "icon": "89"
            },
            "geometry": {
                "type": "Point",
                "coordinates": [
                    4.89637000000,
                    45.82506000000
                ]
            }
        },
        {
            "type": "Feature",
            "properties": {
                "icon": "94",
                "name": "Faverges-Seythenex",
                "id": "12760"
            },
            "geometry": {
                "type": "Point",
                "coordinates": [
                    6.29776000000,
                    45.75931000000
                ]
            }
        },
        {
            "type": "Feature",
            "properties": {
                "icon": "52",
                "name": "Saint-Jean-Saint-Maurice-sur-Loire",
                "id": "15066"
            },
            "geometry": {
                "type": "Point",
                "coordinates": [
                    4.00980000000,
                    45.96458000000
                ]
            }
        },
        {
            "type": "Feature",
            "properties": {
                "id": "9773",
                "name": "Tupin-et-Semons",
                "icon": "89"
            },
            "geometry": {
                "type": "Point",
                "coordinates": [
                    4.78925000000,
                    45.48337000000
                ]
            }
        },
        {
            "type": "Feature",
            "properties": {
                "id": "11720",
                "name": "Grenoble",
                "icon": "48"
            },
            "geometry": {
                "type": "Point",
                "coordinates": [
                    5.72844000000,
                    45.18649000000
                ]
            }
        },
        {
            "type": "Feature",
            "properties": {
                "id": "6228",
                "icon": "52",
                "name": "Pradines (42)"
            },
            "geometry": {
                "type": "Point",
                "coordinates": [
                    4.17562000000,
                    45.99822000000
                ]
            }
        },
        {
            "type": "Feature",
            "properties": {
                "icon": "93",
                "id": "8784",
                "name": "Pallud"
            },
            "geometry": {
                "type": "Point",
                "coordinates": [
                    6.39564000000,
                    45.68637000000
                ]
            }
        },
        {
            "type": "Feature",
            "properties": {
                "id": "4658",
                "icon": "83",
                "name": "Ennezat"
            },
            "geometry": {
                "type": "Point",
                "coordinates": [
                    3.22540000000,
                    45.89571000000
                ]
            }
        },
        {
            "type": "Feature",
            "properties": {
                "name": "Sassenage",
                "id": "8598",
                "icon": "48"
            },
            "geometry": {
                "type": "Point",
                "coordinates": [
                    5.66240000000,
                    45.20660000000
                ]
            }
        },
        {
            "type": "Feature",
            "properties": {
                "id": "2406",
                "name": "Irigny",
                "icon": "89"
            },
            "geometry": {
                "type": "Point",
                "coordinates": [
                    4.82155000000,
                    45.67062000000
                ]
            }
        },
        {
            "type": "Feature",
            "properties": {
                "name": "Annemasse",
                "icon": "94",
                "id": "2723"
            },
            "geometry": {
                "type": "Point",
                "coordinates": [
                    6.24307000000,
                    46.18584000000
                ]
            }
        },
        {
            "type": "Feature",
            "properties": {
                "id": "14826",
                "icon": "94",
                "name": "Ville-la-Grand"
            },
            "geometry": {
                "type": "Point",
                "coordinates": [
                    6.25571000000,
                    46.20820000000
                ]
            }
        },
        {
            "type": "Feature",
            "properties": {
                "name": "Lyon",
                "id": "8175",
                "icon": "89"
            },
            "geometry": {
                "type": "Point",
                "coordinates": [
                    4.85272000000,
                    45.76669000000
                ]
            }
        },
        {
            "type": "Feature",
            "properties": {
                "icon": "53",
                "id": "17350",
                "name": "Blesle"
            },
            "geometry": {
                "type": "Point",
                "coordinates": [
                    3.16877000000,
                    45.31845000000
                ]
            }
        },
        {
            "type": "Feature",
            "properties": {
                "name": "Lyon",
                "icon": "89",
                "id": "2464"
            },
            "geometry": {
                "type": "Point",
                "coordinates": [
                    4.84494000000,
                    45.75539000000
                ]
            }
        },
        {
            "type": "Feature",
            "properties": {
                "icon": "52",
                "name": "Ailleux",
                "id": "14399"
            },
            "geometry": {
                "type": "Point",
                "coordinates": [
                    3.94364000000,
                    45.80281000000
                ]
            }
        },
        {
            "type": "Feature",
            "properties": {
                "icon": "94",
                "name": "Sallanches",
                "id": "16670"
            },
            "geometry": {
                "type": "Point",
                "coordinates": [
                    6.62609000000,
                    45.93676000000
                ]
            }
        },
        {
            "type": "Feature",
            "properties": {
                "name": "Autrans-Méaudre en Vercors",
                "id": "8880",
                "icon": "48"
            },
            "geometry": {
                "type": "Point",
                "coordinates": [
                    5.54270000000,
                    45.17408000000
                ]
            }
        },
        {
            "type": "Feature",
            "properties": {
                "id": "12191",
                "icon": "24",
                "name": "Tournemire"
            },
            "geometry": {
                "type": "Point",
                "coordinates": [
                    2.48379000000,
                    45.05362000000
                ]
            }
        },
        {
            "type": "Feature",
            "properties": {
                "name": "Balazuc",
                "id": "15613",
                "icon": "16"
            },
            "geometry": {
                "type": "Point",
                "coordinates": [
                    4.37563000000,
                    44.50643000000
                ]
            }
        },
        {
            "type": "Feature",
            "properties": {
                "id": "8703",
                "name": "Belleville-en-Beaujolais",
                "icon": "89"
            },
            "geometry": {
                "type": "Point",
                "coordinates": [
                    4.73167000000,
                    46.11146000000
                ]
            }
        },
        {
            "type": "Feature",
            "properties": {
                "name": "Décines-Charpieu",
                "id": "11243",
                "icon": "89"
            },
            "geometry": {
                "type": "Point",
                "coordinates": [
                    4.96712000000,
                    45.77598000000
                ]
            }
        },
        {
            "type": "Feature",
            "properties": {
                "id": "7825",
                "icon": "48",
                "name": "Allevard"
            },
            "geometry": {
                "type": "Point",
                "coordinates": [
                    6.07099000000,
                    45.39395000000
                ]
            }
        },
        {
            "type": "Feature",
            "properties": {
                "icon": "94",
                "name": "Faverges-Seythenex",
                "id": "8497"
            },
            "geometry": {
                "type": "Point",
                "coordinates": [
                    6.29949000000,
                    45.72617000000
                ]
            }
        },
        {
            "type": "Feature",
            "properties": {
                "name": "Grenoble",
                "icon": "48",
                "id": "5268"
            },
            "geometry": {
                "type": "Point",
                "coordinates": [
                    5.70884000000,
                    45.18734000000
                ]
            }
        },
        {
            "type": "Feature",
            "properties": {
                "name": "Suze-la-Rousse",
                "id": "8103",
                "icon": "36"
            },
            "geometry": {
                "type": "Point",
                "coordinates": [
                    4.84069000000,
                    44.28860000000
                ]
            }
        },
        {
            "type": "Feature",
            "properties": {
                "icon": "93",
                "id": "16868",
                "name": "Saint-Jean-de-la-Porte"
            },
            "geometry": {
                "type": "Point",
                "coordinates": [
                    6.13316000000,
                    45.56689000000
                ]
            }
        },
        {
            "type": "Feature",
            "properties": {
                "name": "Lyon",
                "id": "2432",
                "icon": "89"
            },
            "geometry": {
                "type": "Point",
                "coordinates": [
                    4.83828000000,
                    45.74749000000
                ]
            }
        },
        {
            "type": "Feature",
            "properties": {
                "name": "Evosges",
                "id": "4490",
                "icon": "11"
            },
            "geometry": {
                "type": "Point",
                "coordinates": [
                    5.49976000000,
                    45.96065000000
                ]
            }
        },
        {
            "type": "Feature",
            "properties": {
                "id": "14801",
                "name": "Annemasse",
                "icon": "94"
            },
            "geometry": {
                "type": "Point",
                "coordinates": [
                    6.23148000000,
                    46.19323000000
                ]
            }
        },
        {
            "type": "Feature",
            "properties": {
                "icon": "94",
                "name": "Sallanches",
                "id": "16443"
            },
            "geometry": {
                "type": "Point",
                "coordinates": [
                    6.63190000000,
                    45.93560000000
                ]
            }
        },
        {
            "type": "Feature",
            "properties": {
                "name": "Clermont-Ferrand",
                "icon": "83",
                "id": "1970"
            },
            "geometry": {
                "type": "Point",
                "coordinates": [
                    3.08619000000,
                    45.77785000000
                ]
            }
        },
        {
            "type": "Feature",
            "properties": {
                "icon": "48",
                "name": "Méaudres",
                "id": "2493"
            },
            "geometry": {
                "type": "Point",
                "coordinates": [
                    5.52692000000,
                    45.12703000000
                ]
            }
        },
        {
            "type": "Feature",
            "properties": {
                "id": "13703",
                "name": "Menthon-Saint-Bernard",
                "icon": "94"
            },
            "geometry": {
                "type": "Point",
                "coordinates": [
                    6.20499000000,
                    45.86644000000
                ]
            }
        },
        {
            "type": "Feature",
            "properties": {
                "icon": "83",
                "id": "15447",
                "name": "Bagnols"
            },
            "geometry": {
                "type": "Point",
                "coordinates": [
                    2.63103000000,
                    45.50029000000
                ]
            }
        },
        {
            "type": "Feature",
            "properties": {
                "icon": "94",
                "name": "Dingy-Saint-Clair",
                "id": "10916"
            },
            "geometry": {
                "type": "Point",
                "coordinates": [
                    6.22130000000,
                    45.91052000000
                ]
            }
        },
        {
            "type": "Feature",
            "properties": {
                "icon": "53",
                "id": "12758",
                "name": "Saint-Julien-Chapteuil"
            },
            "geometry": {
                "type": "Point",
                "coordinates": [
                    4.06081000000,
                    45.03693000000
                ]
            }
        },
        {
            "type": "Feature",
            "properties": {
                "icon": "52",
                "id": "7108",
                "name": "Roanne"
            },
            "geometry": {
                "type": "Point",
                "coordinates": [
                    4.06432000000,
                    46.04101000000
                ]
            }
        },
        {
            "type": "Feature",
            "properties": {
                "name": "Lyon",
                "id": "8790",
                "icon": "89"
            },
            "geometry": {
                "type": "Point",
                "coordinates": [
                    4.86336000000,
                    45.74614000000
                ]
            }
        },
        {
            "type": "Feature",
            "properties": {
                "name": "Prades",
                "icon": "16",
                "id": "12056"
            },
            "geometry": {
                "type": "Point",
                "coordinates": [
                    4.31488000000,
                    44.63739000000
                ]
            }
        },
        {
            "type": "Feature",
            "properties": {
                "id": "4668",
                "icon": "52",
                "name": "Saint-Germain-Laval"
            },
            "geometry": {
                "type": "Point",
                "coordinates": [
                    4.01253000000,
                    45.83128000000
                ]
            }
        },
        {
            "type": "Feature",
            "properties": {
                "id": "8606",
                "name": "Saint-Eustache",
                "icon": "94"
            },
            "geometry": {
                "type": "Point",
                "coordinates": [
                    6.15794000000,
                    45.79945000000
                ]
            }
        },
        {
            "type": "Feature",
            "properties": {
                "id": "2403",
                "name": "Irigny",
                "icon": "89"
            },
            "geometry": {
                "type": "Point",
                "coordinates": [
                    4.82335000000,
                    45.68830000000
                ]
            }
        },
        {
            "type": "Feature",
            "properties": {
                "icon": "13",
                "id": "4444",
                "name": "Vichy"
            },
            "geometry": {
                "type": "Point",
                "coordinates": [
                    3.42421000000,
                    46.13017000000
                ]
            }
        },
        {
            "type": "Feature",
            "properties": {
                "id": "14428",
                "name": "Ambert",
                "icon": "83"
            },
            "geometry": {
                "type": "Point",
                "coordinates": [
                    3.74315000000,
                    45.54901000000
                ]
            }
        },
        {
            "type": "Feature",
            "properties": {
                "icon": "52",
                "name": "Saint-Galmier",
                "id": "8304"
            },
            "geometry": {
                "type": "Point",
                "coordinates": [
                    4.31465000000,
                    45.59093000000
                ]
            }
        },
        {
            "type": "Feature",
            "properties": {
                "id": "17690",
                "icon": "11",
                "name": "Ambérieu-en-Bugey"
            },
            "geometry": {
                "type": "Point",
                "coordinates": [
                    5.35799000000,
                    45.95964000000
                ]
            }
        },
        {
            "type": "Feature",
            "properties": {
                "name": "Lyon",
                "id": "2462",
                "icon": "89"
            },
            "geometry": {
                "type": "Point",
                "coordinates": [
                    4.81888000000,
                    45.75573000000
                ]
            }
        },
        {
            "type": "Feature",
            "properties": {
                "icon": "48",
                "id": "13431",
                "name": "Villette-d'Anthon"
            },
            "geometry": {
                "type": "Point",
                "coordinates": [
                    5.11989000000,
                    45.79560000000
                ]
            }
        },
        {
            "type": "Feature",
            "properties": {
                "id": "16680",
                "icon": "94",
                "name": "Vieugy"
            },
            "geometry": {
                "type": "Point",
                "coordinates": [
                    6.09051000000,
                    45.85442000000
                ]
            }
        },
        {
            "type": "Feature",
            "properties": {
                "name": "Lyon",
                "id": "8912",
                "icon": "89"
            },
            "geometry": {
                "type": "Point",
                "coordinates": [
                    4.83260000000,
                    45.77730000000
                ]
            }
        },
        {
            "type": "Feature",
            "properties": {
                "icon": "93",
                "id": "12391",
                "name": "Pallud"
            },
            "geometry": {
                "type": "Point",
                "coordinates": [
                    6.38748000000,
                    45.68396000000
                ]
            }
        },
        {
            "type": "Feature",
            "properties": {
                "id": "16037",
                "name": "Brignais",
                "icon": "89"
            },
            "geometry": {
                "type": "Point",
                "coordinates": [
                    4.76022000000,
                    45.67027000000
                ]
            }
        },
        {
            "type": "Feature",
            "properties": {
                "id": "8725",
                "icon": "93",
                "name": "Grésy-sur-Isère"
            },
            "geometry": {
                "type": "Point",
                "coordinates": [
                    6.25423000000,
                    45.60136000000
                ]
            }
        },
        {
            "type": "Feature",
            "properties": {
                "icon": "52",
                "id": "11381",
                "name": "Saint-Galmier"
            },
            "geometry": {
                "type": "Point",
                "coordinates": [
                    4.31837000000,
                    45.59044000000
                ]
            }
        },
        {
            "type": "Feature",
            "properties": {
                "id": "7823",
                "icon": "48",
                "name": "Allevard"
            },
            "geometry": {
                "type": "Point",
                "coordinates": [
                    6.07450000000,
                    45.39336000000
                ]
            }
        },
        {
            "type": "Feature",
            "properties": {
                "icon": "94",
                "id": "8533",
                "name": "Ambilly"
            },
            "geometry": {
                "type": "Point",
                "coordinates": [
                    6.22610000000,
                    46.19897000000
                ]
            }
        },
        {
            "type": "Feature",
            "properties": {
                "name": "Grenoble",
                "id": "5266",
                "icon": "48"
            },
            "geometry": {
                "type": "Point",
                "coordinates": [
                    5.72767000000,
                    45.19537000000
                ]
            }
        },
        {
            "type": "Feature",
            "properties": {
                "id": "8109",
                "icon": "93",
                "name": "Bulhon"
            },
            "geometry": {
                "type": "Point",
                "coordinates": [
                    3.38450000000,
                    45.89478000000
                ]
            }
        },
        {
            "type": "Feature",
            "properties": {
                "name": "Grenoble",
                "icon": "48",
                "id": "17275"
            },
            "geometry": {
                "type": "Point",
                "coordinates": [
                    5.73567000000,
                    45.18193000000
                ]
            }
        },
        {
            "type": "Feature",
            "properties": {
                "id": "2367",
                "name": "Issoire",
                "icon": "83"
            },
            "geometry": {
                "type": "Point",
                "coordinates": [
                    3.26275000000,
                    45.54857000000
                ]
            }
        },
        {
            "type": "Feature",
            "properties": {
                "name": "Hauteville-Lompnes",
                "id": "4488",
                "icon": "11"
            },
            "geometry": {
                "type": "Point",
                "coordinates": [
                    5.60150000000,
                    45.97778000000
                ]
            }
        },
        {
            "type": "Feature",
            "properties": {
                "icon": "94",
                "id": "14810",
                "name": "Bonne"
            },
            "geometry": {
                "type": "Point",
                "coordinates": [
                    6.30181000000,
                    46.15978000000
                ]
            }
        },
        {
            "type": "Feature",
            "properties": {
                "icon": "94",
                "name": "Combloux",
                "id": "16445"
            },
            "geometry": {
                "type": "Point",
                "coordinates": [
                    6.64374000000,
                    45.89643000000
                ]
            }
        },
        {
            "type": "Feature",
            "properties": {
                "id": "2721",
                "name": "Brenod",
                "icon": "11"
            },
            "geometry": {
                "type": "Point",
                "coordinates": [
                    5.60559000000,
                    46.05950000000
                ]
            }
        },
        {
            "type": "Feature",
            "properties": {
                "id": "13934",
                "name": "Seynod",
                "icon": "94"
            },
            "geometry": {
                "type": "Point",
                "coordinates": [
                    6.09307000000,
                    45.88449000000
                ]
            }
        },
        {
            "type": "Feature",
            "properties": {
                "name": "Bellenaves",
                "icon": "13",
                "id": "15460"
            },
            "geometry": {
                "type": "Point",
                "coordinates": [
                    3.07879000000,
                    46.19931000000
                ]
            }
        },
        {
            "type": "Feature",
            "properties": {
                "name": "Saint-Symphorien-d'Ozon",
                "id": "11209",
                "icon": "89"
            },
            "geometry": {
                "type": "Point",
                "coordinates": [
                    4.85573000000,
                    45.63333000000
                ]
            }
        },
        {
            "type": "Feature",
            "properties": {
                "name": "Talloires-Montmin",
                "icon": "94",
                "id": "13164"
            },
            "geometry": {
                "type": "Point",
                "coordinates": [
                    6.21153000000,
                    45.85165000000
                ]
            }
        },
        {
            "type": "Feature",
            "properties": {
                "id": "7255",
                "icon": "13",
                "name": "Néris-les-Bains"
            },
            "geometry": {
                "type": "Point",
                "coordinates": [
                    2.65770000000,
                    46.28807000000
                ]
            }
        },
        {
            "type": "Feature",
            "properties": {
                "id": "8805",
                "icon": "11",
                "name": "Ornex"
            },
            "geometry": {
                "type": "Point",
                "coordinates": [
                    6.11181000000,
                    46.26375000000
                ]
            }
        },
        {
            "type": "Feature",
            "properties": {
                "name": "Lyas",
                "id": "12062",
                "icon": "16"
            },
            "geometry": {
                "type": "Point",
                "coordinates": [
                    4.59870000000,
                    44.75631000000
                ]
            }
        },
        {
            "type": "Feature",
            "properties": {
                "name": "Mions",
                "id": "5074",
                "icon": "89"
            },
            "geometry": {
                "type": "Point",
                "coordinates": [
                    4.95750000000,
                    45.66495000000
                ]
            }
        },
        {
            "type": "Feature",
            "properties": {
                "icon": "11",
                "id": "8623",
                "name": "Saint-Germain-les-Paroisses"
            },
            "geometry": {
                "type": "Point",
                "coordinates": [
                    5.61900000000,
                    45.77382000000
                ]
            }
        },
        {
            "type": "Feature",
            "properties": {
                "id": "4446",
                "name": "Ebreuil",
                "icon": "13"
            },
            "geometry": {
                "type": "Point",
                "coordinates": [
                    3.05524000000,
                    46.13383000000
                ]
            }
        },
        {
            "type": "Feature",
            "properties": {
                "name": "Aubenas",
                "id": "14624",
                "icon": "16"
            },
            "geometry": {
                "type": "Point",
                "coordinates": [
                    4.38936000000,
                    44.61846000000
                ]
            }
        },
        {
            "type": "Feature",
            "properties": {
                "name": "Saint-Maurice-ès-Allier",
                "icon": "83",
                "id": "7970"
            },
            "geometry": {
                "type": "Point",
                "coordinates": [
                    3.23819000000,
                    45.67130000000
                ]
            }
        },
        {
            "type": "Feature",
            "properties": {
                "name": "Écully",
                "id": "17942",
                "icon": "89"
            },
            "geometry": {
                "type": "Point",
                "coordinates": [
                    4.77765000000,
                    45.77458000000
                ]
            }
        },
        {
            "type": "Feature",
            "properties": {
                "id": "2416",
                "name": "Francheville",
                "icon": "89"
            },
            "geometry": {
                "type": "Point",
                "coordinates": [
                    4.77365000000,
                    45.73833000000
                ]
            }
        },
        {
            "type": "Feature",
            "properties": {
                "name": "Lyon",
                "id": "2469",
                "icon": "89"
            },
            "geometry": {
                "type": "Point",
                "coordinates": [
                    4.82726000000,
                    45.73559000000
                ]
            }
        },
        {
            "type": "Feature",
            "properties": {
                "icon": "13",
                "name": "Domérat",
                "id": "13608"
            },
            "geometry": {
                "type": "Point",
                "coordinates": [
                    2.53629000000,
                    46.36000000000
                ]
            }
        },
        {
            "type": "Feature",
            "properties": {
                "icon": "94",
                "id": "16854",
                "name": "Chapeiry"
            },
            "geometry": {
                "type": "Point",
                "coordinates": [
                    6.03761000000,
                    45.84495000000
                ]
            }
        },
        {
            "type": "Feature",
            "properties": {
                "icon": "53",
                "name": "Paulhaguet",
                "id": "1957"
            },
            "geometry": {
                "type": "Point",
                "coordinates": [
                    3.51531000000,
                    45.20681000000
                ]
            }
        },
        {
            "type": "Feature",
            "properties": {
                "icon": "94",
                "name": "Saint-Jorioz",
                "id": "8993"
            },
            "geometry": {
                "type": "Point",
                "coordinates": [
                    6.16316000000,
                    45.83528000000
                ]
            }
        },
        {
            "type": "Feature",
            "properties": {
                "id": "12437",
                "name": "Neyron",
                "icon": "11"
            },
            "geometry": {
                "type": "Point",
                "coordinates": [
                    4.92292000000,
                    45.81185000000
                ]
            }
        },
        {
            "type": "Feature",
            "properties": {
                "id": "16070",
                "name": "Brignais",
                "icon": "89"
            },
            "geometry": {
                "type": "Point",
                "coordinates": [
                    4.75480000000,
                    45.67394000000
                ]
            }
        },
        {
            "type": "Feature",
            "properties": {
                "id": "9783",
                "icon": "94",
                "name": "Praz-sur-Arly"
            },
            "geometry": {
                "type": "Point",
                "coordinates": [
                    6.57824000000,
                    45.83827000000
                ]
            }
        },
        {
            "type": "Feature",
            "properties": {
                "icon": "16",
                "id": "11549",
                "name": "Sarras"
            },
            "geometry": {
                "type": "Point",
                "coordinates": [
                    4.81080000000,
                    45.18309000000
                ]
            }
        },
        {
            "type": "Feature",
            "properties": {
                "name": "Morillon",
                "id": "7868",
                "icon": "94"
            },
            "geometry": {
                "type": "Point",
                "coordinates": [
                    6.67638000000,
                    46.08358000000
                ]
            }
        },
        {
            "type": "Feature",
            "properties": {
                "name": "Vindry-sur-Turdine",
                "id": "8741",
                "icon": "89"
            },
            "geometry": {
                "type": "Point",
                "coordinates": [
                    4.51697000000,
                    45.88321000000
                ]
            }
        },
        {
            "type": "Feature",
            "properties": {
                "id": "5328",
                "name": "Porte des Pierres Dorées",
                "icon": "89"
            },
            "geometry": {
                "type": "Point",
                "coordinates": [
                    4.64794000000,
                    45.96030000000
                ]
            }
        },
        {
            "type": "Feature",
            "properties": {
                "icon": "94",
                "name": "Ambilly",
                "id": "8547"
            },
            "geometry": {
                "type": "Point",
                "coordinates": [
                    6.21677000000,
                    46.19371000000
                ]
            }
        },
        {
            "type": "Feature",
            "properties": {
                "name": "Le Bouchet-Mont-Charvin",
                "id": "17317",
                "icon": "94"
            },
            "geometry": {
                "type": "Point",
                "coordinates": [
                    6.36354000000,
                    45.79717000000
                ]
            }
        },
        {
            "type": "Feature",
            "properties": {
                "name": "Taulignan",
                "icon": "36",
                "id": "2387"
            },
            "geometry": {
                "type": "Point",
                "coordinates": [
                    4.98097000000,
                    44.44328000000
                ]
            }
        },
        {
            "type": "Feature",
            "properties": {
                "name": "Seynod",
                "icon": "94",
                "id": "2729"
            },
            "geometry": {
                "type": "Point",
                "coordinates": [
                    6.10301000000,
                    45.88451000000
                ]
            }
        },
        {
            "type": "Feature",
            "properties": {
                "id": "14824",
                "icon": "94",
                "name": "Ville-la-Grand"
            },
            "geometry": {
                "type": "Point",
                "coordinates": [
                    6.23432000000,
                    46.20176000000
                ]
            }
        },
        {
            "type": "Feature",
            "properties": {
                "name": "Aix-les-Bains",
                "icon": "93",
                "id": "8165"
            },
            "geometry": {
                "type": "Point",
                "coordinates": [
                    5.91245000000,
                    45.67619000000
                ]
            }
        },
        {
            "type": "Feature",
            "properties": {
                "id": "16458",
                "name": "Aurillac",
                "icon": "24"
            },
            "geometry": {
                "type": "Point",
                "coordinates": [
                    2.42738000000,
                    44.92071000000
                ]
            }
        },
        {
            "type": "Feature",
            "properties": {
                "name": "Lyon",
                "id": "2446",
                "icon": "89"
            },
            "geometry": {
                "type": "Point",
                "coordinates": [
                    4.83590000000,
                    45.78017000000
                ]
            }
        },
        {
            "type": "Feature",
            "properties": {
                "icon": "94",
                "id": "14415",
                "name": "Allinges"
            },
            "geometry": {
                "type": "Point",
                "coordinates": [
                    6.46404000000,
                    46.33637000000
                ]
            }
        },
        {
            "type": "Feature",
            "properties": {
                "name": "Bessay-sur-Allier",
                "id": "15522",
                "icon": "13"
            },
            "geometry": {
                "type": "Point",
                "coordinates": [
                    3.36304000000,
                    46.44153000000
                ]
            }
        },
        {
            "type": "Feature",
            "properties": {
                "name": "Tramoyes",
                "id": "8817",
                "icon": "11"
            },
            "geometry": {
                "type": "Point",
                "coordinates": [
                    4.96467000000,
                    45.87497000000
                ]
            }
        },
        {
            "type": "Feature",
            "properties": {
                "icon": "94",
                "name": "Faverges-Seythenex",
                "id": "13296"
            },
            "geometry": {
                "type": "Point",
                "coordinates": [
                    6.28258000000,
                    45.74982000000
                ]
            }
        },
        {
            "type": "Feature",
            "properties": {
                "id": "15633",
                "name": "Belmont-d'Azergues",
                "icon": "89"
            },
            "geometry": {
                "type": "Point",
                "coordinates": [
                    4.66964000000,
                    45.86821000000
                ]
            }
        },
        {
            "type": "Feature",
            "properties": {
                "id": "8687",
                "name": "Arbent",
                "icon": "11"
            },
            "geometry": {
                "type": "Point",
                "coordinates": [
                    5.68167000000,
                    46.29535000000
                ]
            }
        },
        {
            "type": "Feature",
            "properties": {
                "icon": "93",
                "name": "Conflans",
                "id": "12143"
            },
            "geometry": {
                "type": "Point",
                "coordinates": [
                    6.39806000000,
                    45.67039000000
                ]
            }
        },
        {
            "type": "Feature",
            "properties": {
                "name": "Desertines",
                "icon": "13",
                "id": "7665"
            },
            "geometry": {
                "type": "Point",
                "coordinates": [
                    2.62204000000,
                    46.36487000000
                ]
            }
        },
        {
            "type": "Feature",
            "properties": {
                "id": "8507",
                "name": "Montailleur",
                "icon": "93"
            },
            "geometry": {
                "type": "Point",
                "coordinates": [
                    6.27900000000,
                    45.61585000000
                ]
            }
        },
        {
            "type": "Feature",
            "properties": {
                "icon": "53",
                "id": "5241",
                "name": "Brioude"
            },
            "geometry": {
                "type": "Point",
                "coordinates": [
                    3.38123000000,
                    45.29401000000
                ]
            }
        },
        {
            "type": "Feature",
            "properties": {
                "icon": "83",
                "id": "14765",
                "name": "Arlanc"
            },
            "geometry": {
                "type": "Point",
                "coordinates": [
                    3.72469000000,
                    45.41338000000
                ]
            }
        },
        {
            "type": "Feature",
            "properties": {
                "name": "Sorbiers",
                "icon": "52",
                "id": "8015"
            },
            "geometry": {
                "type": "Point",
                "coordinates": [
                    4.44950000000,
                    45.49038000000
                ]
            }
        },
        {
            "type": "Feature",
            "properties": {
                "icon": "93",
                "id": "16866",
                "name": "Saint-Pierre-d'Albigny"
            },
            "geometry": {
                "type": "Point",
                "coordinates": [
                    6.15891000000,
                    45.56169000000
                ]
            }
        },
        {
            "type": "Feature",
            "properties": {
                "name": "Lyon",
                "id": "2440",
                "icon": "89"
            },
            "geometry": {
                "type": "Point",
                "coordinates": [
                    4.83447000000,
                    45.77248000000
                ]
            }
        },
        {
            "type": "Feature",
            "properties": {
                "id": "4458",
                "name": "Abrest",
                "icon": "13"
            },
            "geometry": {
                "type": "Point",
                "coordinates": [
                    3.42503000000,
                    46.09434000000
                ]
            }
        },
        {
            "type": "Feature",
            "properties": {
                "name": "Bizeneuille",
                "id": "13644",
                "icon": "13"
            },
            "geometry": {
                "type": "Point",
                "coordinates": [
                    2.73682000000,
                    46.40786000000
                ]
            }
        },
        {
            "type": "Feature",
            "properties": {
                "name": "Beauchastel",
                "id": "16080",
                "icon": "16"
            },
            "geometry": {
                "type": "Point",
                "coordinates": [
                    4.80632000000,
                    44.81740000000
                ]
            }
        },
        {
            "type": "Feature",
            "properties": {
                "name": "Clermont-Ferrand",
                "icon": "83",
                "id": "1968"
            },
            "geometry": {
                "type": "Point",
                "coordinates": [
                    3.08698000000,
                    45.77359000000
                ]
            }
        },
        {
            "type": "Feature",
            "properties": {
                "id": "2499",
                "name": "Corenc",
                "icon": "48"
            },
            "geometry": {
                "type": "Point",
                "coordinates": [
                    5.75936000000,
                    45.21063000000
                ]
            }
        },
        {
            "type": "Feature",
            "properties": {
                "name": "Giez",
                "icon": "94",
                "id": "12540"
            },
            "geometry": {
                "type": "Point",
                "coordinates": [
                    6.24706000000,
                    45.75225000000
                ]
            }
        },
        {
            "type": "Feature",
            "properties": {
                "icon": "52",
                "name": "Arthun",
                "id": "14926"
            },
            "geometry": {
                "type": "Point",
                "coordinates": [
                    4.03123000000,
                    45.77364000000
                ]
            }
        },
        {
            "type": "Feature",
            "properties": {
                "name": "Faramans",
                "id": "9899",
                "icon": "11"
            },
            "geometry": {
                "type": "Point",
                "coordinates": [
                    5.12562000000,
                    45.90431000000
                ]
            }
        },
        {
            "type": "Feature",
            "properties": {
                "id": "12798",
                "icon": "94",
                "name": "Doussard"
            },
            "geometry": {
                "type": "Point",
                "coordinates": [
                    6.20613000000,
                    45.77454000000
                ]
            }
        },
        {
            "type": "Feature",
            "properties": {
                "icon": "52",
                "name": "Saint-Romain-la-Motte",
                "id": "6220"
            },
            "geometry": {
                "type": "Point",
                "coordinates": [
                    3.98249000000,
                    46.08476000000
                ]
            }
        },
        {
            "type": "Feature",
            "properties": {
                "id": "8762",
                "name": "Val d'Oingt",
                "icon": "89"
            },
            "geometry": {
                "type": "Point",
                "coordinates": [
                    4.58583000000,
                    45.92082000000
                ]
            }
        },
        {
            "type": "Feature",
            "properties": {
                "id": "11984",
                "name": "Caluire-et-Cuire",
                "icon": "89"
            },
            "geometry": {
                "type": "Point",
                "coordinates": [
                    4.83259000000,
                    45.78585000000
                ]
            }
        },
        {
            "type": "Feature",
            "properties": {
                "icon": "52",
                "id": "4962",
                "name": "Saint-Étienne"
            },
            "geometry": {
                "type": "Point",
                "coordinates": [
                    4.40195000000,
                    45.44275000000
                ]
            }
        },
        {
            "type": "Feature",
            "properties": {
                "name": "Leschaux",
                "icon": "94",
                "id": "8600"
            },
            "geometry": {
                "type": "Point",
                "coordinates": [
                    6.12387000000,
                    45.77047000000
                ]
            }
        },
        {
            "type": "Feature",
            "properties": {
                "id": "2393",
                "name": "Hauterives",
                "icon": "36"
            },
            "geometry": {
                "type": "Point",
                "coordinates": [
                    5.02572000000,
                    45.25506000000
                ]
            }
        },
        {
            "type": "Feature",
            "properties": {
                "id": "2746",
                "name": "Montrevel-en-Bresse",
                "icon": "11"
            },
            "geometry": {
                "type": "Point",
                "coordinates": [
                    5.11860000000,
                    46.33550000000
                ]
            }
        },
        {
            "type": "Feature",
            "properties": {
                "id": "14502",
                "name": "Ambérieux-en-Dombes",
                "icon": "11"
            },
            "geometry": {
                "type": "Point",
                "coordinates": [
                    4.90288000000,
                    45.99570000000
                ]
            }
        },
        {
            "type": "Feature",
            "properties": {
                "icon": "94",
                "name": "Faverges-Seythenex",
                "id": "8455"
            },
            "geometry": {
                "type": "Point",
                "coordinates": [
                    6.29282000000,
                    45.74735000000
                ]
            }
        },
        {
            "type": "Feature",
            "properties": {
                "icon": "94",
                "id": "17319",
                "name": "Thônes"
            },
            "geometry": {
                "type": "Point",
                "coordinates": [
                    6.32213000000,
                    45.88231000000
                ]
            }
        },
        {
            "type": "Feature",
            "properties": {
                "name": "Lyon",
                "id": "2452",
                "icon": "89"
            },
            "geometry": {
                "type": "Point",
                "coordinates": [
                    4.80563000000,
                    45.77640000000
                ]
            }
        },
        {
            "type": "Feature",
            "properties": {
                "name": "Lyon",
                "icon": "89",
                "id": "13340"
            },
            "geometry": {
                "type": "Point",
                "coordinates": [
                    4.82685000000,
                    45.75212000000
                ]
            }
        },
        {
            "type": "Feature",
            "properties": {
                "icon": "94",
                "id": "16688",
                "name": "Alby-sur-Chéran"
            },
            "geometry": {
                "type": "Point",
                "coordinates": [
                    6.02400000000,
                    45.81878000000
                ]
            }
        },
        {
            "type": "Feature",
            "properties": {
                "name": "Saint-Cyr-sur-Menthon",
                "id": "8819",
                "icon": "11"
            },
            "geometry": {
                "type": "Point",
                "coordinates": [
                    4.97231000000,
                    46.27570000000
                ]
            }
        },
        {
            "type": "Feature",
            "properties": {
                "id": "12183",
                "icon": "13",
                "name": "Saint-Pourçain-sur-Sioule"
            },
            "geometry": {
                "type": "Point",
                "coordinates": [
                    3.28917000000,
                    46.30722000000
                ]
            }
        },
        {
            "type": "Feature",
            "properties": {
                "name": "Chaponnay",
                "id": "15701",
                "icon": "89"
            },
            "geometry": {
                "type": "Point",
                "coordinates": [
                    4.93434000000,
                    45.62799000000
                ]
            }
        },
        {
            "type": "Feature",
            "properties": {
                "name": "Miribel",
                "icon": "11",
                "id": "8722"
            },
            "geometry": {
                "type": "Point",
                "coordinates": [
                    4.92294000000,
                    45.87075000000
                ]
            }
        },
        {
            "type": "Feature",
            "properties": {
                "name": "Marat",
                "id": "11235",
                "icon": "83"
            },
            "geometry": {
                "type": "Point",
                "coordinates": [
                    3.68281000000,
                    45.65908000000
                ]
            }
        },
        {
            "type": "Feature",
            "properties": {
                "name": "Aurillac",
                "id": "7793",
                "icon": "24"
            },
            "geometry": {
                "type": "Point",
                "coordinates": [
                    2.44060000000,
                    44.91491000000
                ]
            }
        },
        {
            "type": "Feature",
            "properties": {
                "icon": "93",
                "name": "Aussois",
                "id": "8503"
            },
            "geometry": {
                "type": "Point",
                "coordinates": [
                    6.74088000000,
                    45.22980000000
                ]
            }
        },
        {
            "type": "Feature",
            "properties": {
                "name": "Aix-les-Bains",
                "icon": "93",
                "id": "98"
            },
            "geometry": {
                "type": "Point",
                "coordinates": [
                    5.88693000000,
                    45.69665000000
                ]
            }
        },
        {
            "type": "Feature",
            "properties": {
                "icon": "48",
                "name": "Seyssins",
                "id": "5256"
            },
            "geometry": {
                "type": "Point",
                "coordinates": [
                    5.69402000000,
                    45.16774000000
                ]
            }
        },
        {
            "type": "Feature",
            "properties": {
                "name": "Rumilly",
                "icon": "94",
                "id": "8086"
            },
            "geometry": {
                "type": "Point",
                "coordinates": [
                    5.94350000000,
                    45.86713000000
                ]
            }
        },
        {
            "type": "Feature",
            "properties": {
                "id": "17097",
                "icon": "94",
                "name": "Doussard"
            },
            "geometry": {
                "type": "Point",
                "coordinates": [
                    6.23214000000,
                    45.78670000000
                ]
            }
        },
        {
            "type": "Feature",
            "properties": {
                "name": "Lyon",
                "id": "2438",
                "icon": "89"
            },
            "geometry": {
                "type": "Point",
                "coordinates": [
                    4.83780000000,
                    45.76742000000
                ]
            }
        },
        {
            "type": "Feature",
            "properties": {
                "id": "4494",
                "icon": "11",
                "name": "Neuville-sur-Ain"
            },
            "geometry": {
                "type": "Point",
                "coordinates": [
                    5.37728000000,
                    46.07720000000
                ]
            }
        },
        {
            "type": "Feature",
            "properties": {
                "name": "Annemasse",
                "id": "14803",
                "icon": "94"
            },
            "geometry": {
                "type": "Point",
                "coordinates": [
                    6.23231000000,
                    46.19215000000
                ]
            }
        },
        {
            "type": "Feature",
            "properties": {
                "name": "Bourgoin-Jallieu",
                "id": "16280",
                "icon": "48"
            },
            "geometry": {
                "type": "Point",
                "coordinates": [
                    5.28147000000,
                    45.58970000000
                ]
            }
        },
        {
            "type": "Feature",
            "properties": {
                "name": "Cusset",
                "id": "1974",
                "icon": "13"
            },
            "geometry": {
                "type": "Point",
                "coordinates": [
                    3.45773000000,
                    46.13420000000
                ]
            }
        },
        {
            "type": "Feature",
            "properties": {
                "icon": "93",
                "name": "Chambery",
                "id": "2717"
            },
            "geometry": {
                "type": "Point",
                "coordinates": [
                    5.92114000000,
                    45.56407000000
                ]
            }
        },
        {
            "type": "Feature",
            "properties": {
                "icon": "93",
                "id": "14158",
                "name": "Pallud"
            },
            "geometry": {
                "type": "Point",
                "coordinates": [
                    6.39521000000,
                    45.68620000000
                ]
            }
        },
        {
            "type": "Feature",
            "properties": {
                "name": "Autry-Issards",
                "id": "15041",
                "icon": "13"
            },
            "geometry": {
                "type": "Point",
                "coordinates": [
                    3.13615000000,
                    46.54893000000
                ]
            }
        },
        {
            "type": "Feature",
            "properties": {
                "id": "9918",
                "icon": "94",
                "name": "Thônes"
            },
            "geometry": {
                "type": "Point",
                "coordinates": [
                    6.32343000000,
                    45.88174000000
                ]
            }
        },
        {
            "type": "Feature",
            "properties": {
                "id": "12983",
                "icon": "52",
                "name": "Ambierle"
            },
            "geometry": {
                "type": "Point",
                "coordinates": [
                    3.89649000000,
                    46.10408000000
                ]
            }
        },
        {
            "type": "Feature",
            "properties": {
                "icon": "53",
                "name": "Le Puy-en-Velay",
                "id": "7401"
            },
            "geometry": {
                "type": "Point",
                "coordinates": [
                    3.90159000000,
                    45.04084000000
                ]
            }
        },
        {
            "type": "Feature",
            "properties": {
                "name": "Challes-les-Eaux",
                "icon": "93",
                "id": "8778"
            },
            "geometry": {
                "type": "Point",
                "coordinates": [
                    5.98480000000,
                    45.54852000000
                ]
            }
        },
        {
            "type": "Feature",
            "properties": {
                "icon": "94",
                "id": "12007",
                "name": "Faverges-Seythenex"
            },
            "geometry": {
                "type": "Point",
                "coordinates": [
                    6.30694000000,
                    45.73785000000
                ]
            }
        },
        {
            "type": "Feature",
            "properties": {
                "name": "Vénissieux",
                "icon": "89",
                "id": "5048"
            },
            "geometry": {
                "type": "Point",
                "coordinates": [
                    4.88451000000,
                    45.69868000000
                ]
            }
        },
        {
            "type": "Feature",
            "properties": {
                "name": "Tarare",
                "id": "8685",
                "icon": "89"
            },
            "geometry": {
                "type": "Point",
                "coordinates": [
                    4.44621000000,
                    45.89049000000
                ]
            }
        },
        {
            "type": "Feature",
            "properties": {
                "name": "Sainte-Foy-lès-Lyon",
                "id": "2408",
                "icon": "89"
            },
            "geometry": {
                "type": "Point",
                "coordinates": [
                    4.77998000000,
                    45.73344000000
                ]
            }
        },
        {
            "type": "Feature",
            "properties": {
                "id": "4424",
                "name": "Bourbon-l'Archambault",
                "icon": "13"
            },
            "geometry": {
                "type": "Point",
                "coordinates": [
                    3.05841000000,
                    46.58654000000
                ]
            }
        },
        {
            "type": "Feature",
            "properties": {
                "name": "Arandon-Passins",
                "icon": "48",
                "id": "14564"
            },
            "geometry": {
                "type": "Point",
                "coordinates": [
                    5.46493000000,
                    45.71629000000
                ]
            }
        },
        {
            "type": "Feature",
            "properties": {
                "icon": "94",
                "id": "8460",
                "name": "Annecy"
            },
            "geometry": {
                "type": "Point",
                "coordinates": [
                    6.13226000000,
                    45.91367000000
                ]
            }
        },
        {
            "type": "Feature",
            "properties": {
                "name": "Mâcot-la-Plagne",
                "icon": "93",
                "id": "17986"
            },
            "geometry": {
                "type": "Point",
                "coordinates": [
                    6.67358000000,
                    45.55408000000
                ]
            }
        },
        {
            "type": "Feature",
            "properties": {
                "id": "2422",
                "name": "Tassin-la-Demi-Lune",
                "icon": "89"
            },
            "geometry": {
                "type": "Point",
                "coordinates": [
                    4.77633000000,
                    45.76149000000
                ]
            }
        },
        {
            "type": "Feature",
            "properties": {
                "id": "2466",
                "name": "Lyon",
                "icon": "89"
            },