
{
    "type": "FeatureCollection",
    "generator": "JOSM",
    "features": [
        {
            "type": "Feature",
            "properties": {
                "icon": "76",
                "name": "Vannes",
                "id": "2256"
            },
            "geometry": {
                "type": "Point",
                "coordinates": [
                    -2.75516000000,
                    47.65766000000
                ]
            }
        },
        {
            "type": "Feature",
            "properties": {
                "icon": "32",
                "name": "Ploumilliau",
                "id": "4928"
            },
            "geometry": {
                "type": "Point",
                "coordinates": [
                    -3.52288000000,
                    48.67904000000
                ]
            }
        },
        {
            "type": "Feature",
            "properties": {
                "icon": "32",
                "name": "Erquy",
                "id": "2123"
            },
            "geometry": {
                "type": "Point",
                "coordinates": [
                    -2.44900000000,
                    48.63807000000
                ]
            }
        },
        {
            "type": "Feature",
            "properties": {
                "name": "Saint-Père Marc en Poulet",
                "id": "7457",
                "icon": "45"
            },
            "geometry": {
                "type": "Point",
                "coordinates": [
                    -1.92434000000,
                    48.58818000000
                ]
            }
        },
        {
            "type": "Feature",
            "properties": {
                "icon": "32",
                "name": "Lannebert",
                "id": "10610"
            },
            "geometry": {
                "type": "Point",
                "coordinates": [
                    -3.00864000000,
                    48.65788000000
                ]
            }
        },
        {
            "type": "Feature",
            "properties": {
                "name": "La Dominelais",
                "id": "14166",
                "icon": "45"
            },
            "geometry": {
                "type": "Point",
                "coordinates": [
                    -1.68785000000,
                    47.76185000000
                ]
            }
        },
        {
            "type": "Feature",
            "properties": {
                "id": "1312",
                "name": "Guilvinec",
                "icon": "39"
            },
            "geometry": {
                "type": "Point",
                "coordinates": [
                    -4.28091000000,
                    47.79601000000
                ]
            }
        },
        {
            "type": "Feature",
            "properties": {
                "icon": "76",
                "name": "Brec'h",
                "id": "2230"
            },
            "geometry": {
                "type": "Point",
                "coordinates": [
                    -3.02745000000,
                    47.68923000000
                ]
            }
        },
        {
            "type": "Feature",
            "properties": {
                "name": "Chasné-sur-Illet",
                "id": "6587",
                "icon": "45"
            },
            "geometry": {
                "type": "Point",
                "coordinates": [
                    -1.56618000000,
                    48.23703000000
                ]
            }
        },
        {
            "type": "Feature",
            "properties": {
                "name": "Iffendic",
                "id": "2099",
                "icon": "45"
            },
            "geometry": {
                "type": "Point",
                "coordinates": [
                    -2.03314000000,
                    48.10022000000
                ]
            }
        },
        {
            "type": "Feature",
            "properties": {
                "icon": "32",
                "name": "Bobital",
                "id": "9623"
            },
            "geometry": {
                "type": "Point",
                "coordinates": [
                    -2.10440000000,
                    48.41360000000
                ]
            }
        },
        {
            "type": "Feature",
            "properties": {
                "name": "Saint-Méloir-des-Ondes",
                "id": "13621",
                "icon": "45"
            },
            "geometry": {
                "type": "Point",
                "coordinates": [
                    -1.90398000000,
                    48.64042000000
                ]
            }
        },
        {
            "type": "Feature",
            "properties": {
                "icon": "32",
                "name": "Calorguen",
                "id": "8486"
            },
            "geometry": {
                "type": "Point",
                "coordinates": [
                    -2.02875000000,
                    48.40907000000
                ]
            }
        },
        {
            "type": "Feature",
            "properties": {
                "icon": "32",
                "name": "Pleslin-Trigavou",
                "id": "6204"
            },
            "geometry": {
                "type": "Point",
                "coordinates": [
                    -2.05055000000,
                    48.53626000000
                ]
            }
        },
        {
            "type": "Feature",
            "properties": {
                "name": "Dol-de-Bretagne",
                "id": "2060",
                "icon": "45"
            },
            "geometry": {
                "type": "Point",
                "coordinates": [
                    -1.75133000000,
                    48.55123000000
                ]
            }
        },
        {
            "type": "Feature",
            "properties": {
                "icon": "76",
                "id": "18084",
                "name": "Ploeren"
            },
            "geometry": {
                "type": "Point",
                "coordinates": [
                    -2.86945000000,
                    47.65605000000
                ]
            }
        },
        {
            "type": "Feature",
            "properties": {
                "icon": "76",
                "name": "Guidel",
                "id": "2206"
            },
            "geometry": {
                "type": "Point",
                "coordinates": [
                    -3.52673400000,
                    47.77172700000
                ]
            }
        },
        {
            "type": "Feature",
            "properties": {
                "id": "13516",
                "icon": "39",
                "name": "Plonéour-Lanvern"
            },
            "geometry": {
                "type": "Point",
                "coordinates": [
                    -4.27978000000,
                    47.90202000000
                ]
            }
        },
        {
            "type": "Feature",
            "properties": {
                "name": "Noyal-sur-Vilaine",
                "icon": "45",
                "id": "1684"
            },
            "geometry": {
                "type": "Point",
                "coordinates": [
                    -1.52337000000,
                    48.11443000000
                ]
            }
        },
        {
            "type": "Feature",
            "properties": {
                "name": "Plogastel-Saint-Germain",
                "icon": "39",
                "id": "17135"
            },
            "geometry": {
                "type": "Point",
                "coordinates": [
                    -4.27063000000,
                    47.98297000000
                ]
            }
        },
        {
            "type": "Feature",
            "properties": {
                "id": "17966",
                "name": "Île-de-Batz",
                "icon": "39"
            },
            "geometry": {
                "type": "Point",
                "coordinates": [
                    -4.01535000000,
                    48.74486000000
                ]
            }
        },
        {
            "type": "Feature",
            "properties": {
                "icon": "76",
                "id": "8281",
                "name": "Saint-Philibert"
            },
            "geometry": {
                "type": "Point",
                "coordinates": [
                    -3.00100000000,
                    47.58688000000
                ]
            }
        },
        {
            "type": "Feature",
            "properties": {
                "icon": "39",
                "name": "Ergué-Gabéric",
                "id": "2179"
            },
            "geometry": {
                "type": "Point",
                "coordinates": [
                    -4.02499000000,
                    47.99641000000
                ]
            }
        },
        {
            "type": "Feature",
            "properties": {
                "id": "1006",
                "name": "Chantepie",
                "icon": "45"
            },
            "geometry": {
                "type": "Point",
                "coordinates": [
                    -1.61482000000,
                    48.08493000000
                ]
            }
        },
        {
            "type": "Feature",
            "properties": {
                "icon": "32",
                "id": "9139",
                "name": "Créhen"
            },
            "geometry": {
                "type": "Point",
                "coordinates": [
                    -2.21185000000,
                    48.54779000000
                ]
            }
        },
        {
            "type": "Feature",
            "properties": {
                "name": "Lamballe",
                "id": "2137",
                "icon": "32"
            },
            "geometry": {
                "type": "Point",
                "coordinates": [
                    -2.51558000000,
                    48.46967000000
                ]
            }
        },
        {
            "type": "Feature",
            "properties": {
                "name": "Saint-Père Marc en Poulet",
                "id": "9596",
                "icon": "45"
            },
            "geometry": {
                "type": "Point",
                "coordinates": [
                    -1.95504000000,
                    48.58651000000
                ]
            }
        },
        {
            "type": "Feature",
            "properties": {
                "icon": "76",
                "id": "14678",
                "name": "Saint-Gildas-de-Rhuys"
            },
            "geometry": {
                "type": "Point",
                "coordinates": [
                    -2.85823000000,
                    47.52427000000
                ]
            }
        },
        {
            "type": "Feature",
            "properties": {
                "icon": "76",
                "id": "2246",
                "name": "Quiberon"
            },
            "geometry": {
                "type": "Point",
                "coordinates": [
                    -3.13591000000,
                    47.49354000000
                ]
            }
        },
        {
            "type": "Feature",
            "properties": {
                "id": "15227",
                "name": "Boistrudan",
                "icon": "45"
            },
            "geometry": {
                "type": "Point",
                "coordinates": [
                    -1.40181000000,
                    47.96993000000
                ]
            }
        },
        {
            "type": "Feature",
            "properties": {
                "name": "Dinard",
                "id": "2113",
                "icon": "45"
            },
            "geometry": {
                "type": "Point",
                "coordinates": [
                    -2.05091000000,
                    48.62388000000
                ]
            }
        },
        {
            "type": "Feature",
            "properties": {
                "name": "Pluguffan",
                "icon": "39",
                "id": "13408"
            },
            "geometry": {
                "type": "Point",
                "coordinates": [
                    -4.18056000000,
                    47.98001000000
                ]
            }
        },
        {
            "type": "Feature",
            "properties": {
                "id": "13668",
                "name": "Scaër",
                "icon": "39"
            },
            "geometry": {
                "type": "Point",
                "coordinates": [
                    -3.70198000000,
                    48.02683000000
                ]
            }
        },
        {
            "type": "Feature",
            "properties": {
                "id": "17103",
                "name": "Breteil",
                "icon": "45"
            },
            "geometry": {
                "type": "Point",
                "coordinates": [
                    -1.89801000000,
                    48.14218000000
                ]
            }
        },
        {
            "type": "Feature",
            "properties": {
                "icon": "39",
                "name": "Roscanvel",
                "id": "2078"
            },
            "geometry": {
                "type": "Point",
                "coordinates": [
                    -4.54848000000,
                    48.31505000000
                ]
            }
        },
        {
            "type": "Feature",
            "properties": {
                "icon": "76",
                "id": "9145",
                "name": "Inguiniel"
            },
            "geometry": {
                "type": "Point",
                "coordinates": [
                    -3.28245000000,
                    47.97644000000
                ]
            }
        },
        {
            "type": "Feature",
            "properties": {
                "icon": "32",
                "name": "Perros-Guirec",
                "id": "2153"
            },
            "geometry": {
                "type": "Point",
                "coordinates": [
                    -3.46048000000,
                    48.80797000000
                ]
            }
        },
        {
            "type": "Feature",
            "properties": {
                "name": "Saint-Armel",
                "id": "12858",
                "icon": "45"
            },
            "geometry": {
                "type": "Point",
                "coordinates": [
                    -1.59130000000,
                    48.01299000000
                ]
            }
        },
        {
            "type": "Feature",
            "properties": {
                "name": "Saint-Gravé",
                "icon": "76",
                "id": "14738"
            },
            "geometry": {
                "type": "Point",
                "coordinates": [
                    -2.28156000000,
                    47.72606000000
                ]
            }
        },
        {
            "type": "Feature",
            "properties": {
                "icon": "76",
                "id": "17377",
                "name": "Brignac"
            },
            "geometry": {
                "type": "Point",
                "coordinates": [
                    -2.38799000000,
                    48.12136000000
                ]
            }
        },
        {
            "type": "Feature",
            "properties": {
                "icon": "32",
                "name": "Île-de-Bréhat",
                "id": "10750"
            },
            "geometry": {
                "type": "Point",
                "coordinates": [
                    -3.00025000000,
                    48.84606000000
                ]
            }
        },
        {
            "type": "Feature",
            "properties": {
                "id": "7936",
                "name": "Rennes",
                "icon": "45"
            },
            "geometry": {
                "type": "Point",
                "coordinates": [
                    -1.70204000000,
                    48.11908000000
                ]
            }
        },
        {
            "type": "Feature",
            "properties": {
                "name": "Saint-Aubin-d'Aubigné",
                "icon": "45",
                "id": "1651"
            },
            "geometry": {
                "type": "Point",
                "coordinates": [
                    -1.60216000000,
                    48.26216000000
                ]
            }
        },
        {
            "type": "Feature",
            "properties": {
                "name": "Montauban-de-Bretagne",
                "id": "14164",
                "icon": "45"
            },
            "geometry": {
                "type": "Point",
                "coordinates": [
                    -2.04635000000,
                    48.20095000000
                ]
            }
        },
        {
            "type": "Feature",
            "properties": {
                "icon": "76",
                "id": "2226",
                "name": "Brec'h"
            },
            "geometry": {
                "type": "Point",
                "coordinates": [
                    -2.99795000000,
                    47.72028000000
                ]
            }
        },
        {
            "type": "Feature",
            "properties": {
                "name": "Melesse",
                "id": "6589",
                "icon": "45"
            },
            "geometry": {
                "type": "Point",
                "coordinates": [
                    -1.69704000000,
                    48.21751000000
                ]
            }
        },
        {
            "type": "Feature",
            "properties": {
                "id": "2095",
                "name": "Iffendic",
                "icon": "45"
            },
            "geometry": {
                "type": "Point",
                "coordinates": [
                    -2.03217000000,
                    48.10055000000
                ]
            }
        },
        {
            "type": "Feature",
            "properties": {
                "icon": "76",
                "id": "9673",
                "name": "Ploërmel"
            },
            "geometry": {
                "type": "Point",
                "coordinates": [
                    -2.39437000000,
                    47.93088000000
                ]
            }
        },
        {
            "type": "Feature",
            "properties": {
                "name": "Rennes",
                "id": "1682",
                "icon": "45"
            },
            "geometry": {
                "type": "Point",
                "coordinates": [
                    -1.66786000000,
                    48.08470000000
                ]
            }
        },
        {
            "type": "Feature",
            "properties": {
                "name": "Saint-Méloir-des-Ondes",
                "id": "13619",
                "icon": "45"
            },
            "geometry": {
                "type": "Point",
                "coordinates": [
                    -1.90570000000,
                    48.63758000000
                ]
            }
        },
        {
            "type": "Feature",
            "properties": {
                "icon": "32",
                "name": "Dinan",
                "id": "6184"
            },
            "geometry": {
                "type": "Point",
                "coordinates": [
                    -2.04901000000,
                    48.45974000000
                ]
            }
        },
        {
            "type": "Feature",
            "properties": {
                "icon": "32",
                "name": "Trévou-Tréguignec",
                "id": "2068"
            },
            "geometry": {
                "type": "Point",
                "coordinates": [
                    -3.35862000000,
                    48.81628000000
                ]
            }
        },
        {
            "type": "Feature",
            "properties": {
                "icon": "32",
                "name": "La Bouillie",
                "id": "9356"
            },
            "geometry": {
                "type": "Point",
                "coordinates": [
                    -2.43799000000,
                    48.57308000000
                ]
            }
        },
        {
            "type": "Feature",
            "properties": {
                "name": "Sulniac",
                "icon": "76",
                "id": "5223"
            },
            "geometry": {
                "type": "Point",
                "coordinates": [
                    -2.57135000000,
                    47.67611000000
                ]
            }
        },
        {
            "type": "Feature",
            "properties": {
                "id": "7976",
                "name": "Guipry-Messac",
                "icon": "45"
            },
            "geometry": {
                "type": "Point",
                "coordinates": [
                    -1.82205000000,
                    47.82107000000
                ]
            }
        },
        {
            "type": "Feature",
            "properties": {
                "id": "2202",
                "name": "Clohars-Carnoët",
                "icon": "39"
            },
            "geometry": {
                "type": "Point",
                "coordinates": [
                    -3.58591000000,
                    47.79632000000
                ]
            }
        },
        {
            "type": "Feature",
            "properties": {
                "name": "Elliant",
                "id": "13506",
                "icon": "39"
            },
            "geometry": {
                "type": "Point",
                "coordinates": [
                    -3.88476000000,
                    47.99305000000
                ]
            }
        },
        {
            "type": "Feature",
            "properties": {
                "id": "1666",
                "name": "Rennes",
                "icon": "45"
            },
            "geometry": {
                "type": "Point",
                "coordinates": [
                    -1.68155000000,
                    48.10499000000
                ]
            }
        },
        {
            "type": "Feature",
            "properties": {
                "id": "17130",
                "icon": "39",
                "name": "Pouldreuzic"
            },
            "geometry": {
                "type": "Point",
                "coordinates": [
                    -4.36071000000,
                    47.95457000000
                ]
            }
        },
        {
            "type": "Feature",
            "properties": {
                "id": "9186",
                "icon": "39",
                "name": "Lanmeur"
            },
            "geometry": {
                "type": "Point",
                "coordinates": [
                    -3.71596000000,
                    48.64335000000
                ]
            }
        },
        {
            "type": "Feature",
            "properties": {
                "id": "6591",
                "name": "Montreuil-le-Gast",
                "icon": "45"
            },
            "geometry": {
                "type": "Point",
                "coordinates": [
                    -1.72778000000,
                    48.24703000000
                ]
            }
        },
        {
            "type": "Feature",
            "properties": {
                "id": "8283",
                "icon": "76",
                "name": "Plouharnel"
            },
            "geometry": {
                "type": "Point",
                "coordinates": [
                    -3.11189000000,
                    47.59749000000
                ]
            }
        },
        {
            "type": "Feature",
            "properties": {
                "icon": "39",
                "id": "2175",
                "name": "Plogonnec"
            },
            "geometry": {
                "type": "Point",
                "coordinates": [
                    -4.19157000000,
                    48.07606000000
                ]
            }
        },
        {
            "type": "Feature",
            "properties": {
                "id": "1016",
                "name": "Guignen",
                "icon": "45"
            },
            "geometry": {
                "type": "Point",
                "coordinates": [
                    -1.86055000000,
                    47.91979000000
                ]
            }
        },
        {
            "type": "Feature",
            "properties": {
                "name": "Pluguffan",
                "icon": "39",
                "id": "9129"
            },
            "geometry": {
                "type": "Point",
                "coordinates": [
                    -4.18138000000,
                    47.98380000000
                ]
            }
        },
        {
            "type": "Feature",
            "properties": {
                "id": "7758",
                "name": "La Vicomté-sur-Rance",
                "icon": "45"
            },
            "geometry": {
                "type": "Point",
                "coordinates": [
                    -1.98290000000,
                    48.48695000000
                ]
            }
        },
        {
            "type": "Feature",
            "properties": {
                "icon": "32",
                "id": "2149",
                "name": "Trébeurden"
            },
            "geometry": {
                "type": "Point",
                "coordinates": [
                    -3.56534000000,
                    48.76905000000
                ]
            }
        },
        {
            "type": "Feature",
            "properties": {
                "icon": "76",
                "id": "11706",
                "name": "Arzon"
            },
            "geometry": {
                "type": "Point",
                "coordinates": [
                    -2.91333000000,
                    47.54610000000
                ]
            }
        },
        {
            "type": "Feature",
            "properties": {
                "icon": "76",
                "id": "14673",
                "name": "Sarzeau"
            },
            "geometry": {
                "type": "Point",
                "coordinates": [
                    -2.76654000000,
                    47.52794000000
                ]
            }
        },
        {
            "type": "Feature",
            "properties": {
                "icon": "76",
                "id": "2240",
                "name": "La Trinité-sur-mer"
            },
            "geometry": {
                "type": "Point",
                "coordinates": [
                    -3.02693000000,
                    47.58701000000
                ]
            }
        },
        {
            "type": "Feature",
            "properties": {
                "name": "Sulniac",
                "icon": "76",
                "id": "5225"
            },
            "geometry": {
                "type": "Point",
                "coordinates": [
                    -2.59708000000,
                    47.63986000000
                ]
            }
        },
        {
            "type": "Feature",
            "properties": {
                "icon": "32",
                "id": "2125",
                "name": "Planguenoual"
            },
            "geometry": {
                "type": "Point",
                "coordinates": [
                    -2.57903000000,
                    48.57066000000
                ]
            }
        },
        {
            "type": "Feature",
            "properties": {
                "icon": "76",
                "name": "Ploeren",
                "id": "13161"
            },
            "geometry": {
                "type": "Point",
                "coordinates": [
                    -2.86606000000,
                    47.65684000000
                ]
            }
        },
        {
            "type": "Feature",
            "properties": {
                "icon": "32",
                "name": "Rostrenen",
                "id": "13929"
            },
            "geometry": {
                "type": "Point",
                "coordinates": [
                    -3.31761000000,
                    48.23717000000
                ]
            }
        },
        {
            "type": "Feature",
            "properties": {
                "icon": "32",
                "name": "Lannion",
                "id": "6374"
            },
            "geometry": {
                "type": "Point",
                "coordinates": [
                    -3.44716000000,
                    48.75111000000
                ]
            }
        },
        {
            "type": "Feature",
            "properties": {
                "name": "Lanvéoc",
                "icon": "39",
                "id": "2074"
            },
            "geometry": {
                "type": "Point",
                "coordinates": [
                    -4.46137000000,
                    48.28686000000
                ]
            }
        },
        {
            "type": "Feature",
            "properties": {
                "name": "Louvigné-du-Désert",
                "icon": "45",
                "id": "1046"
            },
            "geometry": {
                "type": "Point",
                "coordinates": [
                    -1.12259000000,
                    48.48140000000
                ]
            }
        },
        {
            "type": "Feature",
            "properties": {
                "name": "Cesson-Sévigné",
                "icon": "45",
                "id": "18134"
            },
            "geometry": {
                "type": "Point",
                "coordinates": [
                    -1.60369000000,
                    48.11760000000
                ]
            }
        },
        {
            "type": "Feature",
            "properties": {
                "icon": "39",
                "name": "Daoulas",
                "id": "2165"
            },
            "geometry": {
                "type": "Point",
                "coordinates": [
                    -4.26000000000,
                    48.35952000000
                ]
            }
        },
        {
            "type": "Feature",
            "properties": {
                "icon": "32",
                "name": "Plouézec",
                "id": "11853"
            },
            "geometry": {
                "type": "Point",
                "coordinates": [
                    -2.98380000000,
                    48.74937000000
                ]
            }
        },
        {
            "type": "Feature",
            "properties": {
                "icon": "76",
                "id": "254",
                "name": "Auray"
            },
            "geometry": {
                "type": "Point",
                "coordinates": [
                    -2.99771000000,
                    47.67028000000
                ]
            }
        },
        {
            "type": "Feature",
            "properties": {
                "icon": "76",
                "name": "Arradon",
                "id": "17385"
            },
            "geometry": {
                "type": "Point",
                "coordinates": [
                    -2.85936000000,
                    47.62474000000
                ]
            }
        },
        {
            "type": "Feature",
            "properties": {
                "name": "Lorient",
                "id": "9939",
                "icon": "76"
            },
            "geometry": {
                "type": "Point",
                "coordinates": [
                    -3.37410000000,
                    47.74082000000
                ]
            }
        },
        {
            "type": "Feature",
            "properties": {
                "icon": "32",
                "name": "Guingamp",
                "id": "8350"
            },
            "geometry": {
                "type": "Point",
                "coordinates": [
                    -3.15702000000,
                    48.56356000000
                ]
            }
        },
        {
            "type": "Feature",
            "properties": {
                "id": "1014",
                "name": "Saint-Jacques-de-la-Lande",
                "icon": "45"
            },
            "geometry": {
                "type": "Point",
                "coordinates": [
                    -1.70891000000,
                    48.07257000000
                ]
            }
        },
        {
            "type": "Feature",
            "properties": {
                "icon": "76",
                "name": "Locoal-Mendon",
                "id": "2222"
            },
            "geometry": {
                "type": "Point",
                "coordinates": [
                    -3.14593000000,
                    47.70503000000
                ]
            }
        },
        {
            "type": "Feature",
            "properties": {
                "id": "6581",
                "name": "Saint-Germain-sur-Ille",
                "icon": "45"
            },
            "geometry": {
                "type": "Point",
                "coordinates": [
                    -1.65973000000,
                    48.24910000000
                ]
            }
        },
        {
            "type": "Feature",
            "properties": {
                "name": "Clayes",
                "id": "2091",
                "icon": "45"
            },
            "geometry": {
                "type": "Point",
                "coordinates": [
                    -1.85426000000,
                    48.17640000000
                ]
            }
        },
        {
            "type": "Feature",
            "properties": {
                "icon": "32",
                "name": "Beaussais-sur-Mer",
                "id": "9589"
            },
            "geometry": {
                "type": "Point",
                "coordinates": [
                    -2.13996000000,
                    48.57610000000
                ]
            }
        },
        {
            "type": "Feature",
            "properties": {
                "id": "13588",
                "name": "Bourgbarré",
                "icon": "45"
            },
            "geometry": {
                "type": "Point",
                "coordinates": [
                    -1.61445000000,
                    47.99501000000
                ]
            }
        },
        {
            "type": "Feature",
            "properties": {
                "id": "8370",
                "name": "Guiler-sur-Goyen",
                "icon": "39"
            },
            "geometry": {
                "type": "Point",
                "coordinates": [
                    -4.35777000000,
                    48.01678000000
                ]
            }
        },
        {
            "type": "Feature",
            "properties": {
                "id": "9385",
                "icon": "39",
                "name": "Landivisiau"
            },
            "geometry": {
                "type": "Point",
                "coordinates": [
                    -4.06948000000,
                    48.50969000000
                ]
            }
        },
        {
            "type": "Feature",
            "properties": {
                "icon": "39",
                "id": "2198",
                "name": "Saint-Yvi"
            },
            "geometry": {
                "type": "Point",
                "coordinates": [
                    -3.95666000000,
                    47.95525000000
                ]
            }
        },
        {
            "type": "Feature",
            "properties": {
                "icon": "39",
                "name": "Tréméoc",
                "id": "13410"
            },
            "geometry": {
                "type": "Point",
                "coordinates": [
                    -4.21194000000,
                    47.90635000000
                ]
            }
        },
        {
            "type": "Feature",
            "properties": {
                "name": "Saint-Jacques-de-la-Lande",
                "id": "1678",
                "icon": "45"
            },
            "geometry": {
                "type": "Point",
                "coordinates": [
                    -1.69281000000,
                    48.09542000000
                ]
            }
        },
        {
            "type": "Feature",
            "properties": {
                "icon": "76",
                "id": "838",
                "name": "Damgan"
            },
            "geometry": {
                "type": "Point",
                "coordinates": [
                    -2.58070000000,
                    47.51731000000
                ]
            }
        },
        {
            "type": "Feature",
            "properties": {
                "id": "1125",
                "name": "Cancale",
                "icon": "45"
            },
            "geometry": {
                "type": "Point",
                "coordinates": [
                    -1.85283000000,
                    48.67533000000
                ]
            }
        },
        {
            "type": "Feature",
            "properties": {
                "id": "17948",
                "icon": "76",
                "name": "Carnac"
            },
            "geometry": {
                "type": "Point",
                "coordinates": [
                    -3.08001000000,
                    47.57060000000
                ]
            }
        },
        {
            "type": "Feature",
            "properties": {
                "id": "6583",
                "name": "Andouillé-Neuville",
                "icon": "45"
            },
            "geometry": {
                "type": "Point",
                "coordinates": [
                    -1.58994000000,
                    48.29519000000
                ]
            }
        },
        {
            "type": "Feature",
            "properties": {
                "icon": "76",
                "id": "8279",
                "name": "Saint-Philibert"
            },
            "geometry": {
                "type": "Point",
                "coordinates": [
                    -2.99433000000,
                    47.57194000000
                ]
            }
        },
        {
            "type": "Feature",
            "properties": {
                "id": "2171",
                "icon": "39",
                "name": "Le Faou"
            },
            "geometry": {
                "type": "Point",
                "coordinates": [
                    -4.17848000000,
                    48.29425000000
                ]
            }
        },
        {
            "type": "Feature",
            "properties": {
                "name": "Cornillé",
                "id": "12992",
                "icon": "45"
            },
            "geometry": {
                "type": "Point",
                "coordinates": [
                    -1.30634000000,
                    48.07974000000
                ]
            }
        },
        {
            "type": "Feature",
            "properties": {
                "icon": "76",
                "id": "7278",
                "name": "Ploemeur"
            },
            "geometry": {
                "type": "Point",
                "coordinates": [
                    -3.49973000000,
                    47.73495000000
                ]
            }
        },
        {
            "type": "Feature",
            "properties": {
                "icon": "76",
                "id": "2268",
                "name": "Guer"
            },
            "geometry": {
                "type": "Point",
                "coordinates": [
                    -2.12013000000,
                    47.90380000000
                ]
            }
        },
        {
            "type": "Feature",
            "properties": {
                "name": "Saint-Malo",
                "id": "7760",
                "icon": "45"
            },
            "geometry": {
                "type": "Point",
                "coordinates": [
                    -1.95826000000,
                    48.61394000000
                ]
            }
        },
        {
            "type": "Feature",
            "properties": {
                "icon": "32",
                "id": "2129",
                "name": "Plérin"
            },
            "geometry": {
                "type": "Point",
                "coordinates": [
                    -2.73476000000,
                    48.54237000000
                ]
            }
        },
        {
            "type": "Feature",
            "properties": {
                "icon": "76",
                "id": "11704",
                "name": "Sarzeau"
            },
            "geometry": {
                "type": "Point",
                "coordinates": [
                    -2.71287000000,
                    47.50837000000
                ]
            }
        },
        {
            "type": "Feature",
            "properties": {
                "icon": "39",
                "id": "17",
                "name": "Brest"
            },
            "geometry": {
                "type": "Point",
                "coordinates": [
                    -4.50182000000,
                    48.38937000000
                ]
            }
        },
        {
            "type": "Feature",
            "properties": {
                "id": "2236",
                "icon": "76",
                "name": "Plougoumelen"
            },
            "geometry": {
                "type": "Point",
                "coordinates": [
                    -2.91991000000,
                    47.64727000000
                ]
            }
        },
        {
            "type": "Feature",
            "properties": {
                "icon": "32",
                "id": "2105",
                "name": "Trelivan"
            },
            "geometry": {
                "type": "Point",
                "coordinates": [
                    -2.11910000000,
                    48.43260000000
                ]
            }
        },
        {
            "type": "Feature",
            "properties": {
                "icon": "76",
                "name": "Brandivy",
                "id": "15860"
            },
            "geometry": {
                "type": "Point",
                "coordinates": [
                    -2.94609000000,
                    47.77439000000
                ]
            }
        },
        {
            "type": "Feature",
            "properties": {
                "id": "13356",
                "name": "Plobannalec-Lesconil",
                "icon": "39"
            },
            "geometry": {
                "type": "Point",
                "coordinates": [
                    -4.22880000000,
                    47.82204000000
                ]
            }
        },
        {
            "type": "Feature",
            "properties": {
                "name": "Domagné",
                "id": "13631",
                "icon": "45"
            },
            "geometry": {
                "type": "Point",
                "coordinates": [
                    -1.39368000000,
                    48.07147000000
                ]
            }
        },
        {
            "type": "Feature",
            "properties": {
                "id": "8517",
                "name": "Saint-Lunaire",
                "icon": "45"
            },
            "geometry": {
                "type": "Point",
                "coordinates": [
                    -2.10858000000,
                    48.63485000000
                ]
            }
        },
        {
            "type": "Feature",
            "properties": {
                "icon": "32",
                "name": "Lannion",
                "id": "6387"
            },
            "geometry": {
                "type": "Point",
                "coordinates": [
                    -3.41185000000,
                    48.71702000000
                ]
            }
        },
        {
            "type": "Feature",
            "properties": {
                "icon": "32",
                "id": "2070",
                "name": "Louannec"
            },
            "geometry": {
                "type": "Point",
                "coordinates": [
                    -3.41310000000,
                    48.79435000000
                ]
            }
        },
        {
            "type": "Feature",
            "properties": {
                "id": "1038",
                "name": "Vitré",
                "icon": "45"
            },
            "geometry": {
                "type": "Point",
                "coordinates": [
                    -1.20915000000,
                    48.13065000000
                ]
            }
        },
        {
            "type": "Feature",
            "properties": {
                "id": "18132",
                "icon": "39",
                "name": "Concarneau"
            },
            "geometry": {
                "type": "Point",
                "coordinates": [
                    -3.91851000000,
                    47.87074000000
                ]
            }
        },
        {
            "type": "Feature",
            "properties": {
                "name": "Lorient",
                "icon": "76",
                "id": "2212"
            },
            "geometry": {
                "type": "Point",
                "coordinates": [
                    -3.36177000000,
                    47.73123000000
                ]
            }
        },
        {
            "type": "Feature",
            "properties": {
                "id": "1020",
                "name": "Guichen",
                "icon": "45"
            },
            "geometry": {
                "type": "Point",
                "coordinates": [
                    -1.77574000000,
                    47.99909000000
                ]
            }
        },
        {
            "type": "Feature",
            "properties": {
                "icon": "32",
                "id": "12072",
                "name": "Gouarec"
            },
            "geometry": {
                "type": "Point",
                "coordinates": [
                    -3.17831000000,
                    48.22718000000
                ]
            }
        },
        {
            "type": "Feature",
            "properties": {
                "name": "Plouarzel",
                "id": "8362",
                "icon": "39"
            },
            "geometry": {
                "type": "Point",
                "coordinates": [
                    -4.73284000000,
                    48.43310000000
                ]
            }
        },
        {
            "type": "Feature",
            "properties": {
                "icon": "39",
                "id": "17133",
                "name": "Plozévet"
            },
            "geometry": {
                "type": "Point",
                "coordinates": [
                    -4.42070000000,
                    47.98543000000
                ]
            }
        },
        {
            "type": "Feature",
            "properties": {
                "icon": "39",
                "name": "Quimper",
                "id": "10022"
            },
            "geometry": {
                "type": "Point",
                "coordinates": [
                    -4.10064000000,
                    47.99710000000
                ]
            }
        },
        {
            "type": "Feature",
            "properties": {
                "icon": "76",
                "name": "Gestel",
                "id": "7938"
            },
            "geometry": {
                "type": "Point",
                "coordinates": [
                    -3.43828000000,
                    47.80360000000
                ]
            }
        },
        {
            "type": "Feature",
            "properties": {
                "id": "5288",
                "name": "Rennes",
                "icon": "45"
            },
            "geometry": {
                "type": "Point",
                "coordinates": [
                    -1.69206000000,
                    48.08351000000
                ]
            }
        },
        {
            "type": "Feature",
            "properties": {
                "id": "1599",
                "name": "Vern-sur-Seiche",
                "icon": "45"
            },
            "geometry": {
                "type": "Point",
                "coordinates": [
                    -1.60376000000,
                    48.04497000000
                ]
            }
        },
        {
            "type": "Feature",
            "properties": {
                "icon": "32",
                "name": "Pléguien",
                "id": "2273"
            },
            "geometry": {
                "type": "Point",
                "coordinates": [
                    -2.94044000000,
                    48.63626000000
                ]
            }
        },
        {
            "type": "Feature",
            "properties": {
                "icon": "32",
                "id": "2151",
                "name": "Trébeurden"
            },
            "geometry": {
                "type": "Point",
                "coordinates": [
                    -3.57789000000,
                    48.77225000000
                ]
            }
        },
        {
            "type": "Feature",
            "properties": {
                "name": "Saint-Méloir-des-Ondes",
                "id": "9598",
                "icon": "45"
            },
            "geometry": {
                "type": "Point",
                "coordinates": [
                    -1.90204000000,
                    48.63551000000
                ]
            }
        },
        {
            "type": "Feature",
            "properties": {
                "id": "8151",
                "icon": "76",
                "name": "Grand-Champ"
            },
            "geometry": {
                "type": "Point",
                "coordinates": [
                    -2.84321000000,
                    47.75844000000
                ]
            }
        },
        {
            "type": "Feature",
            "properties": {
                "name": "Maen-Roch",
                "id": "13597",
                "icon": "45"
            },
            "geometry": {
                "type": "Point",
                "coordinates": [
                    -1.36254000000,
                    48.41107000000
                ]
            }
        },
        {
            "type": "Feature",
            "properties": {
                "id": "17978",
                "icon": "39",
                "name": "Guipavas"
            },
            "geometry": {
                "type": "Point",
                "coordinates": [
                    -4.35258000000,
                    48.41438000000
                ]
            }
        },
        {
            "type": "Feature",
            "properties": {
                "name": "Combrit",
                "icon": "39",
                "id": "2194"
            },
            "geometry": {
                "type": "Point",
                "coordinates": [
                    -4.15906000000,
                    47.88626000000
                ]
            }
        },
        {
            "type": "Feature",
            "properties": {
                "name": "Dinge",
                "id": "13464",
                "icon": "45"
            },
            "geometry": {
                "type": "Point",
                "coordinates": [
                    -1.71436000000,
                    48.35712000000
                ]
            }
        },
        {
            "type": "Feature",
            "properties": {
                "name": "Rennes",
                "id": "1670",
                "icon": "45"
            },
            "geometry": {
                "type": "Point",
                "coordinates": [
                    -1.65872000000,
                    48.10789000000
                ]
            }
        },
        {
            "type": "Feature",
            "properties": {
                "name": "Groix",
                "icon": "76",
                "id": "6396"
            },
            "geometry": {
                "type": "Point",
                "coordinates": [
                    -3.45773000000,
                    47.63916000000
                ]
            }
        },
        {
            "type": "Feature",
            "properties": {
                "id": "9167",
                "name": "Combrit",
                "icon": "39"
            },
            "geometry": {
                "type": "Point",
                "coordinates": [
                    -4.15591000000,
                    47.88391000000
                ]
            }
        },
        {
            "type": "Feature",
            "properties": {
                "id": "6585",
                "name": "Vieux-Vy-sur-Couesnon",
                "icon": "45"
            },
            "geometry": {
                "type": "Point",
                "coordinates": [
                    -1.48811000000,
                    48.34276000000
                ]
            }
        },
        {
            "type": "Feature",
            "properties": {
                "icon": "32",
                "name": "Saint-Quay-Portrieux",
                "id": "8178"
            },
            "geometry": {
                "type": "Point",
                "coordinates": [
                    -2.83749000000,
                    48.65283000000
                ]
            }
        },
        {
            "type": "Feature",
            "properties": {
                "icon": "39",
                "name": "Daoulas",
                "id": "2167"
            },
            "geometry": {
                "type": "Point",
                "coordinates": [
                    -4.26326000000,
                    48.35953000000
                ]
            }
        },
        {
            "type": "Feature",
            "properties": {
                "icon": "76",
                "name": "Locqueltas",
                "id": "12998"
            },
            "geometry": {
                "type": "Point",
                "coordinates": [
                    -2.76579000000,
                    47.75811000000
                ]
            }
        },
        {
            "type": "Feature",
            "properties": {
                "name": "Fougères",
                "id": "1032",
                "icon": "45"
            },
            "geometry": {
                "type": "Point",
                "coordinates": [
                    -1.20293000000,
                    48.34666000000
                ]
            }
        },
        {
            "type": "Feature",
            "properties": {
                "id": "2258",
                "icon": "76",
                "name": "Vannes"
            },
            "geometry": {
                "type": "Point",
                "coordinates": [
                    -2.77891000000,
                    47.64777000000
                ]
            }
        },
        {
            "type": "Feature",
            "properties": {
                "icon": "32",
                "name": "Lannion",
                "id": "6379"
            },
            "geometry": {
                "type": "Point",
                "coordinates": [
                    -3.48178000000,
                    48.73125000000
                ]
            }
        },
        {
            "type": "Feature",
            "properties": {
                "icon": "32",
                "name": "Lanfains",
                "id": "2141"
            },
            "geometry": {
                "type": "Point",
                "coordinates": [
                    -2.91350000000,
                    48.35274000000
                ]
            }
        },
        {
            "type": "Feature",
            "properties": {
                "name": "Rennes",
                "id": "11164",
                "icon": "45"
            },
            "geometry": {
                "type": "Point",
                "coordinates": [
                    -1.67180000000,
                    48.11072000000
                ]
            }
        },
        {
            "type": "Feature",
            "properties": {
                "icon": "76",
                "name": "Plumergat",
                "id": "7949"
            },
            "geometry": {
                "type": "Point",
                "coordinates": [
                    -2.91829000000,
                    47.74157000000
                ]
            }
        },
        {
            "type": "Feature",
            "properties": {
                "id": "45",
                "name": "Acigné",
                "icon": "45"
            },
            "geometry": {
                "type": "Point",
                "coordinates": [
                    -1.53453000000,
                    48.13350000000
                ]
            }
        },
        {
            "type": "Feature",
            "properties": {
                "icon": "76",
                "name": "Brec'h",
                "id": "2232"
            },
            "geometry": {
                "type": "Point",
                "coordinates": [
                    -2.99665000000,
                    47.68367000000
                ]
            }
        },
        {
            "type": "Feature",
            "properties": {
                "name": "Dinard",
                "id": "2117",
                "icon": "45"
            },
            "geometry": {
                "type": "Point",
                "coordinates": [
                    -2.05771000000,
                    48.63281000000
                ]
            }
        },
        {
            "type": "Feature",
            "properties": {
                "id": "9713",
                "name": "Guipry-Messac",
                "icon": "45"
            },
            "geometry": {
                "type": "Point",
                "coordinates": [
                    -1.81759000000,
                    47.82235000000
                ]
            }
        },
        {
            "type": "Feature",
            "properties": {
                "id": "13637",
                "name": "La Ville-és-Nonais",
                "icon": "45"
            },
            "geometry": {
                "type": "Point",
                "coordinates": [
                    -1.96412000000,
                    48.54429000000
                ]
            }
        },
        {
            "type": "Feature",
            "properties": {
                "id": "8521",
                "name": "Saint-Lunaire",
                "icon": "45"
            },
            "geometry": {
                "type": "Point",
                "coordinates": [
                    -2.10914000000,
                    48.63665000000
                ]
            }
        },
        {
            "type": "Feature",
            "properties": {
                "icon": "32",
                "name": "Paimpol",
                "id": "2066"
            },
            "geometry": {
                "type": "Point",
                "coordinates": [
                    -3.02073000000,
                    48.76749000000
                ]
            }
        },
        {
            "type": "Feature",
            "properties": {
                "id": "1040",
                "icon": "45",
                "name": "Châteaubourg"
            },
            "geometry": {
                "type": "Point",
                "coordinates": [
                    -1.40456000000,
                    48.10832000000
                ]
            }
        },
        {
            "type": "Feature",
            "properties": {
                "id": "9387",
                "icon": "39",
                "name": "Quimper"
            },
            "geometry": {
                "type": "Point",
                "coordinates": [
                    -4.09843000000,
                    48.01664000000
                ]
            }
        },
        {
            "type": "Feature",
            "properties": {
                "icon": "39",
                "name": "Plabennec",
                "id": "17682"
            },
            "geometry": {
                "type": "Point",
                "coordinates": [
                    -4.42370000000,
                    48.50287000000
                ]
            }
        },
        {
            "type": "Feature",
            "properties": {
                "icon": "32",
                "name": "Paule",
                "id": "11849"
            },
            "geometry": {
                "type": "Point",
                "coordinates": [
                    -3.44343000000,
                    48.23613000000
                ]
            }
        },
        {
            "type": "Feature",
            "properties": {
                "icon": "76",
                "name": "Port-Louis",
                "id": "15884"
            },
            "geometry": {
                "type": "Point",
                "coordinates": [
                    -3.35540000000,
                    47.70415000000
                ]
            }
        },
        {
            "type": "Feature",
            "properties": {
                "name": "Plouarzel",
                "id": "8364",
                "icon": "39"
            },
            "geometry": {
                "type": "Point",
                "coordinates": [
                    -4.77013000000,
                    48.42360000000
                ]
            }
        },
        {
            "type": "Feature",
            "properties": {
                "icon": "39",
                "name": "Ploudalmézeau",
                "id": "17139"
            },
            "geometry": {
                "type": "Point",
                "coordinates": [
                    -4.69937000000,
                    48.55540000000
                ]
            }
        },
        {
            "type": "Feature",
            "properties": {
                "id": "17959",
                "icon": "32",
                "name": "Lancieux"
            },
            "geometry": {
                "type": "Point",
                "coordinates": [
                    -2.15097000000,
                    48.60586000000
                ]
            }
        },
        {
            "type": "Feature",
            "properties": {
                "id": "1649",
                "name": "Betton",
                "icon": "45"
            },
            "geometry": {
                "type": "Point",
                "coordinates": [
                    -1.64079000000,
                    48.18145000000
                ]
            }
        },
        {
            "type": "Feature",
            "properties": {
                "icon": "32",
                "name": "Dinan",
                "id": "2285"
            },
            "geometry": {
                "type": "Point",
                "coordinates": [
                    -2.04616000000,
                    48.45226000000
                ]
            }
        },
        {
            "type": "Feature",
            "properties": {
                "icon": "32",
                "id": "2147",
                "name": "Lannion"
            },
            "geometry": {
                "type": "Point",
                "coordinates": [
                    -3.46736000000,
                    48.74658000000
                ]
            }
        },
        {
            "type": "Feature",
            "properties": {
                "icon": "32",
                "name": "Plancoët",
                "id": "9587"
            },
            "geometry": {
                "type": "Point",
                "coordinates": [
                    -2.23057000000,
                    48.52172000000
                ]
            }
        },
        {
            "type": "Feature",
            "properties": {
                "icon": "76",
                "name": "Vannes",
                "id": "14685"
            },
            "geometry": {
                "type": "Point",
                "coordinates": [
                    -2.75222000000,
                    47.65577000000
                ]
            }
        },
        {
            "type": "Feature",
            "properties": {
                "id": "1561",
                "name": "Bourgbarré",
                "icon": "45"
            },
            "geometry": {
                "type": "Point",
                "coordinates": [
                    -1.61491000000,
                    47.99487000000
                ]
            }
        },
        {
            "type": "Feature",
            "properties": {
                "id": "17976",
                "icon": "39",
                "name": "Langolen"
            },
            "geometry": {
                "type": "Point",
                "coordinates": [
                    -3.91218000000,
                    48.06684000000
                ]
            }
        },
        {
            "type": "Feature",
            "properties": {
                "name": "Sulniac",
                "icon": "76",
                "id": "5221"
            },
            "geometry": {
                "type": "Point",
                "coordinates": [
                    -2.57202000000,
                    47.67458000000
                ]
            }
        },
        {
            "type": "Feature",
            "properties": {
                "icon": "39",
                "name": "Quimper",
                "id": "2187"
            },
            "geometry": {
                "type": "Point",
                "coordinates": [
                    -4.10731000000,
                    47.99687000000
                ]
            }
        },
        {
            "type": "Feature",
            "properties": {
                "name": "Penmarch",
                "id": "13359",
                "icon": "39"
            },
            "geometry": {
                "type": "Point",
                "coordinates": [
                    -4.33762000000,
                    47.81273000000
                ]
            }
        },
        {
            "type": "Feature",
            "properties": {
                "id": "1664",
                "name": "Rennes",
                "icon": "45"
            },
            "geometry": {
                "type": "Point",
                "coordinates": [
                    -1.68082000000,
                    48.11862000000
                ]
            }
        },
        {
            "type": "Feature",
            "properties": {
                "name": "Groix",
                "icon": "76",
                "id": "6398"
            },
            "geometry": {
                "type": "Point",
                "coordinates": [
                    -3.43300000000,
                    47.62889000000
                ]
            }
        },
        {
            "type": "Feature",
            "properties": {
                "id": "2080",
                "icon": "39",
                "name": "Brest"
            },
            "geometry": {
                "type": "Point",
                "coordinates": [
                    -4.50108000000,
                    48.38587000000
                ]
            }
        },
        {
            "type": "Feature",
            "properties": {
                "icon": "76",
                "id": "9178",
                "name": "Lanester"
            },
            "geometry": {
                "type": "Point",
                "coordinates": [
                    -3.33015000000,
                    47.76335000000
                ]
            }
        },
        {
            "type": "Feature",
            "properties": {
                "icon": "39",
                "name": "Plougastel-Daoulas",
                "id": "2163"
            },
            "geometry": {
                "type": "Point",
                "coordinates": [
                    -4.36875000000,
                    48.37401000000
                ]
            }
        },
        {
            "type": "Feature",
            "properties": {
                "icon": "32",
                "name": "Gomené",
                "id": "12825"
            },
            "geometry": {
                "type": "Point",
                "coordinates": [
                    -2.48679000000,
                    48.17403000000
                ]
            }
        },
        {
            "type": "Feature",
            "properties": {
                "id": "1036",
                "name": "Saint-Aubin-du-Cormier",
                "icon": "45"
            },
            "geometry": {
                "type": "Point",
                "coordinates": [
                    -1.39605000000,
                    48.25995000000
                ]
            }
        },
        {
            "type": "Feature",
            "properties": {
                "icon": "76",
                "name": "Vannes",
                "id": "2254"
            },
            "geometry": {
                "type": "Point",
                "coordinates": [
                    -2.76025000000,
                    47.65850000000
                ]
            }
        },
        {
            "type": "Feature",
            "properties": {
                "name": "Bazouges-la-Pérouse",
                "id": "373",
                "icon": "45"
            },
            "geometry": {
                "type": "Point",
                "coordinates": [
                    -1.56957000000,
                    48.48220000000
                ]
            }
        },
        {
            "type": "Feature",
            "properties": {
                "icon": "32",
                "name": "Plévenon",
                "id": "2121"
            },
            "geometry": {
                "type": "Point",
                "coordinates": [
                    -2.33482000000,
                    48.65816000000
                ]
            }
        },
        {
            "type": "Feature",
            "properties": {
                "icon": "32",
                "id": "11205",
                "name": "Pommerit-le-Vicomte"
            },
            "geometry": {
                "type": "Point",
                "coordinates": [
                    -3.09056000000,
                    48.62020000000
                ]
            }
        },
        {
            "type": "Feature",
            "properties": {
                "name": "Mordelles",
                "id": "5320",
                "icon": "45"
            },
            "geometry": {
                "type": "Point",
                "coordinates": [
                    -1.84030000000,
                    48.07631000000
                ]
            }
        },
        {
            "type": "Feature",
            "properties": {
                "name": "Saint-Grégoire",
                "id": "14122",
                "icon": "45"
            },
            "geometry": {
                "type": "Point",
                "coordinates": [
                    -1.68942000000,
                    48.14833000000
                ]
            }
        },
        {
            "type": "Feature",
            "properties": {
                "icon": "76",
                "name": "Brec'h",
                "id": "2228"
            },
            "geometry": {
                "type": "Point",
                "coordinates": [
                    -2.99597000000,
                    47.72069000000
                ]
            }
        },
        {
            "type": "Feature",
            "properties": {
                "id": "2097",
                "name": "Iffendic",
                "icon": "45"
            },
            "geometry": {
                "type": "Point",
                "coordinates": [
                    -2.03222000000,
                    48.09929000000
                ]
            }
        },
        {
            "type": "Feature",
            "properties": {
                "name": "Redon",
                "id": "996",
                "icon": "45"
            },
            "geometry": {
                "type": "Point",
                "coordinates": [
                    -2.08386000000,
                    47.65176000000
                ]
            }
        },
        {
            "type": "Feature",
            "properties": {
                "icon": "32",
                "id": "9937",
                "name": "Plélauff"
            },
            "geometry": {
                "type": "Point",
                "coordinates": [
                    -3.20867000000,
                    48.20512000000
                ]
            }
        },
        {
            "type": "Feature",
            "properties": {
                "id": "13599",
                "name": "Maen-Roch",
                "icon": "45"
            },
            "geometry": {
                "type": "Point",
                "coordinates": [
                    -1.32637000000,
                    48.40343000000
                ]
            }
        },
        {
            "type": "Feature",
            "properties": {
                "name": "Thorigné-Fouillard",
                "id": "8445",
                "icon": "45"
            },
            "geometry": {
                "type": "Point",
                "coordinates": [
                    -1.58601000000,
                    48.15523000000
                ]
            }
        },
        {
            "type": "Feature",
            "properties": {
                "icon": "76",
                "id": "17381",
                "name": "Sarzeau"
            },
            "geometry": {
                "type": "Point",
                "coordinates": [
                    -2.66929000000,
                    47.51810000000
                ]
            }
        },
        {
            "type": "Feature",
            "properties": {
                "id": "18070",
                "icon": "39",
                "name": "Audierne"
            },
            "geometry": {
                "type": "Point",
                "coordinates": [
                    -4.53899000000,
                    48.02207000000
                ]
            }
        },
        {
            "type": "Feature",
            "properties": {
                "icon": "76",
                "name": "Saint-Dolay",
                "id": "15249"
            },
            "geometry": {
                "type": "Point",
                "coordinates": [
                    -2.15424000000,
                    47.54520000000
                ]
            }
        },
        {
            "type": "Feature",
            "properties": {
                "icon": "76",
                "name": "Guidel",
                "id": "2204"
            },
            "geometry": {
                "type": "Point",
                "coordinates": [
                    -3.48842000000,
                    47.78977000000
                ]
            }
        },
        {
            "type": "Feature",
            "properties": {
                "icon": "32",
                "id": "11845",
                "name": "Trégueux"
            },
            "geometry": {
                "type": "Point",
                "coordinates": [
                    -2.74406000000,
                    48.48984000000
                ]
            }
        },
        {
            "type": "Feature",
            "properties": {
                "name": "Plouarzel",
                "icon": "39",
                "id": "8366"
            },
            "geometry": {
                "type": "Point",
                "coordinates": [
                    -4.72931000000,
                    48.43361000000
                ]
            }
        },
        {
            "type": "Feature",
            "properties": {
                "name": "Feins",
                "id": "17972",
                "icon": "45"
            },
            "geometry": {
                "type": "Point",
                "coordinates": [
                    -1.64089000000,
                    48.32850000000
                ]
            }
        },
        {
            "type": "Feature",
            "properties": {
                "id": "1601",
                "name": "Corps-Nuds",
                "icon": "45"
            },
            "geometry": {
                "type": "Point",
                "coordinates": [
                    -1.58700000000,
                    47.97802000000
                ]
            }
        },
        {
            "type": "Feature",
            "properties": {
                "icon": "39",
                "name": "Langolen",
                "id": "2177"
            },
            "geometry": {
                "type": "Point",
                "coordinates": [
                    -3.91223000000,
                    48.06671000000
                ]
            }
        },
        {
            "type": "Feature",
            "properties": {
                "icon": "32",
                "name": "Dinan",
                "id": "2275"
            },
            "geometry": {
                "type": "Point",
                "coordinates": [
                    -2.04766000000,
                    48.45424000000
                ]
            }
        },
        {
            "type": "Feature",
            "properties": {
                "icon": "32",
                "name": "Quintin",
                "id": "2143"
            },
            "geometry": {
                "type": "Point",
                "coordinates": [
                    -2.91111000000,
                    48.40239000000
                ]
            }
        },
        {
            "type": "Feature",
            "properties": {
                "icon": "32",
                "id": "9594",
                "name": "Hénanbihen"
            },
            "geometry": {
                "type": "Point",
                "coordinates": [
                    -2.37740000000,
                    48.56041000000
                ]
            }
        },
        {
            "type": "Feature",
            "properties": {
                "icon": "39",
                "id": "7745",
                "name": "Plougonvelin"
            },
            "geometry": {
                "type": "Point",
                "coordinates": [
                    -4.71824000000,
                    48.34026000000
                ]
            }
        },
        {
            "type": "Feature",
            "properties": {
                "icon": "76",
                "id": "14736",
                "name": "Saint-Congard"
            },
            "geometry": {
                "type": "Point",
                "coordinates": [
                    -2.31775000000,
                    47.76952000000
                ]
            }
        },
        {
            "type": "Feature",
            "properties": {
                "name": "Larmor-Baden",
                "icon": "76",
                "id": "2252"
            },
            "geometry": {
                "type": "Point",
                "coordinates": [
                    -2.89440000000,
                    47.58860000000
                ]
            }
        },
        {
            "type": "Feature",
            "properties": {
                "name": "Dinard",
                "id": "2119",
                "icon": "45"
            },
            "geometry": {
                "type": "Point",
                "coordinates": [
                    -2.07063000000,
                    48.62943000000
                ]
            }
        },
        {
            "type": "Feature",
            "properties": {
                "name": "Plobannalec-Lesconil",
                "id": "13414",
                "icon": "39"
            },
            "geometry": {
                "type": "Point",
                "coordinates": [
                    -4.21150000000,
                    47.81372000000
                ]
            }
        },
        {
            "type": "Feature",
            "properties": {
                "name": "Saint-Lunaire",
                "icon": "45",
                "id": "8523"
            },
            "geometry": {
                "type": "Point",
                "coordinates": [
                    -2.11064000000,
                    48.63608000000
                ]
            }
        },
        {
            "type": "Feature",
            "properties": {
                "icon": "32",
                "name": "Lannion",
                "id": "6381"
            },
            "geometry": {
                "type": "Point",
                "coordinates": [
                    -3.46024000000,
                    48.73037000000
                ]
            }
        },
        {
            "type": "Feature",
            "properties": {
                "id": "2093",
                "name": "Iffendic",
                "icon": "45"
            },
            "geometry": {
                "type": "Point",
                "coordinates": [
                    -2.02976000000,
                    48.10033000000
                ]
            }
        },
        {
            "type": "Feature",
            "properties": {
                "icon": "32",
                "id": "2279",
                "name": "Dinan"
            },
            "geometry": {
                "type": "Point",
                "coordinates": [
                    -2.04352000000,
                    48.46218000000
                ]
            }
        },
        {
            "type": "Feature",
            "properties": {
                "id": "2159",
                "name": "Lesneven",
                "icon": "39"
            },
            "geometry": {
                "type": "Point",
                "coordinates": [
                    -4.32193000000,
                    48.57202000000
                ]
            }
        },
        {
            "type": "Feature",
            "properties": {
                "name": "La Chapelle-Erbrée",
                "id": "12832",
                "icon": "45"
            },
            "geometry": {
                "type": "Point",
                "coordinates": [
                    -1.10013000000,
                    48.14043000000
                ]
            }
        },
        {
            "type": "Feature",
            "properties": {
                "id": "4930",
                "icon": "45",
                "name": "Luitré-Dompierre"
            },
            "geometry": {
                "type": "Point",
                "coordinates": [
                    -1.11829000000,
                    48.28397000000
                ]
            }
        },
        {
            "type": "Feature",
            "properties": {
                "icon": "32",
                "name": "Saint-Brieuc",
                "id": "2133"
            },
            "geometry": {
                "type": "Point",
                "coordinates": [
                    -2.78729000000,
                    48.51106000000
                ]
            }
        },
        {
            "type": "Feature",
            "properties": {
                "icon": "32",
                "id": "10745",
                "name": "Ploubazlanec"
            },
            "geometry": {
                "type": "Point",
                "coordinates": [
                    -3.03223000000,
                    48.80175000000
                ]
            }
        },
        {
            "type": "Feature",
            "properties": {
                "name": "Bréal-sous-Montfort",
                "id": "5284",
                "icon": "45"
            },
            "geometry": {
                "type": "Point",
                "coordinates": [
                    -1.86675000000,
                    48.04917000000
                ]
            }
        },
        {
            "type": "Feature",
            "properties": {
                "id": "14161",
                "name": "Mont-Dol",
                "icon": "45"
            },
            "geometry": {
                "type": "Point",
                "coordinates": [
                    -1.76877000000,
                    48.57000000000
                ]
            }
        },
        {
            "type": "Feature",
            "properties": {
                "id": "1028",
                "name": "Fougères",
                "icon": "45"
            },
            "geometry": {
                "type": "Point",
                "coordinates": [
                    -1.20808000000,
                    48.35477000000
                ]
            }
        },
        {
            "type": "Feature",
            "properties": {
                "icon": "76",
                "id": "2224",
                "name": "Baud"
            },
            "geometry": {
                "type": "Point",
                "coordinates": [
                    -3.01789000000,
                    47.87251000000
                ]
            }
        },
        {
            "type": "Feature",
            "properties": {
                "icon": "32",
                "name": "Lanvallay",
                "id": "2109"
            },
            "geometry": {
                "type": "Point",
                "coordinates": [
                    -2.02751000000,
                    48.45570000000
                ]
            }
        },
        {
            "type": "Feature",
            "properties": {
                "icon": "32",
                "name": "Saint-Lormel",
                "id": "9626"
            },
            "geometry": {
                "type": "Point",
                "coordinates": [
                    -2.22948000000,
                    48.54539000000
                ]
            }
        },
        {
            "type": "Feature",
            "properties": {
                "id": "1008",
                "name": "Chantepie",
                "icon": "45"
            },
            "geometry": {
                "type": "Point",
                "coordinates": [
                    -1.61761000000,
                    48.08514000000
                ]
            }
        },
        {
            "type": "Feature",
            "properties": {
                "name": "Saint-Malo",
                "id": "7756",
                "icon": "45"
            },
            "geometry": {
                "type": "Point",
                "coordinates": [
                    -2.02081000000,
                    48.63668000000
                ]
            }
        },
        {
            "type": "Feature",
            "properties": {
                "name": "La Chapelle-des-Fougeretz",
                "id": "13617",
                "icon": "45"
            },
            "geometry": {
                "type": "Point",
                "coordinates": [
                    -1.73389000000,
                    48.17989000000
                ]
            }
        },
        {
            "type": "Feature",
            "properties": {
                "id": "8484",
                "name": "La Chapelle-aux-Filtzméens",
                "icon": "45"
            },
            "geometry": {
                "type": "Point",
                "coordinates": [
                    -1.82445000000,
                    48.38412000000
                ]
            }
        },
        {
            "type": "Feature",
            "properties": {
                "name": "La Richardais",
                "id": "6173",
                "icon": "45"
            },
            "geometry": {
                "type": "Point",
                "coordinates": [
                    -2.03316000000,
                    48.60505000000
                ]
            }
        },
        {
            "type": "Feature",
            "properties": {
                "id": "2062",
                "icon": "45",
                "name": "Saint-Guinoux"
            },
            "geometry": {
                "type": "Point",
                "coordinates": [
                    -1.88350000000,
                    48.57632000000
                ]
            }
        },
        {
            "type": "Feature",
            "properties": {
                "name": "Louvigné-du-Désert",
                "id": "1044",
                "icon": "45"
            },
            "geometry": {
                "type": "Point",
                "coordinates": [
                    -1.12505000000,
                    48.48155000000
                ]
            }
        },
        {
            "type": "Feature",
            "properties": {
                "name": "Lamballe",
                "icon": "32",
                "id": "9350"
            },
            "geometry": {
                "type": "Point",
                "coordinates": [
                    -2.51731000000,
                    48.46920000000
                ]
            }
        },
        {
            "type": "Feature",
            "properties": {
                "icon": "76",
                "id": "2216",
                "name": "Port-Louis"
            },
            "geometry": {
                "type": "Point",
                "coordinates": [
                    -3.36034000000,
                    47.70824000000
                ]
            }
        },
        {
            "type": "Feature",
            "properties": {
                "name": "Lannédern",
                "icon": "39",
                "id": "13520"
            },
            "geometry": {
                "type": "Point",
                "coordinates": [
                    -3.89701000000,
                    48.30103000000
                ]
            }
        },
        {
            "type": "Feature",
            "properties": {
                "name": "Plouarzel",
                "icon": "39",
                "id": "8368"
            },
            "geometry": {
                "type": "Point",
                "coordinates": [
                    -4.72788000000,
                    48.43171000000
                ]
            }
        },
        {
            "type": "Feature",
            "properties": {
                "icon": "39",
                "id": "17137",
                "name": "Pouldergat"
            },
            "geometry": {
                "type": "Point",
                "coordinates": [
                    -4.32647000000,
                    48.04300000000
                ]
            }
        },
        {
            "type": "Feature",
            "properties": {
                "id": "17877",
                "name": "La Noé-Blanche",
                "icon": "45"
            },
            "geometry": {
                "type": "Point",
                "coordinates": [
                    -1.74125000000,
                    47.80358000000
                ]
            }
        },
        {
            "type": "Feature",
            "properties": {
                "name": "Treffiagat",
                "id": "7959",
                "icon": "39"
            },
            "geometry": {
                "type": "Point",
                "coordinates": [
                    -4.27218000000,
                    47.79250000000
                ]
            }
        },
        {
            "type": "Feature",
            "properties": {
                "name": "Val d'Izé",
                "icon": "45",
                "id": "1596"
            },
            "geometry": {
                "type": "Point",
                "coordinates": [
                    -1.30296000000,
                    48.17642000000
                ]
            }
        },
        {
            "type": "Feature",
            "properties": {
                "id": "2192",
                "icon": "39",
                "name": "Quimper"
            },
            "geometry": {
                "type": "Point",
                "coordinates": [
                    -4.08385000000,
                    47.98470000000
                ]
            }
        },
        {
            "type": "Feature",
            "properties": {
                "icon": "32",
                "name": "Dinan",
                "id": "2277"
            },
            "geometry": {
                "type": "Point",
                "coordinates": [
                    -2.05346000000,
                    48.45680000000
                ]
            }
        },
        {
            "type": "Feature",
            "properties": {
                "icon": "32",
                "id": "2139",
                "name": "Plouguenast-Langast"
            },
            "geometry": {
                "type": "Point",
                "coordinates": [
                    -2.70389000000,
                    48.28098000000
                ]
            }
        },
        {
            "type": "Feature",
            "properties": {
                "id": "11321",
                "icon": "39",
                "name": "Carantec"
            },
            "geometry": {
                "type": "Point",
                "coordinates": [
                    -3.92264000000,
                    48.67220000000
                ]
            }
        },
        {
            "type": "Feature",
            "properties": {
                "id": "7945",
                "icon": "39",
                "name": "Le Trévoux"
            },
            "geometry": {
                "type": "Point",
                "coordinates": [
                    -3.63815000000,
                    47.89464000000
                ]
            }
        },
        {
            "type": "Feature",
            "properties": {
                "icon": "76",
                "name": "Sarzeau",
                "id": "14671"
            },
            "geometry": {
                "type": "Point",
                "coordinates": [
                    -2.77386000000,
                    47.52961000000
                ]
            }
        },
        {
            "type": "Feature",
            "properties": {
                "icon": "76",
                "id": "2248",
                "name": "Quiberon"
            },
            "geometry": {
                "type": "Point",
                "coordinates": [
                    -3.12045000000,
                    47.48188000000
                ]
            }
        },
        {
            "type": "Feature",
            "properties": {
                "name": "Dinard",
                "id": "2115",
                "icon": "45"
            },
            "geometry": {
                "type": "Point",
                "coordinates": [
                    -2.05101000000,
                    48.63246000000
                ]
            }
        },
        {
            "type": "Feature",
            "properties": {
                "icon": "76",
                "id": "13005",
                "name": "Camoël"
            },
            "geometry": {
                "type": "Point",
                "coordinates": [
                    -2.39778000000,
                    47.48030000000
                ]
            }
        },
        {
            "type": "Feature",
            "properties": {
                "icon": "76",
                "name": "Saint-Jean-Brévelay",
                "id": "13692"
            },
            "geometry": {
                "type": "Point",
                "coordinates": [
                    -2.72305000000,
                    47.84487000000
                ]
            }
        },
        {
            "type": "Feature",
            "properties": {
                "icon": "39",
                "id": "17128",
                "name": "Plouhinec"
            },
            "geometry": {
                "type": "Point",
                "coordinates": [
                    -4.53296000000,
                    48.01656000000
                ]
            }
        },
        {
            "type": "Feature",
            "properties": {
                "icon": "32",
                "name": "Lannion",
                "id": "6385"
            },
            "geometry": {
                "type": "Point",
                "coordinates": [
                    -3.44316000000,
                    48.73153000000
                ]
            }
        },
        {
            "type": "Feature",
            "properties": {
                "name": "Lanvéoc",
                "id": "2072",
                "icon": "39"
            },
            "geometry": {
                "type": "Point",
                "coordinates": [
                    -4.45930000000,
                    48.29264000000
                ]
            }
        },
        {
            "type": "Feature",
            "properties": {
                "icon": "32",
                "id": "2281",
                "name": "Dinan"
            },
            "geometry": {
                "type": "Point",
                "coordinates": [
                    -2.04146000000,
                    48.46378000000
                ]
            }
        },
        {
            "type": "Feature",
            "properties": {
                "icon": "32",
                "name": "Perros-Guirec",
                "id": "2155"
            },
            "geometry": {
                "type": "Point",
                "coordinates": [
                    -3.45699000000,
                    48.81520000000
                ]
            }
        },
        {
            "type": "Feature",
            "properties": {
                "icon": "32",
                "name": "Saint-Caradec",
                "id": "11847"
            },
            "geometry": {
                "type": "Point",
                "coordinates": [
                    -2.85037000000,
                    48.19153000000
                ]
            }
        },
        {
            "type": "Feature",
            "properties": {
                "name": "Lorient",
                "icon": "76",
                "id": "7280"
            },
            "geometry": {
                "type": "Point",
                "coordinates": [
                    -3.37199000000,
                    47.76181000000
                ]
            }
        },
        {
            "type": "Feature",
            "properties": {
                "icon": "76",
                "id": "252",
                "name": "Auray"
            },
            "geometry": {
                "type": "Point",
                "coordinates": [
                    -2.98602000000,
                    47.66696000000
                ]
            }
        },
        {
            "type": "Feature",
            "properties": {
                "icon": "32",
                "name": "Lannion",
                "id": "6377"
            },