
{
    "type": "FeatureCollection",
    "generator": "JOSM",
    "features": [
        {
            "type": "Feature",
            "properties": {
                "name": "Marcq-en-Barœul",
                "id": "4704",
                "icon": "79"
            },
            "geometry": {
                "type": "Point",
                "coordinates": [
                    3.07217000000,
                    50.66587000000
                ]
            }
        },
        {
            "type": "Feature",
            "properties": {
                "name": "Lys-lez-Lannoy",
                "icon": "79",
                "id": "9545"
            },
            "geometry": {
                "type": "Point",
                "coordinates": [
                    3.21492000000,
                    50.67047000000
                ]
            }
        },
        {
            "type": "Feature",
            "properties": {
                "name": "Laon",
                "id": "5044",
                "icon": "12"
            },
            "geometry": {
                "type": "Point",
                "coordinates": [
                    3.62311000000,
                    49.56422000000
                ]
            }
        },
        {
            "type": "Feature",
            "properties": {
                "id": "13800",
                "icon": "80",
                "name": "Neufvy-sur-Aronde"
            },
            "geometry": {
                "type": "Point",
                "coordinates": [
                    2.66340000000,
                    49.49628000000
                ]
            }
        },
        {
            "type": "Feature",
            "properties": {
                "id": "17326",
                "name": "Blangy-Tronville",
                "icon": "100"
            },
            "geometry": {
                "type": "Point",
                "coordinates": [
                    2.42322000000,
                    49.88045000000
                ]
            }
        },
        {
            "type": "Feature",
            "properties": {
                "id": "4754",
                "icon": "82",
                "name": "Saint-Omer"
            },
            "geometry": {
                "type": "Point",
                "coordinates": [
                    2.26089000000,
                    50.75219000000
                ]
            }
        },
        {
            "type": "Feature",
            "properties": {
                "name": "Beugneux",
                "id": "12603",
                "icon": "12"
            },
            "geometry": {
                "type": "Point",
                "coordinates": [
                    3.41394000000,
                    49.23461000000
                ]
            }
        },
        {
            "type": "Feature",
            "properties": {
                "icon": "82",
                "name": "Auxi-le-Château",
                "id": "15343"
            },
            "geometry": {
                "type": "Point",
                "coordinates": [
                    2.11030000000,
                    50.23102000000
                ]
            }
        },
        {
            "type": "Feature",
            "properties": {
                "name": "Amiens",
                "id": "4588",
                "icon": "100"
            },
            "geometry": {
                "type": "Point",
                "coordinates": [
                    2.30311000000,
                    49.88774000000
                ]
            }
        },
        {
            "type": "Feature",
            "properties": {
                "icon": "82",
                "id": "2978",
                "name": "Hulluch"
            },
            "geometry": {
                "type": "Point",
                "coordinates": [
                    2.81813000000,
                    50.48340000000
                ]
            }
        },
        {
            "type": "Feature",
            "properties": {
                "id": "8020",
                "icon": "79",
                "name": "Roubaix"
            },
            "geometry": {
                "type": "Point",
                "coordinates": [
                    3.16010000000,
                    50.69169000000
                ]
            }
        },
        {
            "type": "Feature",
            "properties": {
                "icon": "82",
                "name": "Ecques",
                "id": "4826"
            },
            "geometry": {
                "type": "Point",
                "coordinates": [
                    2.30879000000,
                    50.68072000000
                ]
            }
        },
        {
            "type": "Feature",
            "properties": {
                "name": "Agnicourt-et-Séchelles",
                "id": "14442",
                "icon": "12"
            },
            "geometry": {
                "type": "Point",
                "coordinates": [
                    3.95420000000,
                    49.71733000000
                ]
            }
        },
        {
            "type": "Feature",
            "properties": {
                "icon": "79",
                "id": "18059",
                "name": "Noyelles-lès-Seclin"
            },
            "geometry": {
                "type": "Point",
                "coordinates": [
                    3.01234000000,
                    50.57598000000
                ]
            }
        },
        {
            "type": "Feature",
            "properties": {
                "icon": "79",
                "id": "4695",
                "name": "Le Cateau-Cambrésis"
            },
            "geometry": {
                "type": "Point",
                "coordinates": [
                    3.54088000000,
                    50.10905000000
                ]
            }
        },
        {
            "type": "Feature",
            "properties": {
                "name": "Saint-Quentin",
                "id": "7468",
                "icon": "12"
            },
            "geometry": {
                "type": "Point",
                "coordinates": [
                    3.31113000000,
                    49.84561000000
                ]
            }
        },
        {
            "type": "Feature",
            "properties": {
                "id": "3019",
                "icon": "82",
                "name": "Saint-Omer"
            },
            "geometry": {
                "type": "Point",
                "coordinates": [
                    2.24778000000,
                    50.74872000000
                ]
            }
        },
        {
            "type": "Feature",
            "properties": {
                "icon": "80",
                "id": "4210",
                "name": "Chantilly"
            },
            "geometry": {
                "type": "Point",
                "coordinates": [
                    2.46005000000,
                    49.18726000000
                ]
            }
        },
        {
            "type": "Feature",
            "properties": {
                "name": "Boursies",
                "icon": "79",
                "id": "9765"
            },
            "geometry": {
                "type": "Point",
                "coordinates": [
                    3.03509000000,
                    50.14058000000
                ]
            }
        },
        {
            "type": "Feature",
            "properties": {
                "id": "154",
                "name": "Amiens",
                "icon": "100"
            },
            "geometry": {
                "type": "Point",
                "coordinates": [
                    2.31214000000,
                    49.91076000000
                ]
            }
        },
        {
            "type": "Feature",
            "properties": {
                "icon": "80",
                "id": "17439",
                "name": "Mouy"
            },
            "geometry": {
                "type": "Point",
                "coordinates": [
                    2.30581000000,
                    49.32290000000
                ]
            }
        },
        {
            "type": "Feature",
            "properties": {
                "icon": "82",
                "name": "Saint-Martin-d'Hardinghem",
                "id": "4761"
            },
            "geometry": {
                "type": "Point",
                "coordinates": [
                    2.09562000000,
                    50.60458000000
                ]
            }
        },
        {
            "type": "Feature",
            "properties": {
                "icon": "82",
                "id": "3021",
                "name": "Serques"
            },
            "geometry": {
                "type": "Point",
                "coordinates": [
                    2.20149000000,
                    50.79302000000
                ]
            }
        },
        {
            "type": "Feature",
            "properties": {
                "name": "Marcelcave",
                "id": "13096",
                "icon": "100"
            },
            "geometry": {
                "type": "Point",
                "coordinates": [
                    2.57326000000,
                    49.84899000000
                ]
            }
        },
        {
            "type": "Feature",
            "properties": {
                "icon": "82",
                "id": "16635",
                "name": "Baincthun"
            },
            "geometry": {
                "type": "Point",
                "coordinates": [
                    1.67333000000,
                    50.71215000000
                ]
            }
        },
        {
            "type": "Feature",
            "properties": {
                "id": "4506",
                "name": "Bachant",
                "icon": "79"
            },
            "geometry": {
                "type": "Point",
                "coordinates": [
                    3.86041000000,
                    50.21347000000
                ]
            }
        },
        {
            "type": "Feature",
            "properties": {
                "id": "2952",
                "name": "Haverskerque",
                "icon": "79"
            },
            "geometry": {
                "type": "Point",
                "coordinates": [
                    2.54924000000,
                    50.62729000000
                ]
            }
        },
        {
            "type": "Feature",
            "properties": {
                "id": "2565",
                "name": "Coudekerque-Branche",
                "icon": "79"
            },
            "geometry": {
                "type": "Point",
                "coordinates": [
                    2.39210000000,
                    51.02641000000
                ]
            }
        },
        {
            "type": "Feature",
            "properties": {
                "icon": "82",
                "id": "2900",
                "name": "Etaples"
            },
            "geometry": {
                "type": "Point",
                "coordinates": [
                    1.63877000000,
                    50.51982000000
                ]
            }
        },
        {
            "type": "Feature",
            "properties": {
                "name": "Mers-les-Bains",
                "id": "11332",
                "icon": "100"
            },
            "geometry": {
                "type": "Point",
                "coordinates": [
                    1.38440000000,
                    50.06772000000
                ]
            }
        },
        {
            "type": "Feature",
            "properties": {
                "id": "4800",
                "icon": "82",
                "name": "Ecques"
            },
            "geometry": {
                "type": "Point",
                "coordinates": [
                    2.28990000000,
                    50.67020000000
                ]
            }
        },
        {
            "type": "Feature",
            "properties": {
                "name": "Aubers",
                "icon": "79",
                "id": "14718"
            },
            "geometry": {
                "type": "Point",
                "coordinates": [
                    2.82506000000,
                    50.59505000000
                ]
            }
        },
        {
            "type": "Feature",
            "properties": {
                "name": "Château-Thierry",
                "id": "1911",
                "icon": "12"
            },
            "geometry": {
                "type": "Point",
                "coordinates": [
                    3.40229000000,
                    49.04451000000
                ]
            }
        },
        {
            "type": "Feature",
            "properties": {
                "id": "4584",
                "icon": "100",
                "name": "Pont-de-Metz"
            },
            "geometry": {
                "type": "Point",
                "coordinates": [
                    2.24357000000,
                    49.88150000000
                ]
            }
        },
        {
            "type": "Feature",
            "properties": {
                "name": "Hazebrouck",
                "icon": "79",
                "id": "2960"
            },
            "geometry": {
                "type": "Point",
                "coordinates": [
                    2.53737000000,
                    50.72282000000
                ]
            }
        },
        {
            "type": "Feature",
            "properties": {
                "name": "Saint-Pierre-Aigle",
                "id": "7644",
                "icon": "12"
            },
            "geometry": {
                "type": "Point",
                "coordinates": [
                    3.18364000000,
                    49.32178000000
                ]
            }
        },
        {
            "type": "Feature",
            "properties": {
                "id": "9218",
                "icon": "79",
                "name": "Seclin"
            },
            "geometry": {
                "type": "Point",
                "coordinates": [
                    3.03173000000,
                    50.55329000000
                ]
            }
        },
        {
            "type": "Feature",
            "properties": {
                "icon": "80",
                "id": "13271",
                "name": "Creil"
            },
            "geometry": {
                "type": "Point",
                "coordinates": [
                    2.47388000000,
                    49.26231000000
                ]
            }
        },
        {
            "type": "Feature",
            "properties": {
                "icon": "82",
                "name": "Blendecques",
                "id": "4808"
            },
            "geometry": {
                "type": "Point",
                "coordinates": [
                    2.27125000000,
                    50.71462000000
                ]
            }
        },
        {
            "type": "Feature",
            "properties": {
                "icon": "82",
                "name": "Autingues",
                "id": "15018"
            },
            "geometry": {
                "type": "Point",
                "coordinates": [
                    1.98496000000,
                    50.84164000000
                ]
            }
        },
        {
            "type": "Feature",
            "properties": {
                "name": "Armentières",
                "icon": "79",
                "id": "3001"
            },
            "geometry": {
                "type": "Point",
                "coordinates": [
                    2.86858000000,
                    50.68420000000
                ]
            }
        },
        {
            "type": "Feature",
            "properties": {
                "id": "4734",
                "icon": "82",
                "name": "Wizernes"
            },
            "geometry": {
                "type": "Point",
                "coordinates": [
                    2.22890000000,
                    50.71519000000
                ]
            }
        },
        {
            "type": "Feature",
            "properties": {
                "name": "Bergues",
                "icon": "79",
                "id": "9269"
            },
            "geometry": {
                "type": "Point",
                "coordinates": [
                    2.43777000000,
                    50.97207000000
                ]
            }
        },
        {
            "type": "Feature",
            "properties": {
                "id": "13779",
                "name": "Brenouille",
                "icon": "80"
            },
            "geometry": {
                "type": "Point",
                "coordinates": [
                    2.53740000000,
                    49.30510000000
                ]
            }
        },
        {
            "type": "Feature",
            "properties": {
                "id": "1921",
                "name": "Ressons-le-Long",
                "icon": "12"
            },
            "geometry": {
                "type": "Point",
                "coordinates": [
                    3.14767000000,
                    49.38756000000
                ]
            }
        },
        {
            "type": "Feature",
            "properties": {
                "name": "Allonville",
                "icon": "100",
                "id": "5202"
            },
            "geometry": {
                "type": "Point",
                "coordinates": [
                    2.36291000000,
                    49.94050000000
                ]
            }
        },
        {
            "type": "Feature",
            "properties": {
                "name": "Boulogne-sur-Mer",
                "icon": "82",
                "id": "2596"
            },
            "geometry": {
                "type": "Point",
                "coordinates": [
                    1.61598000000,
                    50.72651000000
                ]
            }
        },
        {
            "type": "Feature",
            "properties": {
                "icon": "80",
                "id": "7987",
                "name": "Verneuil-en-Halatte"
            },
            "geometry": {
                "type": "Point",
                "coordinates": [
                    2.51730000000,
                    49.27439000000
                ]
            }
        },
        {
            "type": "Feature",
            "properties": {
                "icon": "82",
                "name": "Tournehem-sur-la-Hem",
                "id": "4742"
            },
            "geometry": {
                "type": "Point",
                "coordinates": [
                    2.04897000000,
                    50.80634000000
                ]
            }
        },
        {
            "type": "Feature",
            "properties": {
                "name": "Santes",
                "id": "11365",
                "icon": "79"
            },
            "geometry": {
                "type": "Point",
                "coordinates": [
                    2.96105000000,
                    50.59181000000
                ]
            }
        },
        {
            "type": "Feature",
            "properties": {
                "icon": "82",
                "id": "15134",
                "name": "Avion"
            },
            "geometry": {
                "type": "Point",
                "coordinates": [
                    2.81417000000,
                    50.40736000000
                ]
            }
        },
        {
            "type": "Feature",
            "properties": {
                "name": "Amiens",
                "id": "4593",
                "icon": "100"
            },
            "geometry": {
                "type": "Point",
                "coordinates": [
                    2.29786000000,
                    49.89348000000
                ]
            }
        },
        {
            "type": "Feature",
            "properties": {
                "id": "2966",
                "name": "Godewaersvelde",
                "icon": "79"
            },
            "geometry": {
                "type": "Point",
                "coordinates": [
                    2.64320000000,
                    50.79503000000
                ]
            }
        },
        {
            "type": "Feature",
            "properties": {
                "id": "2896",
                "name": "Rang-du-Fliers",
                "icon": "82"
            },
            "geometry": {
                "type": "Point",
                "coordinates": [
                    1.64802000000,
                    50.41577000000
                ]
            }
        },
        {
            "type": "Feature",
            "properties": {
                "icon": "82",
                "name": "Laires",
                "id": "4783"
            },
            "geometry": {
                "type": "Point",
                "coordinates": [
                    2.25173000000,
                    50.53865000000
                ]
            }
        },
        {
            "type": "Feature",
            "properties": {
                "icon": "82",
                "name": "Aire-sur-la-Lys",
                "id": "14393"
            },
            "geometry": {
                "type": "Point",
                "coordinates": [
                    2.39287000000,
                    50.64097000000
                ]
            }
        },
        {
            "type": "Feature",
            "properties": {
                "id": "3007",
                "icon": "82",
                "name": "Bomy"
            },
            "geometry": {
                "type": "Point",
                "coordinates": [
                    2.23502000000,
                    50.57435000000
                ]
            }
        },
        {
            "type": "Feature",
            "properties": {
                "name": "Doignies",
                "id": "9761",
                "icon": "79"
            },
            "geometry": {
                "type": "Point",
                "coordinates": [
                    3.01579000000,
                    50.12820000000
                ]
            }
        },
        {
            "type": "Feature",
            "properties": {
                "name": "Vierzy",
                "id": "12635",
                "icon": "12"
            },
            "geometry": {
                "type": "Point",
                "coordinates": [
                    3.28485000000,
                    49.29165000000
                ]
            }
        },
        {
            "type": "Feature",
            "properties": {
                "id": "2016",
                "name": "Dangu",
                "icon": "37"
            },
            "geometry": {
                "type": "Point",
                "coordinates": [
                    1.71208000000,
                    49.25395000000
                ]
            }
        },
        {
            "type": "Feature",
            "properties": {
                "name": "Vieux-Mesnil",
                "icon": "79",
                "id": "8525"
            },
            "geometry": {
                "type": "Point",
                "coordinates": [
                    3.86449000000,
                    50.25453000000
                ]
            }
        },
        {
            "type": "Feature",
            "properties": {
                "name": "Marcq-en-Barœul",
                "id": "4706",
                "icon": "79"
            },
            "geometry": {
                "type": "Point",
                "coordinates": [
                    3.09316000000,
                    50.67862000000
                ]
            }
        },
        {
            "type": "Feature",
            "properties": {
                "icon": "82",
                "name": "Hallines",
                "id": "3015"
            },
            "geometry": {
                "type": "Point",
                "coordinates": [
                    2.22940000000,
                    50.70407000000
                ]
            }
        },
        {
            "type": "Feature",
            "properties": {
                "icon": "82",
                "name": "Calais",
                "id": "16450"
            },
            "geometry": {
                "type": "Point",
                "coordinates": [
                    1.85340000000,
                    50.94873000000
                ]
            }
        },
        {
            "type": "Feature",
            "properties": {
                "id": "2940",
                "icon": "82",
                "name": "Lestrem"
            },
            "geometry": {
                "type": "Point",
                "coordinates": [
                    2.68430000000,
                    50.62091000000
                ]
            }
        },
        {
            "type": "Feature",
            "properties": {
                "id": "2555",
                "name": "Coudekerque-Branche",
                "icon": "79"
            },
            "geometry": {
                "type": "Point",
                "coordinates": [
                    2.37088000000,
                    51.02066000000
                ]
            }
        },
        {
            "type": "Feature",
            "properties": {
                "name": "Trelon",
                "id": "11192",
                "icon": "79"
            },
            "geometry": {
                "type": "Point",
                "coordinates": [
                    4.10457000000,
                    50.05891000000
                ]
            }
        },
        {
            "type": "Feature",
            "properties": {
                "id": "4789",
                "icon": "82",
                "name": "Herbelles"
            },
            "geometry": {
                "type": "Point",
                "coordinates": [
                    2.22243000000,
                    50.65475000000
                ]
            }
        },
        {
            "type": "Feature",
            "properties": {
                "id": "14595",
                "name": "Armancourt",
                "icon": "100"
            },
            "geometry": {
                "type": "Point",
                "coordinates": [
                    2.71091000000,
                    49.67772000000
                ]
            }
        },
        {
            "type": "Feature",
            "properties": {
                "id": "2358",
                "name": "Genech",
                "icon": "79"
            },
            "geometry": {
                "type": "Point",
                "coordinates": [
                    3.21334000000,
                    50.53063000000
                ]
            }
        },
        {
            "type": "Feature",
            "properties": {
                "id": "2948",
                "name": "Merville",
                "icon": "79"
            },
            "geometry": {
                "type": "Point",
                "coordinates": [
                    2.61945000000,
                    50.67375000000
                ]
            }
        },
        {
            "type": "Feature",
            "properties": {
                "name": "La Loge",
                "icon": "82",
                "id": "9214"
            },
            "geometry": {
                "type": "Point",
                "coordinates": [
                    2.03130000000,
                    50.41023000000
                ]
            }
        },
        {
            "type": "Feature",
            "properties": {
                "icon": "80",
                "name": "Laigneville",
                "id": "13267"
            },
            "geometry": {
                "type": "Point",
                "coordinates": [
                    2.44398000000,
                    49.29372000000
                ]
            }
        },
        {
            "type": "Feature",
            "properties": {
                "name": "Croix-Moligneaux",
                "id": "1529",
                "icon": "100"
            },
            "geometry": {
                "type": "Point",
                "coordinates": [
                    3.00304000000,
                    49.81569000000
                ]
            }
        },
        {
            "type": "Feature",
            "properties": {
                "id": "2988",
                "name": "La Chapelle-d'Armentières",
                "icon": "79"
            },
            "geometry": {
                "type": "Point",
                "coordinates": [
                    2.92717000000,
                    50.65939000000
                ]
            }
        },
        {
            "type": "Feature",
            "properties": {
                "icon": "82",
                "id": "4738",
                "name": "Wittes"
            },
            "geometry": {
                "type": "Point",
                "coordinates": [
                    2.39261000000,
                    50.66885000000
                ]
            }
        },
        {
            "type": "Feature",
            "properties": {
                "name": "Bergues",
                "icon": "79",
                "id": "9267"
            },
            "geometry": {
                "type": "Point",
                "coordinates": [
                    2.43209000000,
                    50.96642000000
                ]
            }
        },
        {
            "type": "Feature",
            "properties": {
                "id": "301",
                "icon": "79",
                "name": "Bailleul"
            },
            "geometry": {
                "type": "Point",
                "coordinates": [
                    2.73474000000,
                    50.73906000000
                ]
            }
        },
        {
            "type": "Feature",
            "properties": {
                "name": "Pasly",
                "id": "1913",
                "icon": "12"
            },
            "geometry": {
                "type": "Point",
                "coordinates": [
                    3.29789000000,
                    49.40192000000
                ]
            }
        },
        {
            "type": "Feature",
            "properties": {
                "id": "5207",
                "name": "Condé-sur-l'Escaut",
                "icon": "79"
            },
            "geometry": {
                "type": "Point",
                "coordinates": [
                    3.59969000000,
                    50.45009000000
                ]
            }
        },
        {
            "type": "Feature",
            "properties": {
                "name": "Boulogne-sur-Mer",
                "icon": "82",
                "id": "2594"
            },
            "geometry": {
                "type": "Point",
                "coordinates": [
                    1.60484000000,
                    50.72453000000
                ]
            }
        },
        {
            "type": "Feature",
            "properties": {
                "name": "Vauxaillon",
                "id": "7894",
                "icon": "12"
            },
            "geometry": {
                "type": "Point",
                "coordinates": [
                    3.40708000000,
                    49.47704000000
                ]
            }
        },
        {
            "type": "Feature",
            "properties": {
                "id": "4746",
                "icon": "82",
                "name": "Thérouanne"
            },
            "geometry": {
                "type": "Point",
                "coordinates": [
                    2.25789000000,
                    50.63567000000
                ]
            }
        },
        {
            "type": "Feature",
            "properties": {
                "name": "Saint-Valery-sur-Somme",
                "id": "13689",
                "icon": "100"
            },
            "geometry": {
                "type": "Point",
                "coordinates": [
                    1.64245000000,
                    50.18463000000
                ]
            }
        },
        {
            "type": "Feature",
            "properties": {
                "name": "Bachy",
                "id": "15124",
                "icon": "79"
            },
            "geometry": {
                "type": "Point",
                "coordinates": [
                    3.25686000000,
                    50.54923000000
                ]
            }
        },
        {
            "type": "Feature",
            "properties": {
                "icon": "82",
                "id": "2938",
                "name": "Lestrem"
            },
            "geometry": {
                "type": "Point",
                "coordinates": [
                    2.67954000000,
                    50.61827000000
                ]
            }
        },
        {
            "type": "Feature",
            "properties": {
                "icon": "80",
                "name": "Feuquières",
                "id": "9686"
            },
            "geometry": {
                "type": "Point",
                "coordinates": [
                    1.84484000000,
                    49.64706000000
                ]
            }
        },
        {
            "type": "Feature",
            "properties": {
                "name": "Heuringhem",
                "id": "4787",
                "icon": "82"
            },
            "geometry": {
                "type": "Point",
                "coordinates": [
                    2.28376000000,
                    50.69767000000
                ]
            }
        },
        {
            "type": "Feature",
            "properties": {
                "icon": "80",
                "id": "13798",
                "name": "Jaux"
            },
            "geometry": {
                "type": "Point",
                "coordinates": [
                    2.77643000000,
                    49.38664000000
                ]
            }
        },
        {
            "type": "Feature",
            "properties": {
                "name": "Saint-Gobain",
                "id": "1939",
                "icon": "12"
            },
            "geometry": {
                "type": "Point",
                "coordinates": [
                    3.37930000000,
                    49.59553000000
                ]
            }
        },
        {
            "type": "Feature",
            "properties": {
                "icon": "82",
                "name": "Fauquembergues",
                "id": "3011"
            },
            "geometry": {
                "type": "Point",
                "coordinates": [
                    2.09861000000,
                    50.60041000000
                ]
            }
        },
        {
            "type": "Feature",
            "properties": {
                "name": "Oulchy-la-ville",
                "id": "12627",
                "icon": "12"
            },
            "geometry": {
                "type": "Point",
                "coordinates": [
                    3.34915000000,
                    49.21326000000
                ]
            }
        },
        {
            "type": "Feature",
            "properties": {
                "icon": "82",
                "name": "Auxi-le-Château",
                "id": "15341"
            },
            "geometry": {
                "type": "Point",
                "coordinates": [
                    2.11853000000,
                    50.23685000000
                ]
            }
        },
        {
            "type": "Feature",
            "properties": {
                "id": "8024",
                "icon": "79",
                "name": "Roubaix"
            },
            "geometry": {
                "type": "Point",
                "coordinates": [
                    3.20120000000,
                    50.68097000000
                ]
            }
        },
        {
            "type": "Feature",
            "properties": {
                "id": "4936",
                "icon": "80",
                "name": "Froissy"
            },
            "geometry": {
                "type": "Point",
                "coordinates": [
                    2.22022000000,
                    49.56562000000
                ]
            }
        },
        {
            "type": "Feature",
            "properties": {
                "id": "4710",
                "name": "Marcq-en-Barœul",
                "icon": "79"
            },
            "geometry": {
                "type": "Point",
                "coordinates": [
                    3.10122000000,
                    50.65800000000
                ]
            }
        },
        {
            "type": "Feature",
            "properties": {
                "name": "Bazoches-sur-Vesles",
                "icon": "12",
                "id": "15595"
            },
            "geometry": {
                "type": "Point",
                "coordinates": [
                    3.61934000000,
                    49.30696000000
                ]
            }
        },
        {
            "type": "Feature",
            "properties": {
                "id": "2944",
                "name": "Merville",
                "icon": "79"
            },
            "geometry": {
                "type": "Point",
                "coordinates": [
                    2.64137000000,
                    50.64419000000
                ]
            }
        },
        {
            "type": "Feature",
            "properties": {
                "name": "Templeuve-en-Pévèle",
                "id": "2360",
                "icon": "79"
            },
            "geometry": {
                "type": "Point",
                "coordinates": [
                    3.17583000000,
                    50.52840000000
                ]
            }
        },
        {
            "type": "Feature",
            "properties": {
                "icon": "79",
                "id": "9763",
                "name": "Cantaing-sur-Escaut"
            },
            "geometry": {
                "type": "Point",
                "coordinates": [
                    3.16220000000,
                    50.14778000000
                ]
            }
        },
        {
            "type": "Feature",
            "properties": {
                "icon": "80",
                "id": "4938",
                "name": "Crevecoeur-le-Grand"
            },
            "geometry": {
                "type": "Point",
                "coordinates": [
                    2.07652000000,
                    49.60847000000
                ]
            }
        },
        {
            "type": "Feature",
            "properties": {
                "icon": "82",
                "name": "Éperlecques",
                "id": "4792"
            },
            "geometry": {
                "type": "Point",
                "coordinates": [
                    2.19939000000,
                    50.82219000000
                ]
            }
        },
        {
            "type": "Feature",
            "properties": {
                "id": "14556",
                "icon": "80",
                "name": "Appilly"
            },
            "geometry": {
                "type": "Point",
                "coordinates": [
                    3.11864000000,
                    49.58225000000
                ]
            }
        },
        {
            "type": "Feature",
            "properties": {
                "name": "Saleux",
                "icon": "100",
                "id": "5125"
            },
            "geometry": {
                "type": "Point",
                "coordinates": [
                    2.23971000000,
                    49.85930000000
                ]
            }
        },
        {
            "type": "Feature",
            "properties": {
                "id": "2356",
                "icon": "79",
                "name": "Hasnon"
            },
            "geometry": {
                "type": "Point",
                "coordinates": [
                    3.40256000000,
                    50.41268000000
                ]
            }
        },
        {
            "type": "Feature",
            "properties": {
                "id": "2984",
                "name": "Faches-Thumesnil",
                "icon": "79"
            },
            "geometry": {
                "type": "Point",
                "coordinates": [
                    3.08044000000,
                    50.58247000000
                ]
            }
        },
        {
            "type": "Feature",
            "properties": {
                "id": "12631",
                "name": "Parcy-et-Tigny",
                "icon": "12"
            },
            "geometry": {
                "type": "Point",
                "coordinates": [
                    3.33282000000,
                    49.27848000000
                ]
            }
        },
        {
            "type": "Feature",
            "properties": {
                "icon": "100",
                "id": "16464",
                "name": "Beaucourt-en-Santerre"
            },
            "geometry": {
                "type": "Point",
                "coordinates": [
                    2.58407000000,
                    49.79310000000
                ]
            }
        },
        {
            "type": "Feature",
            "properties": {
                "name": "Fréthun",
                "icon": "82",
                "id": "2580"
            },
            "geometry": {
                "type": "Point",
                "coordinates": [
                    1.81571000000,
                    50.91277000000
                ]
            }
        },
        {
            "type": "Feature",
            "properties": {
                "name": "La Chapelle-d'Armentières",
                "icon": "79",
                "id": "2992"
            },
            "geometry": {
                "type": "Point",
                "coordinates": [
                    2.88999000000,
                    50.67619000000
                ]
            }
        },
        {
            "type": "Feature",
            "properties": {
                "id": "11268",
                "name": "Conteville-lès-Boulogne",
                "icon": "82"
            },
            "geometry": {
                "type": "Point",
                "coordinates": [
                    1.73319000000,
                    50.74457000000
                ]
            }
        },
        {
            "type": "Feature",
            "properties": {
                "icon": "79",
                "id": "14707",
                "name": "Auchy-lez-Orchies"
            },
            "geometry": {
                "type": "Point",
                "coordinates": [
                    3.20422000000,
                    50.48020000000
                ]
            }
        },
        {
            "type": "Feature",
            "properties": {
                "icon": "82",
                "name": "Bours",
                "id": "17101"
            },
            "geometry": {
                "type": "Point",
                "coordinates": [
                    2.41075000000,
                    50.45464000000
                ]
            }
        },
        {
            "type": "Feature",
            "properties": {
                "name": "Rumigny",
                "id": "5186",
                "icon": "100"
            },
            "geometry": {
                "type": "Point",
                "coordinates": [
                    2.27939000000,
                    49.80776000000
                ]
            }
        },
        {
            "type": "Feature",
            "properties": {
                "icon": "82",
                "name": "Frévent",
                "id": "7886"
            },
            "geometry": {
                "type": "Point",
                "coordinates": [
                    2.29329000000,
                    50.27840000000
                ]
            }
        },
        {
            "type": "Feature",
            "properties": {
                "id": "4767",
                "icon": "82",
                "name": "Racquinghem"
            },
            "geometry": {
                "type": "Point",
                "coordinates": [
                    2.35659000000,
                    50.69289000000
                ]
            }
        },
        {
            "type": "Feature",
            "properties": {
                "id": "13269",
                "icon": "80",
                "name": "Clermont"
            },
            "geometry": {
                "type": "Point",
                "coordinates": [
                    2.41767000000,
                    49.38493000000
                ]
            }
        },
        {
            "type": "Feature",
            "properties": {
                "name": "Pissy",
                "id": "5177",
                "icon": "100"
            },
            "geometry": {
                "type": "Point",
                "coordinates": [
                    2.13050000000,
                    49.86196000000
                ]
            }
        },
        {
            "type": "Feature",
            "properties": {
                "icon": "82",
                "name": "Bazinghen",
                "id": "361"
            },
            "geometry": {
                "type": "Point",
                "coordinates": [
                    1.66212000000,
                    50.82481000000
                ]
            }
        },
        {
            "type": "Feature",
            "properties": {
                "icon": "82",
                "id": "2926",
                "name": "Laventie"
            },
            "geometry": {
                "type": "Point",
                "coordinates": [
                    2.77038000000,
                    50.62478000000
                ]
            }
        },
        {
            "type": "Feature",
            "properties": {
                "icon": "82",
                "id": "2922",
                "name": "Radinghem-en-Weppes"
            },
            "geometry": {
                "type": "Point",
                "coordinates": [
                    2.90498000000,
                    50.62192000000
                ]
            }
        },
        {
            "type": "Feature",
            "properties": {
                "name": "Lys-lez-Lannoy",
                "icon": "79",
                "id": "9543"
            },
            "geometry": {
                "type": "Point",
                "coordinates": [
                    3.22690000000,
                    50.67414000000
                ]
            }
        },
        {
            "type": "Feature",
            "properties": {
                "icon": "82",
                "name": "Moulle",
                "id": "4775"
            },
            "geometry": {
                "type": "Point",
                "coordinates": [
                    2.17679000000,
                    50.78946000000
                ]
            }
        },
        {
            "type": "Feature",
            "properties": {
                "name": "Coincy",
                "id": "13777",
                "icon": "12"
            },
            "geometry": {
                "type": "Point",
                "coordinates": [
                    3.42134000000,
                    49.16067000000
                ]
            }
        },
        {
            "type": "Feature",
            "properties": {
                "name": "Ressons-le-Long",
                "id": "1927",
                "icon": "12"
            },
            "geometry": {
                "type": "Point",
                "coordinates": [
                    3.11413000000,
                    49.39498000000
                ]
            }
        },
        {
            "type": "Feature",
            "properties": {
                "icon": "82",
                "id": "2603",
                "name": "Zutkerque"
            },
            "geometry": {
                "type": "Point",
                "coordinates": [
                    2.06784000000,
                    50.85361000000
                ]
            }
        },
        {
            "type": "Feature",
            "properties": {
                "id": "2999",
                "name": "Houplines",
                "icon": "79"
            },
            "geometry": {
                "type": "Point",
                "coordinates": [
                    2.90329000000,
                    50.68927000000
                ]
            }
        },
        {
            "type": "Feature",
            "properties": {
                "name": "Boncourt",
                "id": "7974",
                "icon": "12"
            },
            "geometry": {
                "type": "Point",
                "coordinates": [
                    3.94506000000,
                    49.61593000000
                ]
            }
        },
        {
            "type": "Feature",
            "properties": {
                "name": "Cuiry-Housse",
                "id": "12619",
                "icon": "12"
            },
            "geometry": {
                "type": "Point",
                "coordinates": [
                    3.49234000000,
                    49.29507000000
                ]
            }
        },
        {
            "type": "Feature",
            "properties": {
                "icon": "82",
                "id": "4814",
                "name": "Bayenghem-lès-Éperlecques"
            },
            "geometry": {
                "type": "Point",
                "coordinates": [
                    2.12521000000,
                    50.80611000000
                ]
            }
        },
        {
            "type": "Feature",
            "properties": {
                "icon": "82",
                "name": "Avion",
                "id": "15132"
            },
            "geometry": {
                "type": "Point",
                "coordinates": [
                    2.83432000000,
                    50.41452000000
                ]
            }
        },
        {
            "type": "Feature",
            "properties": {
                "name": "Avesnes les Aubert",
                "icon": "79",
                "id": "4698"
            },
            "geometry": {
                "type": "Point",
                "coordinates": [
                    3.37788000000,
                    50.19762000000
                ]
            }
        },
        {
            "type": "Feature",
            "properties": {
                "icon": "80",
                "id": "14477",
                "name": "Andeville"
            },
            "geometry": {
                "type": "Point",
                "coordinates": [
                    2.16663000000,
                    49.25895000000
                ]
            }
        },
        {
            "type": "Feature",
            "properties": {
                "id": "5318",
                "name": "Croix",
                "icon": "79"
            },
            "geometry": {
                "type": "Point",
                "coordinates": [
                    3.16699000000,
                    50.66776000000
                ]
            }
        },
        {
            "type": "Feature",
            "properties": {
                "icon": "82",
                "id": "2932",
                "name": "Sailly-sur-la-Lys"
            },
            "geometry": {
                "type": "Point",
                "coordinates": [
                    2.79844000000,
                    50.66151000000
                ]
            }
        },
        {
            "type": "Feature",
            "properties": {
                "icon": "82",
                "id": "9758",
                "name": "Sorrus"
            },
            "geometry": {
                "type": "Point",
                "coordinates": [
                    1.71768000000,
                    50.45919000000
                ]
            }
        },
        {
            "type": "Feature",
            "properties": {
                "name": "Wingles",
                "id": "4942",
                "icon": "82"
            },
            "geometry": {
                "type": "Point",
                "coordinates": [
                    2.85142000000,
                    50.49442000000
                ]
            }
        },
        {
            "type": "Feature",
            "properties": {
                "icon": "82",
                "id": "4748",
                "name": "Saint-Omer"
            },
            "geometry": {
                "type": "Point",
                "coordinates": [
                    2.26141000000,
                    50.75774000000
                ]
            }
        },
        {
            "type": "Feature",
            "properties": {
                "name": "Saint-Rémy-Blanzy",
                "id": "12633",
                "icon": "12"
            },
            "geometry": {
                "type": "Point",
                "coordinates": [
                    3.31017000000,
                    49.24080000000
                ]
            }
        },
        {
            "type": "Feature",
            "properties": {
                "icon": "82",
                "id": "17855",
                "name": "Echinghen"
            },
            "geometry": {
                "type": "Point",
                "coordinates": [
                    1.64774000000,
                    50.70348000000
                ]
            }
        },
        {
            "type": "Feature",
            "properties": {
                "id": "2972",
                "icon": "79",
                "name": "Estaires"
            },
            "geometry": {
                "type": "Point",
                "coordinates": [
                    2.71905000000,
                    50.64280000000
                ]
            }
        },
        {
            "type": "Feature",
            "properties": {
                "id": "8155",
                "name": "Lanchéres",
                "icon": "100"
            },
            "geometry": {
                "type": "Point",
                "coordinates": [
                    1.55081000000,
                    50.15647000000
                ]
            }
        },
        {
            "type": "Feature",
            "properties": {
                "name": "Douai",
                "id": "2904",
                "icon": "79"
            },
            "geometry": {
                "type": "Point",
                "coordinates": [
                    3.08038000000,
                    50.36796000000
                ]
            }
        },
        {
            "type": "Feature",
            "properties": {
                "id": "4820",
                "icon": "82",
                "name": "Arques"
            },
            "geometry": {
                "type": "Point",
                "coordinates": [
                    2.29391000000,
                    50.72462000000
                ]
            }
        },
        {
            "type": "Feature",
            "properties": {
                "id": "16284",
                "icon": "100",
                "name": "Boves"
            },
            "geometry": {
                "type": "Point",
                "coordinates": [
                    2.39036000000,
                    49.84548000000
                ]
            }
        },
        {
            "type": "Feature",
            "properties": {
                "name": "Les Attaques",
                "icon": "82",
                "id": "2571"
            },
            "geometry": {
                "type": "Point",
                "coordinates": [
                    1.93165000000,
                    50.90487000000
                ]
            }
        },
        {
            "type": "Feature",
            "properties": {
                "name": "Annœullin",
                "icon": "79",
                "id": "2980"
            },
            "geometry": {
                "type": "Point",
                "coordinates": [
                    2.93150000000,
                    50.52941000000
                ]
            }
        },
        {
            "type": "Feature",
            "properties": {
                "icon": "80",
                "name": "Chantilly",
                "id": "4214"
            },
            "geometry": {
                "type": "Point",
                "coordinates": [
                    2.45825000000,
                    49.17706000000
                ]
            }
        },
        {
            "type": "Feature",
            "properties": {
                "id": "9771",
                "icon": "79",
                "name": "Marcoing"
            },
            "geometry": {
                "type": "Point",
                "coordinates": [
                    3.17254000000,
                    50.12155000000
                ]
            }
        },
        {
            "type": "Feature",
            "properties": {
                "id": "158",
                "name": "Amiens",
                "icon": "100"
            },
            "geometry": {
                "type": "Point",
                "coordinates": [
                    2.32337000000,
                    49.88412000000
                ]
            }
        },
        {
            "type": "Feature",
            "properties": {
                "name": "Bouvines",
                "icon": "79",
                "id": "2364"
            },
            "geometry": {
                "type": "Point",
                "coordinates": [
                    3.18864000000,
                    50.57935000000
                ]
            }
        },
        {
            "type": "Feature",
            "properties": {
                "icon": "80",
                "name": "Mouy",
                "id": "7876"
            },
            "geometry": {
                "type": "Point",
                "coordinates": [
                    2.32587000000,
                    49.32040000000
                ]
            }
        },
        {
            "type": "Feature",
            "properties": {
                "id": "9265",
                "name": "Bergues",
                "icon": "79"
            },
            "geometry": {
                "type": "Point",
                "coordinates": [
                    2.43262000000,
                    50.96817000000
                ]
            }
        },
        {
            "type": "Feature",
            "properties": {
                "name": "Moringhem",
                "icon": "82",
                "id": "3023"
            },
            "geometry": {
                "type": "Point",
                "coordinates": [
                    2.12844000000,
                    50.76394000000
                ]
            }
        },
        {
            "type": "Feature",
            "properties": {
                "name": "Nort-Leulinghem",
                "icon": "82",
                "id": "4771"
            },
            "geometry": {
                "type": "Point",
                "coordinates": [
                    2.09223000000,
                    50.80024000000
                ]
            }
        },
        {
            "type": "Feature",
            "properties": {
                "icon": "80",
                "id": "13265",
                "name": "Nogent-sur-Oise"
            },
            "geometry": {
                "type": "Point",
                "coordinates": [
                    2.46595000000,
                    49.27049000000
                ]
            }
        },
        {
            "type": "Feature",
            "properties": {
                "name": "Vers-sur-Selle",
                "id": "5127",
                "icon": "100"
            },
            "geometry": {
                "type": "Point",
                "coordinates": [
                    2.23063000000,
                    49.84295000000
                ]
            }
        },
        {
            "type": "Feature",
            "properties": {
                "id": "1523",
                "icon": "80",
                "name": "Formerie"
            },
            "geometry": {
                "type": "Point",
                "coordinates": [
                    1.72586000000,
                    49.64721000000
                ]
            }
        },
        {
            "type": "Feature",
            "properties": {
                "name": "Fleurbaix",
                "id": "2930",
                "icon": "82"
            },
            "geometry": {
                "type": "Point",
                "coordinates": [
                    2.83592000000,
                    50.65081000000
                ]
            }
        },
        {
            "type": "Feature",
            "properties": {
                "name": "Neuville-en-Ferrain",
                "id": "2910",
                "icon": "79"
            },
            "geometry": {
                "type": "Point",
                "coordinates": [
                    3.15433000000,
                    50.75023000000
                ]
            }
        },
        {
            "type": "Feature",
            "properties": {
                "id": "9539",
                "icon": "79",
                "name": "Aubencheul-au-Bac"
            },
            "geometry": {
                "type": "Point",
                "coordinates": [
                    3.16031000000,
                    50.25674000000
                ]
            }
        },
        {
            "type": "Feature",
            "properties": {
                "id": "4779",
                "name": "Longuenesse",
                "icon": "82"
            },
            "geometry": {
                "type": "Point",
                "coordinates": [
                    2.26671000000,
                    50.74233000000
                ]
            }
        },
        {
            "type": "Feature",
            "properties": {
                "icon": "82",
                "id": "14761",
                "name": "Arras"
            },
            "geometry": {
                "type": "Point",
                "coordinates": [
                    2.77945000000,
                    50.29026000000
                ]
            }
        },
        {
            "type": "Feature",
            "properties": {
                "name": "Ressons-le-Long",
                "id": "1919",
                "icon": "12"
            },
            "geometry": {
                "type": "Point",
                "coordinates": [
                    3.14860000000,
                    49.38759000000
                ]
            }
        },
        {
            "type": "Feature",
            "properties": {
                "name": "Boulogne-sur-Mer",
                "icon": "82",
                "id": "2592"
            },
            "geometry": {
                "type": "Point",
                "coordinates": [
                    1.60434000000,
                    50.72103000000
                ]
            }
        },
        {
            "type": "Feature",
            "properties": {
                "icon": "79",
                "name": "Estaires",
                "id": "2970"
            },
            "geometry": {
                "type": "Point",
                "coordinates": [
                    2.72177000000,
                    50.64440000000
                ]
            }
        },
        {
            "type": "Feature",
            "properties": {
                "id": "7892",
                "icon": "79",
                "name": "Hasnon"
            },
            "geometry": {
                "type": "Point",
                "coordinates": [
                    3.37311000000,
                    50.41791000000
                ]
            }
        },
        {
            "type": "Feature",
            "properties": {
                "id": "12601",
                "name": "Arcy-Sainte-Restitue",
                "icon": "12"
            },
            "geometry": {
                "type": "Point",
                "coordinates": [
                    3.46365000000,
                    49.25279000000
                ]
            }
        },
        {
            "type": "Feature",
            "properties": {
                "name": "Guignemicourt",
                "id": "5184",
                "icon": "100"
            },
            "geometry": {
                "type": "Point",
                "coordinates": [
                    2.17681000000,
                    49.87040000000
                ]
            }
        },
        {
            "type": "Feature",
            "properties": {
                "icon": "82",
                "name": "Arques",
                "id": "4818"
            },
            "geometry": {
                "type": "Point",
                "coordinates": [
                    2.27681000000,
                    50.73955000000
                ]
            }
        },
        {
            "type": "Feature",
            "properties": {
                "name": "Berck",
                "icon": "82",
                "id": "499"
            },
            "geometry": {
                "type": "Point",
                "coordinates": [
                    1.59355000000,
                    50.40773000000
                ]
            }
        },
        {
            "type": "Feature",
            "properties": {
                "id": "4702",
                "name": "Marcq-en-Barœul",
                "icon": "79"
            },
            "geometry": {
                "type": "Point",
                "coordinates": [
                    3.09497000000,
                    50.65462000000
                ]
            }
        },
        {
            "type": "Feature",
            "properties": {
                "name": "Fressenneville",
                "icon": "100",
                "id": "9677"
            },
            "geometry": {
                "type": "Point",
                "coordinates": [
                    1.57774000000,
                    50.06742000000
                ]
            }
        },
        {
            "type": "Feature",
            "properties": {
                "icon": "82",
                "id": "14413",
                "name": "Aix-en-Issart"
            },
            "geometry": {
                "type": "Point",
                "coordinates": [
                    1.85697000000,
                    50.47465000000
                ]
            }
        },
        {
            "type": "Feature",
            "properties": {
                "icon": "80",
                "name": "Pierrefonds",
                "id": "1929"
            },
            "geometry": {
                "type": "Point",
                "coordinates": [
                    2.97787000000,
                    49.34718000000
                ]
            }
        },
        {
            "type": "Feature",
            "properties": {
                "icon": "82",
                "name": "Saint-Omer",
                "id": "4752"
            },
            "geometry": {
                "type": "Point",
                "coordinates": [
                    2.25369000000,
                    50.75200000000
                ]
            }
        },
        {
            "type": "Feature",
            "properties": {
                "id": "12625",
                "name": "Nampteuil-Sous-Muret",
                "icon": "12"
            },
            "geometry": {
                "type": "Point",
                "coordinates": [
                    3.42561000000,
                    49.30066000000
                ]
            }
        },
        {
            "type": "Feature",
            "properties": {
                "name": "Boran-sur-Oise",
                "id": "17437",
                "icon": "80"
            },
            "geometry": {
                "type": "Point",
                "coordinates": [
                    2.35935000000,
                    49.16708000000
                ]
            }
        },
        {
            "type": "Feature",
            "properties": {
                "name": "La Gorgue",
                "id": "2976",
                "icon": "79"
            },
            "geometry": {
                "type": "Point",
                "coordinates": [
                    2.75382000000,
                    50.64191000000
                ]
            }
        },
        {
            "type": "Feature",
            "properties": {
                "id": "8022",
                "icon": "79",
                "name": "Roubaix"
            },
            "geometry": {
                "type": "Point",
                "coordinates": [
                    3.20074000000,
                    50.68528000000
                ]
            }
        },
        {
            "type": "Feature",
            "properties": {
                "id": "2898",
                "icon": "82",
                "name": "Etaples"
            },
            "geometry": {
                "type": "Point",
                "coordinates": [
                    1.63452000000,
                    50.51452000000
                ]
            }
        },
        {
            "type": "Feature",
            "properties": {
                "icon": "82",
                "name": "Ecques",
                "id": "4824"
            },
            "geometry": {
                "type": "Point",
                "coordinates": [
                    2.30510900000,
                    50.68566200000
                ]
            }
        },
        {
            "type": "Feature",
            "properties": {
                "name": "Bernaville",
                "id": "15588",
                "icon": "100"
            },
            "geometry": {
                "type": "Point",
                "coordinates": [
                    2.16444000000,
                    50.13086000000
                ]
            }
        },
        {
            "type": "Feature",
            "properties": {
                "name": "Coudekerque-Branche",
                "icon": "79",
                "id": "2563"
            },
            "geometry": {
                "type": "Point",
                "coordinates": [
                    2.38419000000,
                    51.00810000000
                ]
            }
        },
        {
            "type": "Feature",
            "properties": {
                "id": "3017",
                "icon": "82",
                "name": "Clairmarais"
            },
            "geometry": {
                "type": "Point",
                "coordinates": [
                    2.30318000000,
                    50.77018000000
                ]
            }
        },
        {
            "type": "Feature",
            "properties": {
                "id": "4208",
                "icon": "80",
                "name": "Bornel"
            },
            "geometry": {
                "type": "Point",
                "coordinates": [
                    2.20714000000,
                    49.19757000000
                ]
            }
        },
        {
            "type": "Feature",
            "properties": {
                "name": "Villers-Guislain",
                "id": "9769",
                "icon": "79"
            },
            "geometry": {
                "type": "Point",
                "coordinates": [
                    3.15574000000,
                    50.04014000000
                ]
            }
        },
        {
            "type": "Feature",
            "properties": {
                "id": "14515",
                "icon": "82",
                "name": "Annequin"
            },
            "geometry": {
                "type": "Point",
                "coordinates": [
                    2.72761000000,
                    50.50884000000
                ]
            }
        },
        {
            "type": "Feature",
            "properties": {
                "icon": "79",
                "name": "Valenciennes",
                "id": "2354"
            },
            "geometry": {
                "type": "Point",
                "coordinates": [
                    3.52443000000,
                    50.35704000000
                ]
            }
        },
        {
            "type": "Feature",
            "properties": {
                "id": "9222",
                "icon": "82",
                "name": "Wimille"
            },
            "geometry": {
                "type": "Point",
                "coordinates": [
                    1.61875000000,
                    50.76547000000
                ]
            }
        },
        {
            "type": "Feature",
            "properties": {
                "icon": "82",
                "id": "4759",
                "name": "Saint-Omer"
            },
            "geometry": {
                "type": "Point",
                "coordinates": [
                    2.25260000000,
                    50.74788000000
                ]
            }
        },
        {
            "type": "Feature",
            "properties": {
                "id": "12629",
                "name": "Oulchy-le-Château",
                "icon": "12"
            },
            "geometry": {
                "type": "Point",
                "coordinates": [
                    3.36821000000,
                    49.20429000000
                ]
            }
        },
        {
            "type": "Feature",
            "properties": {
                "id": "16479",
                "name": "Amiens",
                "icon": "100"
            },
            "geometry": {
                "type": "Point",
                "coordinates": [
                    2.28127000000,
                    49.88940000000
                ]
            }
        },
        {
            "type": "Feature",
            "properties": {
                "name": "Haubourdin",
                "icon": "79",
                "id": "2918"
            },
            "geometry": {
                "type": "Point",
                "coordinates": [
                    2.99024000000,
                    50.61359000000
                ]
            }
        },
        {
            "type": "Feature",
            "properties": {
                "icon": "82",
                "name": "Wissant",
                "id": "2586"
            },
            "geometry": {
                "type": "Point",
                "coordinates": [
                    1.66275000000,
                    50.88528000000
                ]
            }
        },
        {
            "type": "Feature",
            "properties": {
                "name": "Lezennes",
                "id": "2914",
                "icon": "79"
            },
            "geometry": {
                "type": "Point",
                "coordinates": [
                    3.11292000000,
                    50.61420000000
                ]
            }
        },
        {
            "type": "Feature",
            "properties": {
                "id": "9273",
                "name": "Rombies-et-Marchipont",
                "icon": "79"
            },
            "geometry": {
                "type": "Point",
                "coordinates": [
                    3.64156000000,
                    50.36412000000
                ]
            }
        },
        {
            "type": "Feature",
            "properties": {
                "id": "4798",
                "icon": "82",
                "name": "Enguinegatte"
            },
            "geometry": {
                "type": "Point",
                "coordinates": [
                    2.27167000000,
                    50.60686000000
                ]
            }
        },
        {
            "type": "Feature",
            "properties": {
                "icon": "82",
                "id": "220",
                "name": "Arques"
            },
            "geometry": {
                "type": "Point",
                "coordinates": [
                    2.29546000000,
                    50.73431000000
                ]
            }
        },
        {
            "type": "Feature",
            "properties": {
                "name": "Saint-Nicolas-aux-Bois",
                "id": "1535",
                "icon": "12"
            },
            "geometry": {
                "type": "Point",
                "coordinates": [
                    3.43063000000,
                    49.59236000000
                ]
            }
        },
        {
            "type": "Feature",
            "properties": {
                "name": "Hazebrouck",
                "id": "2958",
                "icon": "79"
            },
            "geometry": {
                "type": "Point",
                "coordinates": [
                    2.54133000000,
                    50.72493000000
                ]
            }
        },
        {
            "type": "Feature",
            "properties": {
                "name": "Vieux-Berquin",
                "id": "7884",
                "icon": "79"
            },
            "geometry": {
                "type": "Point",
                "coordinates": [
                    2.60027000000,
                    50.70766000000
                ]
            }
        },
        {
            "type": "Feature",
            "properties": {
                "icon": "80",
                "name": "Saint-Crépin-aux-Bois",
                "id": "13783"
            },
            "geometry": {
                "type": "Point",
                "coordinates": [
                    2.97949000000,
                    49.43434000000
                ]
            }
        },
        {
            "type": "Feature",
            "properties": {
                "id": "5188",
                "name": "Hébécourt",
                "icon": "100"
            },
            "geometry": {
                "type": "Point",
                "coordinates": [
                    2.26094000000,
                    49.81414000000
                ]
            }
        },
        {
            "type": "Feature",
            "properties": {
                "icon": "82",
                "id": "4806",
                "name": "Campagne-lès-Wardrecques"
            },
            "geometry": {
                "type": "Point",
                "coordinates": [
                    2.33251000000,
                    50.71714000000
                ]
            }
        },
        {
            "type": "Feature",
            "properties": {
                "icon": "82",
                "name": "Auchy-les-Mines",
                "id": "14839"
            },
            "geometry": {
                "type": "Point",
                "coordinates": [
                    2.78379000000,
                    50.51299000000
                ]
            }
        },
        {
            "type": "Feature",
            "properties": {
                "id": "4732",
                "name": "Zouafques",
                "icon": "82"
            },
            "geometry": {
                "type": "Point",
                "coordinates": [
                    2.05411000000,
                    50.81459000000
                ]
            }
        },
        {
            "type": "Feature",
            "properties": {
                "id": "9541",
                "icon": "79",
                "name": "Aubencheul-au-Bac"
            },
            "geometry": {
                "type": "Point",
                "coordinates": [
                    3.15387000000,
                    50.25832000000
                ]
            }
        },
        {
            "type": "Feature",
            "properties": {
                "icon": "79",
                "id": "5038",
                "name": "Roubaix"
            },
            "geometry": {
                "type": "Point",
                "coordinates": [
                    3.16475000000,
                    50.68300000000
                ]
            }
        },
        {
            "type": "Feature",
            "properties": {
                "name": "Acheux-en-Amiénois",
                "id": "14360",
                "icon": "100"
            },
            "geometry": {
                "type": "Point",
                "coordinates": [
                    2.53341000000,
                    50.07238000000
                ]
            }
        },
        {
            "type": "Feature",
            "properties": {
                "id": "1925",
                "name": "Ressons-le-Long",
                "icon": "12"
            },
            "geometry": {
                "type": "Point",
                "coordinates": [
                    3.12704000000,
                    49.38915000000
                ]
            }
        },
        {
            "type": "Feature",
            "properties": {
                "name": "Boulogne-sur-Mer",
                "icon": "82",
                "id": "2590"
            },
            "geometry": {
                "type": "Point",
                "coordinates": [
                    1.61533000000,
                    50.72000000000
                ]
            }
        },
        {
            "type": "Feature",
            "properties": {
                "name": "Landas",
                "id": "7890",
                "icon": "79"
            },
            "geometry": {
                "type": "Point",
                "coordinates": [
                    3.30028000000,
                    50.47397000000
                ]
            }
        },
        {
            "type": "Feature",
            "properties": {
                "name": "Wardrecques",
                "icon": "82",
                "id": "4740"
            },
            "geometry": {
                "type": "Point",
                "coordinates": [
                    2.34272000000,
                    50.71013000000
                ]
            }
        },
        {
            "type": "Feature",
            "properties": {
                "name": "Chacrise",
                "id": "12617",
                "icon": "12"
            },
            "geometry": {
                "type": "Point",
                "coordinates": [
                    3.40447000000,
                    49.30384000000
                ]
            }
        },
        {
            "type": "Feature",
            "properties": {
                "icon": "80",
                "id": "15349",
                "name": "Béthisy-Saint-Pierre"
            },
            "geometry": {
                "type": "Point",
                "coordinates": [
                    2.79320000000,
                    49.30743000000
                ]
            }
        },
        {
            "type": "Feature",
            "properties": {
                "id": "2964",
                "name": "Godewaersvelde",
                "icon": "79"
            },
            "geometry": {
                "type": "Point",
                "coordinates": [
                    2.64353000000,
                    50.79380000000
                ]
            }
        },
        {
            "type": "Feature",
            "properties": {
                "name": "Longuenesse",
                "icon": "82",
                "id": "4781"
            },
            "geometry": {
                "type": "Point",
                "coordinates": [
                    2.26597000000,
                    50.73935000000
                ]
            }
        },
        {
            "type": "Feature",
            "properties": {
                "id": "43",
                "icon": "100",
                "name": "Abbeville"
            },
            "geometry": {
                "type": "Point",
                "coordinates": [
                    1.83406000000,
                    50.10599000000
                ]
            }
        },
        {
            "type": "Feature",
            "properties": {
                "name": "Coudekerque-Branche",
                "icon": "79",
                "id": "2561"
            },
            "geometry": {
                "type": "Point",
                "coordinates": [
                    2.39889000000,
                    51.02822000000
                ]
            }
        },
        {
            "type": "Feature",
            "properties": {
                "name": "La Ferté-Milon",
                "id": "7589",
                "icon": "12"
            },
            "geometry": {
                "type": "Point",
                "coordinates": [
                    3.12725000000,
                    49.18353000000
                ]
            }
        },
        {
            "type": "Feature",
            "properties": {
                "id": "3005",
                "icon": "79",
                "name": "Nieppe"
            },
            "geometry": {
                "type": "Point",
                "coordinates": [
                    2.83919000000,
                    50.70470000000
                ]
            }
        },
        {
            "type": "Feature",
            "properties": {
                "icon": "80",
                "name": "Chantilly",
                "id": "4212"
            },
            "geometry": {
                "type": "Point",
                "coordinates": [
                    2.46154000000,
                    49.18297000000
                ]
            }
        },
        {
            "type": "Feature",
            "properties": {
                "id": "9750",
                "icon": "80",
                "name": "Croutoy"
            },
            "geometry": {
                "type": "Point",
                "coordinates": [
                    3.04314000000,
                    49.38601000000
                ]
            }
        },
        {
            "type": "Feature",
            "properties": {
                "id": "12623",
                "icon": "12",
                "name": "Muret-et-Crouttes"
            },
            "geometry": {
                "type": "Point",
                "coordinates": [
                    3.41688000000,
                    49.28448000000
                ]
            }
        },
        {
            "type": "Feature",
            "properties": {
                "id": "17816",
                "name": "La Bouteille",
                "icon": "12"
            },
            "geometry": {
                "type": "Point",
                "coordinates": [
                    3.97345000000,
                    49.85953000000
                ]
            }
        },
        {
            "type": "Feature",
            "properties": {
                "name": "Lille",
                "id": "9191",
                "icon": "79"
            },
            "geometry": {
                "type": "Point",
                "coordinates": [
                    3.04993000000,
                    50.62222000000
                ]
            }
        },
        {
            "type": "Feature",
            "properties": {
                "icon": "82",
                "name": "Helfaut",
                "id": "3013"
            },
            "geometry": {
                "type": "Point",
                "coordinates": [
                    2.24367000000,
                    50.69770000000
                ]
            }
        },
        {
            "type": "Feature",
            "properties": {
                "name": "Saint-Augustin",
                "icon": "82",
                "id": "4763"
            },
            "geometry": {
                "type": "Point",
                "coordinates": [
                    2.27622000000,
                    50.64574000000
                ]
            }
        },
        {
            "type": "Feature",
            "properties": {
                "id": "1215",
                "name": "Ohain",
                "icon": "79"
            },
            "geometry": {
                "type": "Point",
                "coordinates": [
                    4.11786000000,
                    50.03953000000
                ]
            }
        },
        {
            "type": "Feature",
            "properties": {
                "name": "Hazebrouck",
                "id": "2954",
                "icon": "79"
            },
            "geometry": {
                "type": "Point",
                "coordinates": [
                    2.53522000000,
                    50.73037000000
                ]
            }
        },
        {
            "type": "Feature",
            "properties": {
                "name": "Bonningues-lès-Calais",
                "id": "2578",
                "icon": "82"
            },
            "geometry": {
                "type": "Point",
                "coordinates": [
                    1.77343000000,
                    50.89080000000
                ]
            }
        },
        {
            "type": "Feature",
            "properties": {
                "icon": "82",
                "name": "Etaples",
                "id": "2902"
            },
            "geometry": {
                "type": "Point",
                "coordinates": [
                    1.62978000000,
                    50.51952000000
                ]
            }
        },
        {
            "type": "Feature",
            "properties": {
                "name": "Santes",
                "icon": "79",
                "id": "11363"
            },
            "geometry": {
                "type": "Point",
                "coordinates": [
                    2.95583000000,
                    50.59728000000
                ]
            }
        },
        {
            "type": "Feature",
            "properties": {
                "icon": "82",
                "id": "4802",
                "name": "Dennebrœucq"
            },
            "geometry": {
                "type": "Point",
                "coordinates": [
                    2.16357000000,
                    50.58831000000
                ]
            }
        },
        {
            "type": "Feature",
            "properties": {
                "id": "156",
                "name": "Amiens",
                "icon": "100"
            },
            "geometry": {
                "type": "Point",
                "coordinates": [
                    2.25261000000,
                    49.91440000000
                ]
            }
        },
        {
            "type": "Feature",
            "properties": {
                "name": "Cappelle-en-Pévèle",
                "id": "2362",
                "icon": "79"
            },
            "geometry": {
                "type": "Point",
                "coordinates": [
                    3.17152000000,
                    50.50921000000
                ]
            }
        },
        {
            "type": "Feature",
            "properties": {
                "id": "2962",
                "name": "Hazebrouck",
                "icon": "79"
            },
            "geometry": {
                "type": "Point",
                "coordinates": [
                    2.53586000000,
                    50.71990000000
                ]
            }
        },
        {
            "type": "Feature",
            "properties": {
                "name": "Itancourt",
                "id": "7685",
                "icon": "12"
            },
            "geometry": {
                "type": "Point",
                "coordinates": [
                    3.34533000000,
                    49.80730000000
                ]
            }
        },
        {
            "type": "Feature",
            "properties": {
                "icon": "82",
                "name": "Villers-Châtel",
                "id": "9259"
            },
            "geometry": {
                "type": "Point",
                "coordinates": [
                    2.58567000000,
                    50.37649000000
                ]
            }
        },
        {
            "type": "Feature",
            "properties": {
                "id": "13612",
                "name": "Effry",
                "icon": "12"
            },
            "geometry": {
                "type": "Point",
                "coordinates": [
                    3.98492000000,
                    49.92324000000
                ]
            }
        },
        {
            "type": "Feature",
            "properties": {
                "name": "Creuse",
                "id": "5129",
                "icon": "100"
            },
            "geometry": {
                "type": "Point",
                "coordinates": [
                    2.16294000000,
                    49.83900000000
                ]
            }
        },
        {
            "type": "Feature",
            "properties": {
                "id": "4810",
                "icon": "82",
                "name": "Blendecques"
            },
            "geometry": {
                "type": "Point",
                "coordinates": [
                    2.29374000000,
                    50.72240000000
                ]
            }
        },
        {
            "type": "Feature",
            "properties": {
                "id": "1521",
                "name": "Cagny (80)",
                "icon": "100"
            },
            "geometry": {
                "type": "Point",
                "coordinates": [
                    2.34229000000,
                    49.86213000000
                ]
            }
        },
        {
            "type": "Feature",
            "properties": {
                "icon": "82",
                "id": "4736",
                "name": "Wizernes"
            },
            "geometry": {
                "type": "Point",
                "coordinates": [
                    2.22841000000,
                    50.70998000000
                ]
            }
        },
        {
            "type": "Feature",
            "properties": {
                "icon": "79",
                "name": "Nieppe",
                "id": "3003"
            },
            "geometry": {
                "type": "Point",
                "coordinates": [
                    2.84934000000,
                    50.70056000000
                ]
            }
        },
        {
            "type": "Feature",
            "properties": {
                "name": "Sebourg",
                "id": "9537",
                "icon": "79"
            },
            "geometry": {
                "type": "Point",
                "coordinates": [
                    3.64542000000,
                    50.34212000000
                ]
            }
        },
        {
            "type": "Feature",
            "properties": {
                "name": "Laon",
                "id": "5042",
                "icon": "12"
            },
            "geometry": {
                "type": "Point",
                "coordinates": [
                    3.61708000000,
                    49.56440000000
                ]
            }
        },
        {
            "type": "Feature",
            "properties": {
                "icon": "80",
                "name": "Compiègne",
                "id": "13805"
            },
            "geometry": {
                "type": "Point",
                "coordinates": [
                    2.82129000000,
                    49.41337000000
                ]
            }
        },
        {
            "type": "Feature",
            "properties": {
                "name": "Ressons-le-Long",
                "id": "1917",
                "icon": "12"
            },
            "geometry": {
                "type": "Point",
                "coordinates": [
                    3.14937000000,
                    49.38751000000
                ]
            }
        },
        {
            "type": "Feature",
            "properties": {
                "icon": "82",
                "name": "Peuplingues",
                "id": "2582"
            },
            "geometry": {
                "type": "Point",
                "coordinates": [
                    1.76904000000,
                    50.91515000000
                ]
            }
        },
        {
            "type": "Feature",
            "properties": {
                "name": "Fort-Mahon-Plage",
                "id": "7882",
                "icon": "100"
            },
            "geometry": {
                "type": "Point",
                "coordinates": [
                    1.54987000000,
                    50.33868000000
                ]
            }
        },
        {
            "type": "Feature",
            "properties": {
                "id": "4744",
                "icon": "82",
                "name": "Tilques"
            },
            "geometry": {
                "type": "Point",
                "coordinates": [
                    2.20384000000,
                    50.77785000000
                ]
            }
        },
        {
            "type": "Feature",
            "properties": {
                "icon": "80",
                "id": "12361",
                "name": "Étouy"
            },
            "geometry": {
                "type": "Point",
                "coordinates": [
                    2.36108000000,
                    49.41981000000
                ]
            }
        },
        {
            "type": "Feature",
            "properties": {
                "name": "Belloy-sur-Somme",
                "icon": "100",
                "id": "15331"
            },
            "geometry": {
                "type": "Point",
                "coordinates": [
                    2.13550000000,
                    49.96614000000
                ]
            }
        },
        {
            "type": "Feature",
            "properties": {
                "name": "Amiens",
                "icon": "100",
                "id": "4586"
            },
            "geometry": {
                "type": "Point",
                "coordinates": [
                    2.30635000000,
                    49.88381000000
                ]
            }
        },
        {
            "type": "Feature",
            "properties": {
                "icon": "82",
                "id": "2936",
                "name": "Lestrem"
            },
            "geometry": {
                "type": "Point",
                "coordinates": [
                    2.68261000000,
                    50.61672000000
                ]
            }
        },
        {
            "type": "Feature",
            "properties": {
                "id": "9551",
                "name": "Lys-lez-Lannoy",
                "icon": "79"
            },