
{
    "type": "FeatureCollection",
    "generator": "JOSM",
    "features": [
        {
            "type": "Feature",
            "properties": {
                "name": "Lisieux",
                "id": "9652",
                "icon": "3"
            },
            "geometry": {
                "type": "Point",
                "coordinates": [
                    0.22703000000,
                    49.14726000000
                ]
            }
        },
        {
            "type": "Feature",
            "properties": {
                "id": "4537",
                "name": "Occagnes",
                "icon": "81"
            },
            "geometry": {
                "type": "Point",
                "coordinates": [
                    -0.07141000000,
                    48.77942000000
                ]
            }
        },
        {
            "type": "Feature",
            "properties": {
                "icon": "96",
                "name": "Dieppe",
                "id": "1507"
            },
            "geometry": {
                "type": "Point",
                "coordinates": [
                    1.06820000000,
                    49.91866000000
                ]
            }
        },
        {
            "type": "Feature",
            "properties": {
                "id": "15270",
                "icon": "4",
                "name": "Avranches"
            },
            "geometry": {
                "type": "Point",
                "coordinates": [
                    -1.35868000000,
                    48.67705000000
                ]
            }
        },
        {
            "type": "Feature",
            "properties": {
                "id": "4611",
                "icon": "96",
                "name": "Mont-Saint-Aignan"
            },
            "geometry": {
                "type": "Point",
                "coordinates": [
                    1.08716000000,
                    49.47044000000
                ]
            }
        },
        {
            "type": "Feature",
            "properties": {
                "name": "Saint-Lô",
                "id": "946",
                "icon": "4"
            },
            "geometry": {
                "type": "Point",
                "coordinates": [
                    -1.09840000000,
                    49.11543000000
                ]
            }
        },
        {
            "type": "Feature",
            "properties": {
                "id": "1337",
                "name": "Boissey",
                "icon": "3"
            },
            "geometry": {
                "type": "Point",
                "coordinates": [
                    0.04707000000,
                    49.01946000000
                ]
            }
        },
        {
            "type": "Feature",
            "properties": {
                "icon": "96",
                "name": "Grand-Camp",
                "id": "12609"
            },
            "geometry": {
                "type": "Point",
                "coordinates": [
                    0.59765000000,
                    49.55426000000
                ]
            }
        },
        {
            "type": "Feature",
            "properties": {
                "id": "4873",
                "icon": "3",
                "name": "Canteloup"
            },
            "geometry": {
                "type": "Point",
                "coordinates": [
                    -0.13106000000,
                    49.13581000000
                ]
            }
        },
        {
            "type": "Feature",
            "properties": {
                "id": "1421",
                "icon": "96",
                "name": "Rouen"
            },
            "geometry": {
                "type": "Point",
                "coordinates": [
                    1.07973000000,
                    49.44513000000
                ]
            }
        },
        {
            "type": "Feature",
            "properties": {
                "id": "1511",
                "icon": "96",
                "name": "Dieppe"
            },
            "geometry": {
                "type": "Point",
                "coordinates": [
                    1.08427000000,
                    49.92724000000
                ]
            }
        },
        {
            "type": "Feature",
            "properties": {
                "icon": "96",
                "id": "14863",
                "name": "Ancourteville-sur-Héricourt"
            },
            "geometry": {
                "type": "Point",
                "coordinates": [
                    0.66079000000,
                    49.69616000000
                ]
            }
        },
        {
            "type": "Feature",
            "properties": {
                "name": "Lantheuil",
                "id": "4595",
                "icon": "3"
            },
            "geometry": {
                "type": "Point",
                "coordinates": [
                    -0.51537000000,
                    49.27016000000
                ]
            }
        },
        {
            "type": "Feature",
            "properties": {
                "name": "Saint-Vigor-le-Grand",
                "id": "855",
                "icon": "3"
            },
            "geometry": {
                "type": "Point",
                "coordinates": [
                    -0.68898000000,
                    49.27929000000
                ]
            }
        },
        {
            "type": "Feature",
            "properties": {
                "id": "1150",
                "icon": "4",
                "name": "Cherbourg-en-Cotentin"
            },
            "geometry": {
                "type": "Point",
                "coordinates": [
                    -1.64768000000,
                    49.63326000000
                ]
            }
        },
        {
            "type": "Feature",
            "properties": {
                "name": "Valdallière",
                "icon": "3",
                "id": "9961"
            },
            "geometry": {
                "type": "Point",
                "coordinates": [
                    -0.67661000000,
                    48.85276000000
                ]
            }
        },
        {
            "type": "Feature",
            "properties": {
                "name": "Moyon",
                "id": "6206",
                "icon": "4"
            },
            "geometry": {
                "type": "Point",
                "coordinates": [
                    -1.11845000000,
                    49.00034000000
                ]
            }
        },
        {
            "type": "Feature",
            "properties": {
                "name": "Blonville-sur-Mer",
                "id": "1361",
                "icon": "3"
            },
            "geometry": {
                "type": "Point",
                "coordinates": [
                    0.02940000000,
                    49.33905000000
                ]
            }
        },
        {
            "type": "Feature",
            "properties": {
                "name": "Épron",
                "id": "13675",
                "icon": "3"
            },
            "geometry": {
                "type": "Point",
                "coordinates": [
                    -0.36845000000,
                    49.21946000000
                ]
            }
        },
        {
            "type": "Feature",
            "properties": {
                "icon": "96",
                "name": "Saint-Aubin-sur-Mer (76)",
                "id": "9679"
            },
            "geometry": {
                "type": "Point",
                "coordinates": [
                    0.87649000000,
                    49.88858000000
                ]
            }
        },
        {
            "type": "Feature",
            "properties": {
                "id": "4545",
                "icon": "81",
                "name": "Alençon"
            },
            "geometry": {
                "type": "Point",
                "coordinates": [
                    0.08962000000,
                    48.42907000000
                ]
            }
        },
        {
            "type": "Feature",
            "properties": {
                "name": "Cérences",
                "icon": "4",
                "id": "17892"
            },
            "geometry": {
                "type": "Point",
                "coordinates": [
                    -1.43587000000,
                    48.91648000000
                ]
            }
        },
        {
            "type": "Feature",
            "properties": {
                "id": "509",
                "icon": "37",
                "name": "Beuzeville"
            },
            "geometry": {
                "type": "Point",
                "coordinates": [
                    0.34387000000,
                    49.34478000000
                ]
            }
        },
        {
            "type": "Feature",
            "properties": {
                "name": "Vire-Normandie",
                "id": "960",
                "icon": "3"
            },
            "geometry": {
                "type": "Point",
                "coordinates": [
                    -0.88901000000,
                    48.83649000000
                ]
            }
        },
        {
            "type": "Feature",
            "properties": {
                "id": "1168",
                "icon": "4",
                "name": "Cherbourg-en-Cotentin"
            },
            "geometry": {
                "type": "Point",
                "coordinates": [
                    -1.61859000000,
                    49.62057000000
                ]
            }
        },
        {
            "type": "Feature",
            "properties": {
                "id": "7926",
                "icon": "4",
                "name": "Saint-Jean-le-Thomas"
            },
            "geometry": {
                "type": "Point",
                "coordinates": [
                    -1.52798000000,
                    48.72942000000
                ]
            }
        },
        {
            "type": "Feature",
            "properties": {
                "id": "4858",
                "icon": "4",
                "name": "Saint-Georges-Montcocq"
            },
            "geometry": {
                "type": "Point",
                "coordinates": [
                    -1.09412000000,
                    49.12999000000
                ]
            }
        },
        {
            "type": "Feature",
            "properties": {
                "id": "13187",
                "icon": "4",
                "name": "Barenton"
            },
            "geometry": {
                "type": "Point",
                "coordinates": [
                    -0.83173000000,
                    48.59945000000
                ]
            }
        },
        {
            "type": "Feature",
            "properties": {
                "id": "8715",
                "icon": "96",
                "name": "Raffetot"
            },
            "geometry": {
                "type": "Point",
                "coordinates": [
                    0.51147000000,
                    49.59935000000
                ]
            }
        },
        {
            "type": "Feature",
            "properties": {
                "icon": "96",
                "name": "Rouen",
                "id": "1441"
            },
            "geometry": {
                "type": "Point",
                "coordinates": [
                    1.10100000000,
                    49.43915000000
                ]
            }
        },
        {
            "type": "Feature",
            "properties": {
                "id": "1617",
                "name": "Louvigny",
                "icon": "3"
            },
            "geometry": {
                "type": "Point",
                "coordinates": [
                    -0.40011000000,
                    49.16074000000
                ]
            }
        },
        {
            "type": "Feature",
            "properties": {
                "name": "Agon-Coutainville",
                "id": "58",
                "icon": "4"
            },
            "geometry": {
                "type": "Point",
                "coordinates": [
                    -1.59526000000,
                    49.03644000000
                ]
            }
        },
        {
            "type": "Feature",
            "properties": {
                "icon": "81",
                "id": "2707",
                "name": "Argentan"
            },
            "geometry": {
                "type": "Point",
                "coordinates": [
                    -0.01065000000,
                    48.74699000000
                ]
            }
        },
        {
            "type": "Feature",
            "properties": {
                "name": "Sainte-Honorine-du-Fay",
                "id": "906",
                "icon": "3"
            },
            "geometry": {
                "type": "Point",
                "coordinates": [
                    -0.49201000000,
                    49.07784000000
                ]
            }
        },
        {
            "type": "Feature",
            "properties": {
                "name": "Cambes-en-Plaine",
                "icon": "3",
                "id": "1088"
            },
            "geometry": {
                "type": "Point",
                "coordinates": [
                    -0.38476000000,
                    49.23211000000
                ]
            }
        },
        {
            "type": "Feature",
            "properties": {
                "id": "12723",
                "icon": "4",
                "name": "Avranches"
            },
            "geometry": {
                "type": "Point",
                "coordinates": [
                    -1.35159000000,
                    48.69316000000
                ]
            }
        },
        {
            "type": "Feature",
            "properties": {
                "name": "Honfleur",
                "icon": "3",
                "id": "1374"
            },
            "geometry": {
                "type": "Point",
                "coordinates": [
                    0.21563000000,
                    49.42494000000
                ]
            }
        },
        {
            "type": "Feature",
            "properties": {
                "name": "Port-Bail-sur-Mer",
                "id": "13823",
                "icon": "4"
            },
            "geometry": {
                "type": "Point",
                "coordinates": [
                    -1.72119000000,
                    49.32778000000
                ]
            }
        },
        {
            "type": "Feature",
            "properties": {
                "name": "La Ferté-en-Ouche",
                "icon": "81",
                "id": "9004"
            },
            "geometry": {
                "type": "Point",
                "coordinates": [
                    0.45640000000,
                    48.86071000000
                ]
            }
        },
        {
            "type": "Feature",
            "properties": {
                "icon": "96",
                "id": "17284",
                "name": "Rouen"
            },
            "geometry": {
                "type": "Point",
                "coordinates": [
                    1.09374000000,
                    49.44472000000
                ]
            }
        },
        {
            "type": "Feature",
            "properties": {
                "icon": "96",
                "name": "Petit-Caux",
                "id": "15153"
            },
            "geometry": {
                "type": "Point",
                "coordinates": [
                    1.25307000000,
                    49.98150000000
                ]
            }
        },
        {
            "type": "Feature",
            "properties": {
                "name": "Anneville-en-Saire",
                "icon": "4",
                "id": "11297"
            },
            "geometry": {
                "type": "Point",
                "coordinates": [
                    -1.28660000000,
                    49.63577000000
                ]
            }
        },
        {
            "type": "Feature",
            "properties": {
                "id": "7096",
                "name": "La Hague",
                "icon": "4"
            },
            "geometry": {
                "type": "Point",
                "coordinates": [
                    -1.90548000000,
                    49.67894000000
                ]
            }
        },
        {
            "type": "Feature",
            "properties": {
                "id": "16136",
                "icon": "3",
                "name": "Soliers"
            },
            "geometry": {
                "type": "Point",
                "coordinates": [
                    -0.29878000000,
                    49.13843000000
                ]
            }
        },
        {
            "type": "Feature",
            "properties": {
                "id": "13193",
                "name": "Saint-Clair-sur-l'Elle",
                "icon": "4"
            },
            "geometry": {
                "type": "Point",
                "coordinates": [
                    -1.02978000000,
                    49.19154000000
                ]
            }
        },
        {
            "type": "Feature",
            "properties": {
                "icon": "96",
                "name": "Rouen",
                "id": "1471"
            },
            "geometry": {
                "type": "Point",
                "coordinates": [
                    1.09395000000,
                    49.44856000000
                ]
            }
        },
        {
            "type": "Feature",
            "properties": {
                "icon": "81",
                "id": "14573",
                "name": "Argentan"
            },
            "geometry": {
                "type": "Point",
                "coordinates": [
                    -0.01801000000,
                    48.73974000000
                ]
            }
        },
        {
            "type": "Feature",
            "properties": {
                "icon": "81",
                "name": "Saint-Pierre-du-Regard",
                "id": "4563"
            },
            "geometry": {
                "type": "Point",
                "coordinates": [
                    -0.54834000000,
                    48.84474000000
                ]
            }
        },
        {
            "type": "Feature",
            "properties": {
                "id": "1053",
                "icon": "3",
                "name": "Ouistreham"
            },
            "geometry": {
                "type": "Point",
                "coordinates": [
                    -0.25828000000,
                    49.27716000000
                ]
            }
        },
        {
            "type": "Feature",
            "properties": {
                "name": "Iville",
                "icon": "37",
                "id": "6155"
            },
            "geometry": {
                "type": "Point",
                "coordinates": [
                    0.92530000000,
                    49.17894000000
                ]
            }
        },
        {
            "type": "Feature",
            "properties": {
                "id": "1324",
                "name": "L'Aigle",
                "icon": "81"
            },
            "geometry": {
                "type": "Point",
                "coordinates": [
                    0.63681000000,
                    48.76328000000
                ]
            }
        },
        {
            "type": "Feature",
            "properties": {
                "icon": "96",
                "name": "Buchy",
                "id": "12809"
            },
            "geometry": {
                "type": "Point",
                "coordinates": [
                    1.31675000000,
                    49.59181000000
                ]
            }
        },
        {
            "type": "Feature",
            "properties": {
                "name": "Sartilly",
                "id": "4907",
                "icon": "4"
            },
            "geometry": {
                "type": "Point",
                "coordinates": [
                    -1.45359000000,
                    48.75314000000
                ]
            }
        },
        {
            "type": "Feature",
            "properties": {
                "icon": "96",
                "name": "Rouen",
                "id": "1453"
            },
            "geometry": {
                "type": "Point",
                "coordinates": [
                    1.09529000000,
                    49.42521000000
                ]
            }
        },
        {
            "type": "Feature",
            "properties": {
                "name": "Varaville",
                "id": "13388",
                "icon": "3"
            },
            "geometry": {
                "type": "Point",
                "coordinates": [
                    -0.14620000000,
                    49.28763000000
                ]
            }
        },
        {
            "type": "Feature",
            "properties": {
                "name": "Fourges",
                "icon": "37",
                "id": "2024"
            },
            "geometry": {
                "type": "Point",
                "coordinates": [
                    1.63307000000,
                    49.11569000000
                ]
            }
        },
        {
            "type": "Feature",
            "properties": {
                "name": "Reviers",
                "id": "918",
                "icon": "3"
            },
            "geometry": {
                "type": "Point",
                "coordinates": [
                    -0.46388000000,
                    49.30189000000
                ]
            }
        },
        {
            "type": "Feature",
            "properties": {
                "id": "1115",
                "icon": "4",
                "name": "Bréhal"
            },
            "geometry": {
                "type": "Point",
                "coordinates": [
                    -1.51251000000,
                    48.89853000000
                ]
            }
        },
        {
            "type": "Feature",
            "properties": {
                "icon": "37",
                "name": "Houetteville",
                "id": "11793"
            },
            "geometry": {
                "type": "Point",
                "coordinates": [
                    1.11159000000,
                    49.12969000000
                ]
            }
        },
        {
            "type": "Feature",
            "properties": {
                "icon": "96",
                "name": "Déville-lès-Rouen",
                "id": "7420"
            },
            "geometry": {
                "type": "Point",
                "coordinates": [
                    1.05727000000,
                    49.46064000000
                ]
            }
        },
        {
            "type": "Feature",
            "properties": {
                "name": "Pont-L'Évêque",
                "id": "1395",
                "icon": "3"
            },
            "geometry": {
                "type": "Point",
                "coordinates": [
                    0.18770000000,
                    49.28756000000
                ]
            }
        },
        {
            "type": "Feature",
            "properties": {
                "id": "12840",
                "icon": "81",
                "name": "Tournai-sur-Dive"
            },
            "geometry": {
                "type": "Point",
                "coordinates": [
                    0.04492000000,
                    48.81315000000
                ]
            }
        },
        {
            "type": "Feature",
            "properties": {
                "name": "Hermanville-sur-Mer",
                "id": "9561",
                "icon": "3"
            },
            "geometry": {
                "type": "Point",
                "coordinates": [
                    -0.31354000000,
                    49.28604000000
                ]
            }
        },
        {
            "type": "Feature",
            "properties": {
                "id": "1499",
                "icon": "96",
                "name": "Vibeuf"
            },
            "geometry": {
                "type": "Point",
                "coordinates": [
                    0.90237000000,
                    49.69312000000
                ]
            }
        },
        {
            "type": "Feature",
            "properties": {
                "icon": "96",
                "name": "Petit-Caux",
                "id": "15175"
            },
            "geometry": {
                "type": "Point",
                "coordinates": [
                    1.32135000000,
                    49.93916000000
                ]
            }
        },
        {
            "type": "Feature",
            "properties": {
                "id": "4618",
                "name": "Graveron-Semerville",
                "icon": "37"
            },
            "geometry": {
                "type": "Point",
                "coordinates": [
                    0.97540000000,
                    49.09325000000
                ]
            }
        },
        {
            "type": "Feature",
            "properties": {
                "name": "Hérouville-Saint-Clair",
                "id": "1071",
                "icon": "3"
            },
            "geometry": {
                "type": "Point",
                "coordinates": [
                    -0.33663000000,
                    49.20689000000
                ]
            }
        },
        {
            "type": "Feature",
            "properties": {
                "icon": "96",
                "name": "Rouxmesnil-Bouteilles",
                "id": "16421"
            },
            "geometry": {
                "type": "Point",
                "coordinates": [
                    1.09284000000,
                    49.90421000000
                ]
            }
        },
        {
            "type": "Feature",
            "properties": {
                "name": "Caen",
                "icon": "3",
                "id": "12395"
            },
            "geometry": {
                "type": "Point",
                "coordinates": [
                    -0.36574000000,
                    49.19890000000
                ]
            }
        },
        {
            "type": "Feature",
            "properties": {
                "name": "Saint-André-de-l'Épine",
                "icon": "4",
                "id": "4860"
            },
            "geometry": {
                "type": "Point",
                "coordinates": [
                    -1.01212000000,
                    49.13859000000
                ]
            }
        },
        {
            "type": "Feature",
            "properties": {
                "icon": "96",
                "id": "1413",
                "name": "Rouen"
            },
            "geometry": {
                "type": "Point",
                "coordinates": [
                    1.08509000000,
                    49.42860000000
                ]
            }
        },
        {
            "type": "Feature",
            "properties": {
                "name": "Saint-Denis-le-Gast",
                "icon": "4",
                "id": "13580"
            },
            "geometry": {
                "type": "Point",
                "coordinates": [
                    -1.32899000000,
                    48.94010000000
                ]
            }
        },
        {
            "type": "Feature",
            "properties": {
                "id": "353",
                "icon": "3",
                "name": "Bayeux"
            },
            "geometry": {
                "type": "Point",
                "coordinates": [
                    -0.71729000000,
                    49.28656000000
                ]
            }
        },
        {
            "type": "Feature",
            "properties": {
                "id": "934",
                "icon": "4",
                "name": "Saint-Vaast-la-Hougue"
            },
            "geometry": {
                "type": "Point",
                "coordinates": [
                    -1.26419000000,
                    49.58604000000
                ]
            }
        },
        {
            "type": "Feature",
            "properties": {
                "id": "1136",
                "icon": "4",
                "name": "Cherbourg-en-Cotentin"
            },
            "geometry": {
                "type": "Point",
                "coordinates": [
                    -1.70547000000,
                    49.65692000000
                ]
            }
        },
        {
            "type": "Feature",
            "properties": {
                "id": "9927",
                "name": "Cabourg",
                "icon": "3"
            },
            "geometry": {
                "type": "Point",
                "coordinates": [
                    -0.11790000000,
                    49.28699000000
                ]
            }
        },
        {
            "type": "Feature",
            "properties": {
                "name": "Cabourg",
                "icon": "3",
                "id": "1353"
            },
            "geometry": {
                "type": "Point",
                "coordinates": [
                    -0.11507000000,
                    49.29252000000
                ]
            }
        },
        {
            "type": "Feature",
            "properties": {
                "id": "13016",
                "name": "Bricquebec-en-Cotentin",
                "icon": "4"
            },
            "geometry": {
                "type": "Point",
                "coordinates": [
                    -1.70993000000,
                    49.45117000000
                ]
            }
        },
        {
            "type": "Feature",
            "properties": {
                "id": "9650",
                "name": "Lisieux",
                "icon": "3"
            },
            "geometry": {
                "type": "Point",
                "coordinates": [
                    0.23079000000,
                    49.14254000000
                ]
            }
        },
        {
            "type": "Feature",
            "properties": {
                "icon": "96",
                "id": "4934",
                "name": "Incheville"
            },
            "geometry": {
                "type": "Point",
                "coordinates": [
                    1.49760000000,
                    50.01608000000
                ]
            }
        },
        {
            "type": "Feature",
            "properties": {
                "id": "17766",
                "name": "Cormelles-le-Royal",
                "icon": "3"
            },
            "geometry": {
                "type": "Point",
                "coordinates": [
                    -0.33068000000,
                    49.15346000000
                ]
            }
        },
        {
            "type": "Feature",
            "properties": {
                "id": "492",
                "name": "Le Bény-Bocage",
                "icon": "3"
            },
            "geometry": {
                "type": "Point",
                "coordinates": [
                    -0.83848000000,
                    48.93674000000
                ]
            }
        },
        {
            "type": "Feature",
            "properties": {
                "name": "Saint-Hilaire-du-Harcouët",
                "icon": "4",
                "id": "954"
            },
            "geometry": {
                "type": "Point",
                "coordinates": [
                    -1.09471000000,
                    48.58021000000
                ]
            }
        },
        {
            "type": "Feature",
            "properties": {
                "id": "1158",
                "icon": "4",
                "name": "Cherbourg-en-Cotentin"
            },
            "geometry": {
                "type": "Point",
                "coordinates": [
                    -1.60320000000,
                    49.64031000000
                ]
            }
        },
        {
            "type": "Feature",
            "properties": {
                "id": "4842",
                "icon": "3",
                "name": "Caumont l'Éventé"
            },
            "geometry": {
                "type": "Point",
                "coordinates": [
                    -0.80528000000,
                    49.09055000000
                ]
            }
        },
        {
            "type": "Feature",
            "properties": {
                "name": "Mesnils-sur-Iton",
                "id": "12647",
                "icon": "37"
            },
            "geometry": {
                "type": "Point",
                "coordinates": [
                    1.04620000000,
                    48.84623000000
                ]
            }
        },
        {
            "type": "Feature",
            "properties": {
                "name": "Bellême",
                "icon": "81",
                "id": "16585"
            },
            "geometry": {
                "type": "Point",
                "coordinates": [
                    0.56205000000,
                    48.37486000000
                ]
            }
        },
        {
            "type": "Feature",
            "properties": {
                "name": "Gaillardbois-Cressenville",
                "id": "1525",
                "icon": "37"
            },
            "geometry": {
                "type": "Point",
                "coordinates": [
                    1.40686000000,
                    49.34484000000
                ]
            }
        },
        {
            "type": "Feature",
            "properties": {
                "name": "Amfreville-sur-Iton",
                "icon": "37",
                "id": "14440"
            },
            "geometry": {
                "type": "Point",
                "coordinates": [
                    1.13601000000,
                    49.15973000000
                ]
            }
        },
        {
            "type": "Feature",
            "properties": {
                "icon": "81",
                "name": "Saint-Clair-de-Halouze",
                "id": "875"
            },
            "geometry": {
                "type": "Point",
                "coordinates": [
                    -0.62156000000,
                    48.68795000000
                ]
            }
        },
        {
            "type": "Feature",
            "properties": {
                "name": "Caen",
                "icon": "3",
                "id": "1079"
            },
            "geometry": {
                "type": "Point",
                "coordinates": [
                    -0.36241000000,
                    49.18566000000
                ]
            }
        },
        {
            "type": "Feature",
            "properties": {
                "icon": "81",
                "name": "Condeau",
                "id": "10705"
            },
            "geometry": {
                "type": "Point",
                "coordinates": [
                    0.83441000000,
                    48.38527000000
                ]
            }
        },
        {
            "type": "Feature",
            "properties": {
                "name": "Saint-Denis-de-Méré",
                "icon": "3",
                "id": "6731"
            },
            "geometry": {
                "type": "Point",
                "coordinates": [
                    -0.51735000000,
                    48.86891000000
                ]
            }
        },
        {
            "type": "Feature",
            "properties": {
                "id": "1367",
                "icon": "3",
                "name": "Trouville-sur-Mer"
            },
            "geometry": {
                "type": "Point",
                "coordinates": [
                    0.08620000000,
                    49.36118000000
                ]
            }
        },
        {
            "type": "Feature",
            "properties": {
                "name": "Sannerville",
                "id": "13677",
                "icon": "3"
            },
            "geometry": {
                "type": "Point",
                "coordinates": [
                    -0.22277000000,
                    49.18078000000
                ]
            }
        },
        {
            "type": "Feature",
            "properties": {
                "name": "Caen",
                "icon": "3",
                "id": "8788"
            },
            "geometry": {
                "type": "Point",
                "coordinates": [
                    -0.35746000000,
                    49.20444000000
                ]
            }
        },
        {
            "type": "Feature",
            "properties": {
                "name": "Serqueux",
                "icon": "96",
                "id": "5010"
            },
            "geometry": {
                "type": "Point",
                "coordinates": [
                    1.53798000000,
                    49.63117000000
                ]
            }
        },
        {
            "type": "Feature",
            "properties": {
                "id": "4557",
                "icon": "81",
                "name": "Saint-Clair-de-Halouze"
            },
            "geometry": {
                "type": "Point",
                "coordinates": [
                    -0.62726000000,
                    48.68041000000
                ]
            }
        },
        {
            "type": "Feature",
            "properties": {
                "id": "17890",
                "name": "Caen",
                "icon": "3"
            },
            "geometry": {
                "type": "Point",
                "coordinates": [
                    -0.37157000000,
                    49.18943000000
                ]
            }
        },
        {
            "type": "Feature",
            "properties": {
                "icon": "96",
                "name": "Petit-Caux",
                "id": "15143"
            },
            "geometry": {
                "type": "Point",
                "coordinates": [
                    1.32895000000,
                    49.94446000000
                ]
            }
        },
        {
            "type": "Feature",
            "properties": {
                "icon": "96",
                "id": "11074",
                "name": "Ypreville-Biville"
            },
            "geometry": {
                "type": "Point",
                "coordinates": [
                    0.53462000000,
                    49.69411000000
                ]
            }
        },
        {
            "type": "Feature",
            "properties": {
                "name": "Cormelles-le-Royal",
                "id": "16132",
                "icon": "3"
            },
            "geometry": {
                "type": "Point",
                "coordinates": [
                    -0.33532000000,
                    49.16055000000
                ]
            }
        },
        {
            "type": "Feature",
            "properties": {
                "icon": "4",
                "name": "Barenton",
                "id": "13185"
            },
            "geometry": {
                "type": "Point",
                "coordinates": [
                    -0.80650000000,
                    48.58747000000
                ]
            }
        },
        {
            "type": "Feature",
            "properties": {
                "name": "Bougy",
                "id": "16953",
                "icon": "3"
            },
            "geometry": {
                "type": "Point",
                "coordinates": [
                    -0.52587000000,
                    49.11190000000
                ]
            }
        },
        {
            "type": "Feature",
            "properties": {
                "id": "14548",
                "name": "Brouains",
                "icon": "4"
            },
            "geometry": {
                "type": "Point",
                "coordinates": [
                    -0.96743000000,
                    48.72090000000
                ]
            }
        },
        {
            "type": "Feature",
            "properties": {
                "name": "Le Mesnil-Villement",
                "icon": "3",
                "id": "966"
            },
            "geometry": {
                "type": "Point",
                "coordinates": [
                    -0.38218000000,
                    48.85131000000
                ]
            }
        },
        {
            "type": "Feature",
            "properties": {
                "name": "Coutances",
                "id": "1109",
                "icon": "4"
            },
            "geometry": {
                "type": "Point",
                "coordinates": [
                    -1.43148000000,
                    49.05530000000
                ]
            }
        },
        {
            "type": "Feature",
            "properties": {
                "name": "Ducy-Sainte-Marguerite",
                "id": "12749",
                "icon": "3"
            },
            "geometry": {
                "type": "Point",
                "coordinates": [
                    -0.61205000000,
                    49.22539000000
                ]
            }
        },
        {
            "type": "Feature",
            "properties": {
                "name": "Sartilly",
                "id": "4901",
                "icon": "4"
            },
            "geometry": {
                "type": "Point",
                "coordinates": [
                    -1.46261000000,
                    48.75069000000
                ]
            }
        },
        {
            "type": "Feature",
            "properties": {
                "icon": "81",
                "id": "16588",
                "name": "Les Genettes"
            },
            "geometry": {
                "type": "Point",
                "coordinates": [
                    0.56924000000,
                    48.66382000000
                ]
            }
        },
        {
            "type": "Feature",
            "properties": {
                "id": "14180",
                "name": "Caen",
                "icon": "3"
            },
            "geometry": {
                "type": "Point",
                "coordinates": [
                    -0.35462000000,
                    49.18667000000
                ]
            }
        },
        {
            "type": "Feature",
            "properties": {
                "id": "9563",
                "name": "Lion-sur-Mer",
                "icon": "3"
            },
            "geometry": {
                "type": "Point",
                "coordinates": [
                    -0.31425000000,
                    49.30254000000
                ]
            }
        },
        {
            "type": "Feature",
            "properties": {
                "icon": "37",
                "name": "Neaufles Saint-Martin",
                "id": "2014"
            },
            "geometry": {
                "type": "Point",
                "coordinates": [
                    1.74060000000,
                    49.27082000000
                ]
            }
        },
        {
            "type": "Feature",
            "properties": {
                "name": "Fontaine-Étoupefour",
                "id": "902",
                "icon": "3"
            },
            "geometry": {
                "type": "Point",
                "coordinates": [
                    -0.45563000000,
                    49.14561000000
                ]
            }
        },
        {
            "type": "Feature",
            "properties": {
                "name": "Mondeville",
                "id": "11678",
                "icon": "3"
            },
            "geometry": {
                "type": "Point",
                "coordinates": [
                    -0.30162000000,
                    49.16162000000
                ]
            }
        },
        {
            "type": "Feature",
            "properties": {
                "icon": "4",
                "name": "Champrepus",
                "id": "7149"
            },
            "geometry": {
                "type": "Point",
                "coordinates": [
                    -1.32174000000,
                    48.83383000000
                ]
            }
        },
        {
            "type": "Feature",
            "properties": {
                "name": "Lisieux",
                "icon": "3",
                "id": "1387"
            },
            "geometry": {
                "type": "Point",
                "coordinates": [
                    0.25510000000,
                    49.14365000000
                ]
            }
        },
        {
            "type": "Feature",
            "properties": {
                "id": "12823",
                "name": "Bouafles",
                "icon": "37"
            },
            "geometry": {
                "type": "Point",
                "coordinates": [
                    1.38027000000,
                    49.20826000000
                ]
            }
        },
        {
            "type": "Feature",
            "properties": {
                "icon": "96",
                "name": "Fécamp",
                "id": "1485"
            },
            "geometry": {
                "type": "Point",
                "coordinates": [
                    0.36744000000,
                    49.76071000000
                ]
            }
        },
        {
            "type": "Feature",
            "properties": {
                "icon": "96",
                "id": "15167",
                "name": "Petit-Caux"
            },
            "geometry": {
                "type": "Point",
                "coordinates": [
                    1.30447000000,
                    49.94623000000
                ]
            }
        },
        {
            "type": "Feature",
            "properties": {
                "icon": "3",
                "id": "1055",
                "name": "Ouistreham"
            },
            "geometry": {
                "type": "Point",
                "coordinates": [
                    -0.25473000000,
                    49.27924000000
                ]
            }
        },
        {
            "type": "Feature",
            "properties": {
                "id": "1333",
                "icon": "81",
                "name": "Vimoutiers"
            },
            "geometry": {
                "type": "Point",
                "coordinates": [
                    0.19939000000,
                    48.92810000000
                ]
            }
        },
        {
            "type": "Feature",
            "properties": {
                "name": "Le Parc",
                "id": "11969",
                "icon": "4"
            },
            "geometry": {
                "type": "Point",
                "coordinates": [
                    -1.29241000000,
                    48.75850000000
                ]
            }
        },
        {
            "type": "Feature",
            "properties": {
                "name": "Sartilly",
                "id": "4903",
                "icon": "4"
            },
            "geometry": {
                "type": "Point",
                "coordinates": [
                    -1.45783000000,
                    48.75223000000
                ]
            }
        },
        {
            "type": "Feature",
            "properties": {
                "icon": "96",
                "name": "Bonsecours",
                "id": "1475"
            },
            "geometry": {
                "type": "Point",
                "coordinates": [
                    1.12540000000,
                    49.42483000000
                ]
            }
        },
        {
            "type": "Feature",
            "properties": {
                "id": "13533",
                "name": "Capelle-les-Grands",
                "icon": "37"
            },
            "geometry": {
                "type": "Point",
                "coordinates": [
                    0.47437000000,
                    49.04594000000
                ]
            }
        },
        {
            "type": "Feature",
            "properties": {
                "id": "282",
                "icon": "4",
                "name": "Avranches"
            },
            "geometry": {
                "type": "Point",
                "coordinates": [
                    -1.36125000000,
                    48.68765000000
                ]
            }
        },
        {
            "type": "Feature",
            "properties": {
                "id": "4580",
                "name": "Démouville",
                "icon": "3"
            },
            "geometry": {
                "type": "Point",
                "coordinates": [
                    -0.26894000000,
                    49.17820000000
                ]
            }
        },
        {
            "type": "Feature",
            "properties": {
                "name": "Vernon",
                "icon": "37",
                "id": "2032"
            },
            "geometry": {
                "type": "Point",
                "coordinates": [
                    1.48536000000,
                    49.09283000000
                ]
            }
        },
        {
            "type": "Feature",
            "properties": {
                "id": "924",
                "icon": "3",
                "name": "Luc-sur-Mer"
            },
            "geometry": {
                "type": "Point",
                "coordinates": [
                    -0.35468000000,
                    49.31702000000
                ]
            }
        },
        {
            "type": "Feature",
            "properties": {
                "icon": "4",
                "name": "Les Pieux",
                "id": "1132"
            },
            "geometry": {
                "type": "Point",
                "coordinates": [
                    -1.84840000000,
                    49.50650000000
                ]
            }
        },
        {
            "type": "Feature",
            "properties": {
                "name": "Lisieux",
                "id": "9690",
                "icon": "3"
            },
            "geometry": {
                "type": "Point",
                "coordinates": [
                    0.22258000000,
                    49.15694000000
                ]
            }
        },
        {
            "type": "Feature",
            "properties": {
                "icon": "96",
                "id": "7653",
                "name": "Fécamp"
            },
            "geometry": {
                "type": "Point",
                "coordinates": [
                    0.36769000000,
                    49.74869000000
                ]
            }
        },
        {
            "type": "Feature",
            "properties": {
                "id": "1411",
                "icon": "96",
                "name": "Rouen"
            },
            "geometry": {
                "type": "Point",
                "coordinates": [
                    1.07778000000,
                    49.42207000000
                ]
            }
        },
        {
            "type": "Feature",
            "properties": {
                "id": "12853",
                "name": "Tourgéville",
                "icon": "3"
            },
            "geometry": {
                "type": "Point",
                "coordinates": [
                    0.06565000000,
                    49.32422000000
                ]
            }
        },
        {
            "type": "Feature",
            "properties": {
                "name": "Lisieux",
                "id": "9646",
                "icon": "3"
            },
            "geometry": {
                "type": "Point",
                "coordinates": [
                    0.22495000000,
                    49.13288000000
                ]
            }
        },
        {
            "type": "Feature",
            "properties": {
                "icon": "96",
                "name": "Rouen",
                "id": "17684"
            },
            "geometry": {
                "type": "Point",
                "coordinates": [
                    1.06823000000,
                    49.44598000000
                ]
            }
        },
        {
            "type": "Feature",
            "properties": {
                "id": "15475",
                "icon": "37",
                "name": "Aizier"
            },
            "geometry": {
                "type": "Point",
                "coordinates": [
                    0.62620000000,
                    49.43010000000
                ]
            }
        },
        {
            "type": "Feature",
            "properties": {
                "name": "Saint-Lô",
                "icon": "4",
                "id": "944"
            },
            "geometry": {
                "type": "Point",
                "coordinates": [
                    -1.08469000000,
                    49.11649000000
                ]
            }
        },
        {
            "type": "Feature",
            "properties": {
                "name": "Gonneville-en-Auge",
                "icon": "3",
                "id": "1343"
            },
            "geometry": {
                "type": "Point",
                "coordinates": [
                    -0.19024000000,
                    49.26059000000
                ]
            }
        },
        {
            "type": "Feature",
            "properties": {
                "name": "Dangu",
                "id": "12598",
                "icon": "37"
            },
            "geometry": {
                "type": "Point",
                "coordinates": [
                    1.69852000000,
                    49.25185000000
                ]
            }
        },
        {
            "type": "Feature",
            "properties": {
                "icon": "96",
                "name": "Rouen",
                "id": "1427"
            },
            "geometry": {
                "type": "Point",
                "coordinates": [
                    1.08269000000,
                    49.44945000000
                ]
            }
        },
        {
            "type": "Feature",
            "properties": {
                "icon": "96",
                "name": "Dieppe",
                "id": "1509"
            },
            "geometry": {
                "type": "Point",
                "coordinates": [
                    1.07351000000,
                    49.92663000000
                ]
            }
        },
        {
            "type": "Feature",
            "properties": {
                "id": "349",
                "icon": "3",
                "name": "Bayeux"
            },
            "geometry": {
                "type": "Point",
                "coordinates": [
                    -0.70259000000,
                    49.27622000000
                ]
            }
        },
        {
            "type": "Feature",
            "properties": {
                "icon": "81",
                "id": "871",
                "name": "Flers"
            },
            "geometry": {
                "type": "Point",
                "coordinates": [
                    -0.58154000000,
                    48.73186000000
                ]
            }
        },
        {
            "type": "Feature",
            "properties": {
                "name": "Cagny",
                "id": "16102",
                "icon": "3"
            },
            "geometry": {
                "type": "Point",
                "coordinates": [
                    -0.25451000000,
                    49.14764000000
                ]
            }
        },
        {
            "type": "Feature",
            "properties": {
                "id": "9935",
                "icon": "81",
                "name": "Le Renouard"
            },
            "geometry": {
                "type": "Point",
                "coordinates": [
                    0.10120000000,
                    48.92043000000
                ]
            }
        },
        {
            "type": "Feature",
            "properties": {
                "name": "Martinvast",
                "icon": "4",
                "id": "6572"
            },
            "geometry": {
                "type": "Point",
                "coordinates": [
                    -1.66296000000,
                    49.59439000000
                ]
            }
        },
        {
            "type": "Feature",
            "properties": {
                "id": "1359",
                "name": "Villers-sur-Mer",
                "icon": "3"
            },
            "geometry": {
                "type": "Point",
                "coordinates": [
                    0.01010000000,
                    49.33021000000
                ]
            }
        },
        {
            "type": "Feature",
            "properties": {
                "id": "13578",
                "name": "Beauchamps (50)",
                "icon": "4"
            },
            "geometry": {
                "type": "Point",
                "coordinates": [
                    -1.35978000000,
                    48.83306000000
                ]
            }
        },
        {
            "type": "Feature",
            "properties": {
                "name": "Les Andelys",
                "id": "9667",
                "icon": "37"
            },
            "geometry": {
                "type": "Point",
                "coordinates": [
                    1.42127000000,
                    49.24543000000
                ]
            }
        },
        {
            "type": "Feature",
            "properties": {
                "id": "4932",
                "name": "Acquigny",
                "icon": "37"
            },
            "geometry": {
                "type": "Point",
                "coordinates": [
                    1.17689000000,
                    49.17258000000
                ]
            }
        },
        {
            "type": "Feature",
            "properties": {
                "icon": "81",
                "name": "Ecouché",
                "id": "4543"
            },
            "geometry": {
                "type": "Point",
                "coordinates": [
                    -0.12184000000,
                    48.71611000000
                ]
            }
        },
        {
            "type": "Feature",
            "properties": {
                "id": "2303",
                "name": "Neuilly-le-Malherbe",
                "icon": "3"
            },
            "geometry": {
                "type": "Point",
                "coordinates": [
                    -0.54520000000,
                    49.09495000000
                ]
            }
        },
        {
            "type": "Feature",
            "properties": {
                "name": "Aviron",
                "id": "15108",
                "icon": "37"
            },
            "geometry": {
                "type": "Point",
                "coordinates": [
                    1.12012000000,
                    49.05857000000
                ]
            }
        },
        {
            "type": "Feature",
            "properties": {
                "id": "4622",
                "icon": "96",
                "name": "Elbeuf"
            },
            "geometry": {
                "type": "Point",
                "coordinates": [
                    1.00693000000,
                    49.28922000000
                ]
            }
        },
        {
            "type": "Feature",
            "properties": {
                "id": "968",
                "name": "Falaise",
                "icon": "3"
            },
            "geometry": {
                "type": "Point",
                "coordinates": [
                    -0.19620000000,
                    48.89521000000
                ]
            }
        },
        {
            "type": "Feature",
            "properties": {
                "icon": "4",
                "name": "Cherbourg-en-Cotentin",
                "id": "1165"
            },
            "geometry": {
                "type": "Point",
                "coordinates": [
                    -1.57955000000,
                    49.64107000000
                ]
            }
        },
        {
            "type": "Feature",
            "properties": {
                "name": "Domfront-en-Poiraie",
                "icon": "81",
                "id": "8425"
            },
            "geometry": {
                "type": "Point",
                "coordinates": [
                    -0.65026000000,
                    48.58893000000
                ]
            }
        },
        {
            "type": "Feature",
            "properties": {
                "id": "13177",
                "icon": "3",
                "name": "Éterville"
            },
            "geometry": {
                "type": "Point",
                "coordinates": [
                    -0.42782000000,
                    49.14431000000
                ]
            }
        },
        {
            "type": "Feature",
            "properties": {
                "icon": "96",
                "name": "Rouen",
                "id": "1431"
            },
            "geometry": {
                "type": "Point",
                "coordinates": [
                    1.10635000000,
                    49.44676000000
                ]
            }
        },
        {
            "type": "Feature",
            "properties": {
                "id": "16712",
                "name": "Saint-Barthelemy",
                "icon": "4"
            },
            "geometry": {
                "type": "Point",
                "coordinates": [
                    -0.95352000000,
                    48.68177000000
                ]
            }
        },
        {
            "type": "Feature",
            "properties": {
                "name": "Baron-sur-Odon",
                "id": "15",
                "icon": "3"
            },
            "geometry": {
                "type": "Point",
                "coordinates": [
                    -0.47895000000,
                    49.13294000000
                ]
            }
        },
        {
            "type": "Feature",
            "properties": {
                "icon": "81",
                "name": "La Ferté-Macé",
                "id": "4553"
            },
            "geometry": {
                "type": "Point",
                "coordinates": [
                    -0.35791000000,
                    48.58984000000
                ]
            }
        },
        {
            "type": "Feature",
            "properties": {
                "icon": "81",
                "name": "Flers",
                "id": "2497"
            },
            "geometry": {
                "type": "Point",
                "coordinates": [
                    -0.58409000000,
                    48.74251000000
                ]
            }
        },
        {
            "type": "Feature",
            "properties": {
                "name": "Le Mesnil-Auzouf",
                "icon": "3",
                "id": "898"
            },
            "geometry": {
                "type": "Point",
                "coordinates": [
                    -0.75237000000,
                    48.97971000000
                ]
            }
        },
        {
            "type": "Feature",
            "properties": {
                "name": "Pirou",
                "icon": "4",
                "id": "1101"
            },
            "geometry": {
                "type": "Point",
                "coordinates": [
                    -1.59756000000,
                    49.16725000000
                ]
            }
        },
        {
            "type": "Feature",
            "properties": {
                "name": "Muneville-le-Bingard",
                "id": "12739",
                "icon": "4"
            },
            "geometry": {
                "type": "Point",
                "coordinates": [
                    -1.47913000000,
                    49.12107000000
                ]
            }
        },
        {
            "type": "Feature",
            "properties": {
                "id": "4879",
                "name": "Dives-sur-Mer",
                "icon": "3"
            },
            "geometry": {
                "type": "Point",
                "coordinates": [
                    -0.09476000000,
                    49.29126000000
                ]
            }
        },
        {
            "type": "Feature",
            "properties": {
                "name": "Deauville",
                "icon": "3",
                "id": "1365"
            },
            "geometry": {
                "type": "Point",
                "coordinates": [
                    0.08350000000,
                    49.35995000000
                ]
            }
        },
        {
            "type": "Feature",
            "properties": {
                "name": "Nonancourt",
                "id": "13771",
                "icon": "37"
            },
            "geometry": {
                "type": "Point",
                "coordinates": [
                    1.19593000000,
                    48.77257000000
                ]
            }
        },
        {
            "type": "Feature",
            "properties": {
                "name": "Clécy",
                "id": "9212",
                "icon": "3"
            },
            "geometry": {
                "type": "Point",
                "coordinates": [
                    -0.48198000000,
                    48.91745000000
                ]
            }
        },
        {
            "type": "Feature",
            "properties": {
                "name": "Mortagne-au-Perche",
                "icon": "81",
                "id": "4533"
            },
            "geometry": {
                "type": "Point",
                "coordinates": [
                    0.54536000000,
                    48.51971000000
                ]
            }
        },
        {
            "type": "Feature",
            "properties": {
                "name": "Authie",
                "id": "17259",
                "icon": "3"
            },
            "geometry": {
                "type": "Point",
                "coordinates": [
                    -0.41594000000,
                    49.20227000000
                ]
            }
        },
        {
            "type": "Feature",
            "properties": {
                "icon": "96",
                "id": "15151",
                "name": "Petit-Caux"
            },
            "geometry": {
                "type": "Point",
                "coordinates": [
                    1.18699000000,
                    49.95875000000
                ]
            }
        },
        {
            "type": "Feature",
            "properties": {
                "name": "Quettehou",
                "icon": "4",
                "id": "11295"
            },
            "geometry": {
                "type": "Point",
                "coordinates": [
                    -1.30346000000,
                    49.59312000000
                ]
            }
        },
        {
            "type": "Feature",
            "properties": {
                "id": "7094",
                "name": "Lisieux",
                "icon": "3"
            },
            "geometry": {
                "type": "Point",
                "coordinates": [
                    0.24043000000,
                    49.14294000000
                ]
            }
        },
        {
            "type": "Feature",
            "properties": {
                "id": "1379",
                "icon": "96",
                "name": "Saint-Vigor-d'Ymonville"
            },
            "geometry": {
                "type": "Point",
                "coordinates": [
                    0.35969000000,
                    49.49512000000
                ]
            }
        },
        {
            "type": "Feature",
            "properties": {
                "id": "4864",
                "icon": "4",
                "name": "Montcuit"
            },
            "geometry": {
                "type": "Point",
                "coordinates": [
                    -1.34164000000,
                    49.12136000000
                ]
            }
        },
        {
            "type": "Feature",
            "properties": {
                "name": "Marcey-les-Grèves",
                "id": "13369",
                "icon": "4"
            },
            "geometry": {
                "type": "Point",
                "coordinates": [
                    -1.39026000000,
                    48.69722000000
                ]
            }
        },
        {
            "type": "Feature",
            "properties": {
                "id": "1477",
                "icon": "96",
                "name": "Bois-Guillaume"
            },
            "geometry": {
                "type": "Point",
                "coordinates": [
                    1.11993000000,
                    49.47044000000
                ]
            }
        },
        {
            "type": "Feature",
            "properties": {
                "name": "Annebault",
                "icon": "3",
                "id": "14560"
            },
            "geometry": {
                "type": "Point",
                "coordinates": [
                    0.05914000000,
                    49.25249000000
                ]
            }
        },
        {
            "type": "Feature",
            "properties": {
                "id": "1051",
                "icon": "3",
                "name": "Ouistreham"
            },
            "geometry": {
                "type": "Point",
                "coordinates": [
                    -0.26092000000,
                    49.27514000000
                ]
            }
        },
        {
            "type": "Feature",
            "properties": {
                "name": "Le L'habit",
                "id": "16257",
                "icon": "37"
            },
            "geometry": {
                "type": "Point",
                "coordinates": [
                    1.35710000000,
                    48.87135000000
                ]
            }
        },
        {
            "type": "Feature",
            "properties": {
                "name": "Jort",
                "id": "12746",
                "icon": "3"
            },
            "geometry": {
                "type": "Point",
                "coordinates": [
                    -0.07976000000,
                    48.97317000000
                ]
            }
        },
        {
            "type": "Feature",
            "properties": {
                "id": "1467",
                "icon": "96",
                "name": "Rouen"
            },
            "geometry": {
                "type": "Point",
                "coordinates": [
                    1.06151000000,
                    49.44237000000
                ]
            }
        },
        {
            "type": "Feature",
            "properties": {
                "name": "Beaumont-le-Roger",
                "icon": "37",
                "id": "13529"
            },
            "geometry": {
                "type": "Point",
                "coordinates": [
                    0.77545000000,
                    49.08113000000
                ]
            }
        },
        {
            "type": "Feature",
            "properties": {
                "id": "210",
                "icon": "81",
                "name": "Argentan"
            },
            "geometry": {
                "type": "Point",
                "coordinates": [
                    -0.01975000000,
                    48.74357000000
                ]
            }
        },
        {
            "type": "Feature",
            "properties": {
                "name": "Sarceaux",
                "icon": "81",
                "id": "4541"
            },
            "geometry": {
                "type": "Point",
                "coordinates": [
                    -0.04062000000,
                    48.71877000000
                ]
            }
        },
        {
            "type": "Feature",
            "properties": {
                "name": "Vernon",
                "id": "2030",
                "icon": "37"
            },
            "geometry": {
                "type": "Point",
                "coordinates": [
                    1.49154000000,
                    49.09888000000
                ]
            }
        },
        {
            "type": "Feature",
            "properties": {
                "name": "Le Fresne-Camilly",
                "id": "916",
                "icon": "3"
            },
            "geometry": {
                "type": "Point",
                "coordinates": [
                    -0.48862000000,
                    49.25784000000
                ]
            }
        },
        {
            "type": "Feature",
            "properties": {
                "name": "Jullouville",
                "icon": "4",
                "id": "1121"
            },
            "geometry": {
                "type": "Point",
                "coordinates": [
                    -1.56931000000,
                    48.77604000000
                ]
            }
        },
        {
            "type": "Feature",
            "properties": {
                "icon": "96",
                "name": "Le Havre",
                "id": "4684"
            },
            "geometry": {
                "type": "Point",
                "coordinates": [
                    0.12998000000,
                    49.49052000000
                ]
            }
        },
        {
            "type": "Feature",
            "properties": {
                "id": "11783",
                "name": "Évreux",
                "icon": "37"
            },
            "geometry": {
                "type": "Point",
                "coordinates": [
                    1.14503000000,
                    49.02851000000
                ]
            }
        },
        {
            "type": "Feature",
            "properties": {
                "icon": "96",
                "name": "Déville-lès-Rouen",
                "id": "7426"
            },
            "geometry": {
                "type": "Point",
                "coordinates": [
                    1.04411000000,
                    49.46392000000
                ]
            }
        },
        {
            "type": "Feature",
            "properties": {
                "id": "1403",
                "name": "Le Bosc-Roger-en-Roumois",
                "icon": "37"
            },
            "geometry": {
                "type": "Point",
                "coordinates": [
                    0.92256000000,
                    49.28962000000
                ]
            }
        },
        {
            "type": "Feature",
            "properties": {
                "icon": "96",
                "name": "Duclair",
                "id": "12848"
            },
            "geometry": {
                "type": "Point",
                "coordinates": [
                    0.87694000000,
                    49.48144000000
                ]
            }
        },
        {
            "type": "Feature",
            "properties": {
                "name": "Le Pré-d'Auge",
                "id": "9559",
                "icon": "3"
            },
            "geometry": {
                "type": "Point",
                "coordinates": [
                    0.13543000000,
                    49.15155000000
                ]
            }
        },
        {
            "type": "Feature",
            "properties": {
                "name": "Martigny (76)",
                "icon": "96",
                "id": "1503"
            },
            "geometry": {
                "type": "Point",
                "coordinates": [
                    1.15436000000,
                    49.86427000000
                ]
            }
        },
        {
            "type": "Feature",
            "properties": {
                "icon": "96",
                "id": "5032",
                "name": "Gournay-en-Bray"
            },
            "geometry": {
                "type": "Point",
                "coordinates": [
                    1.71601000000,
                    49.47918000000
                ]
            }
        },
        {
            "type": "Feature",
            "properties": {
                "icon": "4",
                "name": "Avranches",
                "id": "15274"
            },
            "geometry": {
                "type": "Point",
                "coordinates": [
                    -1.35189000000,
                    48.67794000000
                ]
            }
        },
        {
            "type": "Feature",
            "properties": {
                "name": "Blainville-sur-Orne",
                "icon": "3",
                "id": "1067"
            },
            "geometry": {
                "type": "Point",
                "coordinates": [
                    -0.29857000000,
                    49.22766000000
                ]
            }
        },
        {
            "type": "Feature",
            "properties": {
                "icon": "4",
                "id": "6202",
                "name": "Domjean"
            },
            "geometry": {
                "type": "Point",
                "coordinates": [
                    -1.03254000000,
                    48.98720000000
                ]
            }
        },
        {
            "type": "Feature",
            "properties": {
                "icon": "81",
                "name": "Le Sap",
                "id": "1331"
            },
            "geometry": {
                "type": "Point",
                "coordinates": [
                    0.34079000000,
                    48.89367000000
                ]
            }
        },
        {
            "type": "Feature",
            "properties": {
                "id": "12125",
                "name": "La Hague",
                "icon": "4"
            },
            "geometry": {
                "type": "Point",
                "coordinates": [
                    -1.77395000000,
                    49.59509000000
                ]
            }
        },
        {
            "type": "Feature",
            "properties": {
                "icon": "96",
                "name": "Rouen",
                "id": "1419"
            },
            "geometry": {
                "type": "Point",
                "coordinates": [
                    1.08287000000,
                    49.44021000000
                ]
            }
        },
        {
            "type": "Feature",
            "properties": {
                "id": "13567",
                "icon": "37",
                "name": "Cailly-sur-Eure"
            },
            "geometry": {
                "type": "Point",
                "coordinates": [
                    1.21177000000,
                    49.11613000000
                ]
            }
        },
        {
            "type": "Feature",
            "properties": {
                "id": "351",
                "icon": "3",
                "name": "Bayeux"
            },
            "geometry": {
                "type": "Point",
                "coordinates": [
                    -0.71056000000,
                    49.28905000000
                ]
            }
        },
        {
            "type": "Feature",
            "properties": {
                "name": "Parfouru-sur-Odon",
                "id": "863",
                "icon": "3"
            },
            "geometry": {
                "type": "Point",
                "coordinates": [
                    -0.60698000000,
                    49.09005000000
                ]
            }
        },
        {
            "type": "Feature",
            "properties": {
                "icon": "4",
                "id": "1142",
                "name": "Cherbourg-en-Cotentin"
            },
            "geometry": {
                "type": "Point",
                "coordinates": [
                    -1.68147000000,
                    49.65633000000
                ]
            }
        },
        {
            "type": "Feature",
            "properties": {
                "id": "9744",
                "icon": "4",
                "name": "Siouville-Hague"
            },
            "geometry": {
                "type": "Point",
                "coordinates": [
                    -1.84437000000,
                    49.56500000000
                ]
            }
        },
        {
            "type": "Feature",
            "properties": {
                "name": "La Rivière-Saint-Sauveur",
                "id": "6463",
                "icon": "3"
            },
            "geometry": {
                "type": "Point",
                "coordinates": [
                    0.27156000000,
                    49.40788000000
                ]
            }
        },
        {
            "type": "Feature",
            "properties": {
                "name": "Cabourg",
                "id": "1351",
                "icon": "3"
            },
            "geometry": {
                "type": "Point",
                "coordinates": [
                    -0.12463000000,
                    49.28772000000
                ]
            }
        },
        {
            "type": "Feature",
            "properties": {
                "name": "Teurthéville-Bocage",
                "icon": "4",
                "id": "13014"
            },
            "geometry": {
                "type": "Point",
                "coordinates": [
                    -1.39733000000,
                    49.59207000000
                ]
            }
        },
        {
            "type": "Feature",
            "properties": {
                "name": "Lisieux",
                "id": "9648",
                "icon": "3"
            },
            "geometry": {
                "type": "Point",
                "coordinates": [
                    0.23099000000,
                    49.13884000000
                ]
            }
        },
        {
            "type": "Feature",
            "properties": {
                "name": "Douvres-la-Délivrande",
                "id": "17763",
                "icon": "3"
            },
            "geometry": {
                "type": "Point",
                "coordinates": [
                    -0.38682000000,
                    49.28987000000
                ]
            }
        },
        {
            "type": "Feature",
            "properties": {
                "id": "490",
                "name": "Bénouville",
                "icon": "3"
            },
            "geometry": {
                "type": "Point",
                "coordinates": [
                    -0.27630000000,
                    49.24658000000
                ]
            }
        },
        {
            "type": "Feature",
            "properties": {
                "id": "4613",
                "icon": "96",
                "name": "Elbeuf"
            },
            "geometry": {
                "type": "Point",
                "coordinates": [
                    1.00769000000,
                    49.29192000000
                ]
            }
        },
        {
            "type": "Feature",
            "properties": {
                "icon": "96",
                "name": "Buchy",
                "id": "15651"
            },
            "geometry": {
                "type": "Point",
                "coordinates": [
                    1.35614000000,
                    49.58360000000
                ]
            }
        },
        {
            "type": "Feature",
            "properties": {
                "icon": "4",
                "name": "Cherbourg-en-Cotentin",
                "id": "1156"
            },
            "geometry": {
                "type": "Point",
                "coordinates": [
                    -1.61759000000,
                    49.63111000000
                ]
            }
        },
        {
            "type": "Feature",
            "properties": {
                "name": "Bretteville-sur-Odon",
                "icon": "3",
                "id": "7953"
            },
            "geometry": {
                "type": "Point",
                "coordinates": [
                    -0.41581000000,
                    49.16510000000
                ]
            }
        },
        {
            "type": "Feature",
            "properties": {
                "icon": "37",
                "id": "12638",
                "name": "Pacy-sur-Eure"
            },
            "geometry": {
                "type": "Point",
                "coordinates": [
                    1.38128000000,
                    49.01416000000
                ]
            }
        },
        {
            "type": "Feature",
            "properties": {
                "icon": "96",
                "id": "8771",
                "name": "Ourville-en-Caux"
            },
            "geometry": {
                "type": "Point",
                "coordinates": [
                    0.60479000000,
                    49.72905000000
                ]
            }
        },
        {
            "type": "Feature",
            "properties": {
                "id": "1433",
                "icon": "96",
                "name": "Rouen"
            },
            "geometry": {
                "type": "Point",
                "coordinates": [
                    1.10801000000,
                    49.44276000000
                ]
            }
        },
        {
            "type": "Feature",
            "properties": {
                "icon": "96",
                "id": "1519",
                "name": "Eu"
            },
            "geometry": {
                "type": "Point",
                "coordinates": [
                    1.41810000000,
                    50.04883000000
                ]
            }
        },
        {
            "type": "Feature",
            "properties": {
                "name": "Coulonges-les-Sablons",
                "id": "14348",
                "icon": "81"
            },
            "geometry": {
                "type": "Point",
                "coordinates": [
                    0.89919000000,
                    48.40200000000
                ]
            }
        },
        {
            "type": "Feature",
            "properties": {
                "icon": "96",
                "id": "4607",
                "name": "Mont-Saint-Aignan"
            },
            "geometry": {
                "type": "Point",
                "coordinates": [
                    1.08973000000,
                    49.45588000000
                ]
            }
        },
        {
            "type": "Feature",
            "properties": {
                "id": "869",
                "icon": "81",
                "name": "Saint-Paul"
            },
            "geometry": {
                "type": "Point",
                "coordinates": [
                    -0.63266000000,
                    48.74327000000
                ]
            }
        },
        {
            "type": "Feature",
            "properties": {
                "name": "Cambes-en-Plaine",
                "id": "1086",
                "icon": "3"
            },
            "geometry": {
                "type": "Point",
                "coordinates": [
                    -0.37292000000,
                    49.22638000000
                ]
            }
        },
        {
            "type": "Feature",
            "properties": {
                "id": "12731",
                "icon": "4",
                "name": "Carentan les Marais"
            },
            "geometry": {
                "type": "Point",
                "coordinates": [
                    -1.24884000000,
                    49.29792000000
                ]
            }
        },
        {
            "type": "Feature",
            "properties": {
                "name": "Asnelles",
                "icon": "3",
                "id": "6675"
            },
            "geometry": {
                "type": "Point",
                "coordinates": [
                    -0.58584000000,
                    49.33832000000
                ]
            }
        },
        {
            "type": "Feature",
            "properties": {
                "id": "1357",
                "name": "Villers-sur-Mer",
                "icon": "3"
            },
            "geometry": {
                "type": "Point",
                "coordinates": [
                    -0.00531000000,
                    49.32330000000
                ]
            }
        },
        {
            "type": "Feature",
            "properties": {
                "name": "Caen",
                "id": "13683",
                "icon": "3"
            },
            "geometry": {
                "type": "Point",
                "coordinates": [
                    -0.36028000000,
                    49.17112000000
                ]
            }
        },
        {
            "type": "Feature",
            "properties": {
                "id": "9090",
                "name": "Moult",
                "icon": "3"
            },
            "geometry": {
                "type": "Point",
                "coordinates": [
                    -0.16685000000,
                    49.11509000000
                ]
            }
        },
        {
            "type": "Feature",
            "properties": {
                "icon": "96",
                "id": "5020",
                "name": "Saint-Valery-en-Caux"
            },
            "geometry": {
                "type": "Point",
                "coordinates": [
                    0.70838000000,
                    49.87023000000
                ]
            }
        },
        {
            "type": "Feature",
            "properties": {
                "id": "17888",
                "name": "Caen",
                "icon": "3"
            },
            "geometry": {
                "type": "Point",
                "coordinates": [
                    -0.38782000000,
                    49.18461000000
                ]
            }
        },
        {
            "type": "Feature",
            "properties": {
                "icon": "96",
                "id": "15147",
                "name": "Petit-Caux"
            },
            "geometry": {
                "type": "Point",
                "coordinates": [
                    1.16494000000,
                    49.94946000000
                ]
            }
        },
        {
            "type": "Feature",
            "properties": {
                "name": "Yébleron",
                "icon": "96",
                "id": "11072"
            },
            "geometry": {
                "type": "Point",
                "coordinates": [
                    0.53696000000,
                    49.63360000000
                ]
            }
        },
        {
            "type": "Feature",
            "properties": {
                "id": "16182",
                "name": "Le Mêle-sur-Sarthe",
                "icon": "81"
            },
            "geometry": {
                "type": "Point",
                "coordinates": [
                    0.35322000000,
                    48.51251000000
                ]
            }
        },
        {
            "type": "Feature",
            "properties": {
                "icon": "4",
                "name": "Agneaux",
                "id": "4851"
            },
            "geometry": {
                "type": "Point",
                "coordinates": [
                    -1.11253000000,
                    49.11912000000
                ]
            }
        },
        {
            "type": "Feature",
            "properties": {
                "id": "13363",
                "icon": "3",
                "name": "Maisoncelles-sur-Ajon"
            },
            "geometry": {
                "type": "Point",
                "coordinates": [
                    -0.53903000000,
                    49.05532000000
                ]
            }
        },
        {
            "type": "Feature",
            "properties": {
                "id": "16938",
                "icon": "81",
                "name": "Saint-Pierre-d'Entremont"
            },
            "geometry": {
                "type": "Point",
                "coordinates": [
                    -0.64952000000,
                    48.80965000000
                ]
            }
        },
        {
            "type": "Feature",
            "properties": {
                "name": "Agon-Coutainville",
                "id": "60",
                "icon": "4"
            },
            "geometry": {
                "type": "Point",
                "coordinates": [
                    -1.59633000000,
                    49.04791000000
                ]
            }
        },
        {
            "type": "Feature",
            "properties": {
                "icon": "81",
                "name": "La Ferrière-aux-Étangs",
                "id": "964"
            },
            "geometry": {
                "type": "Point",
                "coordinates": [
                    -0.51910000000,
                    48.66283000000
                ]
            }
        },
        {
            "type": "Feature",
            "properties": {
                "name": "Coutances",
                "id": "1107",
                "icon": "4"
            },
            "geometry": {
                "type": "Point",
                "coordinates": [
                    -1.44497000000,
                    49.03901000000
                ]
            }
        },
        {
            "type": "Feature",
            "properties": {
                "icon": "4",
                "name": "Chef-du-Pont",
                "id": "12737"
            },
            "geometry": {
                "type": "Point",
                "coordinates": [
                    -1.34188000000,
                    49.38469000000
                ]
            }
        },
        {
            "type": "Feature",
            "properties": {
                "icon": "96",
                "name": "Rouen",
                "id": "1459"
            },
            "geometry": {
                "type": "Point",
                "coordinates": [
                    1.09063000000,
                    49.44037000000
                ]
            }
        },
        {
            "type": "Feature",
            "properties": {
                "icon": "81",
                "name": "Flers",
                "id": "13384"
            },
            "geometry": {
                "type": "Point",
                "coordinates": [
                    -0.56938000000,
                    48.74930000000
                ]
            }
        },
        {
            "type": "Feature",
            "properties": {
                "id": "9557",
                "icon": "4",
                "name": "Saint-Pair-sur-Mer"
            },
            "geometry": {
                "type": "Point",
                "coordinates": [
                    -1.57014000000,
                    48.81672000000
                ]
            }
        },
        {
            "type": "Feature",
            "properties": {
                "icon": "96",
                "name": "Forges-les-Eaux",
                "id": "5028"
            },
            "geometry": {
                "type": "Point",
                "coordinates": [
                    1.53066000000,
                    49.60918000000
                ]
            }
        },
        {
            "type": "Feature",
            "properties": {
                "name": "Gisors",
                "icon": "37",
                "id": "2012"
            },
            "geometry": {
                "type": "Point",
                "coordinates": [
                    1.75755000000,
                    49.27248000000
                ]
            }
        },
        {
            "type": "Feature",
            "properties": {
                "name": "Cheux",
                "id": "908",
                "icon": "3"
            },
            "geometry": {
                "type": "Point",
                "coordinates": [
                    -0.52454000000,
                    49.16704000000
                ]
            }
        },
        {
            "type": "Feature",
            "properties": {
                "icon": "96",
                "name": "Petit-Caux",
                "id": "11330"
            },
            "geometry": {
                "type": "Point",
                "coordinates": [
                    1.27915000000,
                    49.93218000000
                ]
            }
        },
        {
            "type": "Feature",
            "properties": {
                "id": "7098",
                "name": "La Hague",
                "icon": "4"
            },
            "geometry": {
                "type": "Point",
                "coordinates": [
                    -1.83157000000,
                    49.66099000000
                ]
            }
        },
        {
            "type": "Feature",
            "properties": {
                "name": "Pont-L'Évêque",
                "id": "1393",
                "icon": "3"
            },
            "geometry": {
                "type": "Point",
                "coordinates": [
                    0.20170000000,
                    49.27513000000
                ]
            }
        },
        {
            "type": "Feature",
            "properties": {
                "icon": "96",
                "id": "12821",
                "name": "Saint-Paër"
            },
            "geometry": {
                "type": "Point",
                "coordinates": [
                    0.88110000000,
                    49.51657000000
                ]
            }
        },
        {
            "type": "Feature",
            "properties": {
                "icon": "96",
                "name": "Dieppe",
                "id": "1505"
            },
            "geometry": {
                "type": "Point",
                "coordinates": [
                    1.10168000000,
                    49.92344000000
                ]
            }
        },
        {
            "type": "Feature",
            "properties": {
                "name": "Gournay-le-Guérin",
                "icon": "37",
                "id": "5036"
            },