
{
    "type": "FeatureCollection",
    "generator": "JOSM",
    "features": [
        {
            "type": "Feature",
            "properties": {
                "icon": "43",
                "name": "Bordeaux",
                "id": "457"
            },
            "geometry": {
                "type": "Point",
                "coordinates": [
                    -0.59352000000,
                    44.84206000000
                ]
            }
        },
        {
            "type": "Feature",
            "properties": {
                "icon": "28",
                "name": "Tulle",
                "id": "3741"
            },
            "geometry": {
                "type": "Point",
                "coordinates": [
                    1.76959000000,
                    45.27042000000
                ]
            }
        },
        {
            "type": "Feature",
            "properties": {
                "name": "Cognac-la-Forêt",
                "icon": "107",
                "id": "4652"
            },
            "geometry": {
                "type": "Point",
                "coordinates": [
                    1.00764000000,
                    45.83095000000
                ]
            }
        },
        {
            "type": "Feature",
            "properties": {
                "id": "16759",
                "name": "Poitiers",
                "icon": "106"
            },
            "geometry": {
                "type": "Point",
                "coordinates": [
                    0.39040000000,
                    46.57201000000
                ]
            }
        },
        {
            "type": "Feature",
            "properties": {
                "name": "Niort",
                "id": "3681",
                "icon": "99"
            },
            "geometry": {
                "type": "Point",
                "coordinates": [
                    -0.48015000000,
                    46.31616000000
                ]
            }
        },
        {
            "type": "Feature",
            "properties": {
                "id": "17050",
                "icon": "106",
                "name": "Pindray"
            },
            "geometry": {
                "type": "Point",
                "coordinates": [
                    0.81004000000,
                    46.49065000000
                ]
            }
        },
        {
            "type": "Feature",
            "properties": {
                "name": "Annepont",
                "id": "14517",
                "icon": "26"
            },
            "geometry": {
                "type": "Point",
                "coordinates": [
                    -0.61525000000,
                    45.84501000000
                ]
            }
        },
        {
            "type": "Feature",
            "properties": {
                "name": "Châtellerault",
                "icon": "106",
                "id": "17573"
            },
            "geometry": {
                "type": "Point",
                "coordinates": [
                    0.53655000000,
                    46.81505000000
                ]
            }
        },
        {
            "type": "Feature",
            "properties": {
                "id": "3549",
                "name": "Sergeac",
                "icon": "34"
            },
            "geometry": {
                "type": "Point",
                "coordinates": [
                    1.10704000000,
                    45.00278000000
                ]
            }
        },
        {
            "type": "Feature",
            "properties": {
                "id": "14934",
                "name": "Auradou",
                "icon": "57"
            },
            "geometry": {
                "type": "Point",
                "coordinates": [
                    0.81116000000,
                    44.33382000000
                ]
            }
        },
        {
            "type": "Feature",
            "properties": {
                "icon": "106",
                "id": "3387",
                "name": "Chauvigny"
            },
            "geometry": {
                "type": "Point",
                "coordinates": [
                    0.64438000000,
                    46.56974000000
                ]
            }
        },
        {
            "type": "Feature",
            "properties": {
                "icon": "43",
                "name": "Pessac",
                "id": "16485"
            },
            "geometry": {
                "type": "Point",
                "coordinates": [
                    -0.63821000000,
                    44.79384000000
                ]
            }
        },
        {
            "type": "Feature",
            "properties": {
                "icon": "43",
                "name": "Bordeaux",
                "id": "451"
            },
            "geometry": {
                "type": "Point",
                "coordinates": [
                    -0.58199000000,
                    44.82509000000
                ]
            }
        },
        {
            "type": "Feature",
            "properties": {
                "id": "10122",
                "icon": "50",
                "name": "Messanges"
            },
            "geometry": {
                "type": "Point",
                "coordinates": [
                    -1.37862000000,
                    43.81485000000
                ]
            }
        },
        {
            "type": "Feature",
            "properties": {
                "name": "Saint-Palais-sur-Mer",
                "id": "17664",
                "icon": "26"
            },
            "geometry": {
                "type": "Point",
                "coordinates": [
                    -1.08759000000,
                    45.64210000000
                ]
            }
        },
        {
            "type": "Feature",
            "properties": {
                "id": "14116",
                "icon": "106",
                "name": "Jaunay-Marigny"
            },
            "geometry": {
                "type": "Point",
                "coordinates": [
                    0.37357000000,
                    46.68670000000
                ]
            }
        },
        {
            "type": "Feature",
            "properties": {
                "id": "3149",
                "name": "Marans",
                "icon": "26"
            },
            "geometry": {
                "type": "Point",
                "coordinates": [
                    -0.99291000000,
                    46.30950000000
                ]
            }
        },
        {
            "type": "Feature",
            "properties": {
                "icon": "43",
                "id": "4392",
                "name": "Pessac"
            },
            "geometry": {
                "type": "Point",
                "coordinates": [
                    -0.64672000000,
                    44.80221000000
                ]
            }
        },
        {
            "type": "Feature",
            "properties": {
                "id": "17169",
                "name": "Coulon",
                "icon": "99"
            },
            "geometry": {
                "type": "Point",
                "coordinates": [
                    -0.58609000000,
                    46.32165000000
                ]
            }
        },
        {
            "type": "Feature",
            "properties": {
                "icon": "43",
                "id": "17418",
                "name": "Arbanats"
            },
            "geometry": {
                "type": "Point",
                "coordinates": [
                    -0.39474000000,
                    44.67557000000
                ]
            }
        },
        {
            "type": "Feature",
            "properties": {
                "name": "Poitiers",
                "icon": "106",
                "id": "7773"
            },
            "geometry": {
                "type": "Point",
                "coordinates": [
                    0.33448000000,
                    46.58924000000
                ]
            }
        },
        {
            "type": "Feature",
            "properties": {
                "icon": "43",
                "id": "16173",
                "name": "Razac-de-Saussignac"
            },
            "geometry": {
                "type": "Point",
                "coordinates": [
                    0.28561000000,
                    44.80349000000
                ]
            }
        },
        {
            "type": "Feature",
            "properties": {
                "name": "Saint-Romans-lès-Melle",
                "id": "12041",
                "icon": "99"
            },
            "geometry": {
                "type": "Point",
                "coordinates": [
                    -0.18921000000,
                    46.20585000000
                ]
            }
        },
        {
            "type": "Feature",
            "properties": {
                "name": "Gizay",
                "id": "16978",
                "icon": "106"
            },
            "geometry": {
                "type": "Point",
                "coordinates": [
                    0.42541000000,
                    46.44303000000
                ]
            }
        },
        {
            "type": "Feature",
            "properties": {
                "name": "Poitiers",
                "icon": "106",
                "id": "14078"
            },
            "geometry": {
                "type": "Point",
                "coordinates": [
                    0.33827000000,
                    46.60113000000
                ]
            }
        },
        {
            "type": "Feature",
            "properties": {
                "icon": "84",
                "id": "800",
                "name": "Lons"
            },
            "geometry": {
                "type": "Point",
                "coordinates": [
                    -0.39774000000,
                    43.32330000000
                ]
            }
        },
        {
            "type": "Feature",
            "properties": {
                "id": "15481",
                "icon": "57",
                "name": "Beaupuy"
            },
            "geometry": {
                "type": "Point",
                "coordinates": [
                    0.14650000000,
                    44.53602000000
                ]
            }
        },
        {
            "type": "Feature",
            "properties": {
                "name": "Brive-la-Gaillarde",
                "id": "3711",
                "icon": "28"
            },
            "geometry": {
                "type": "Point",
                "coordinates": [
                    1.52894000000,
                    45.15271000000
                ]
            }
        },
        {
            "type": "Feature",
            "properties": {
                "name": "Flaujagues",
                "icon": "43",
                "id": "17116"
            },
            "geometry": {
                "type": "Point",
                "coordinates": [
                    0.03637000000,
                    44.82743000000
                ]
            }
        },
        {
            "type": "Feature",
            "properties": {
                "icon": "43",
                "id": "5332",
                "name": "Saint-Loubès"
            },
            "geometry": {
                "type": "Point",
                "coordinates": [
                    -0.42704000000,
                    44.91683000000
                ]
            }
        },
        {
            "type": "Feature",
            "properties": {
                "id": "14005",
                "name": "Châteauponsac",
                "icon": "107"
            },
            "geometry": {
                "type": "Point",
                "coordinates": [
                    1.27278000000,
                    46.13637000000
                ]
            }
        },
        {
            "type": "Feature",
            "properties": {
                "icon": "84",
                "name": "Pau",
                "id": "750"
            },
            "geometry": {
                "type": "Point",
                "coordinates": [
                    -0.34832000000,
                    43.31333000000
                ]
            }
        },
        {
            "type": "Feature",
            "properties": {
                "id": "3636",
                "name": "Saintes",
                "icon": "26"
            },
            "geometry": {
                "type": "Point",
                "coordinates": [
                    -0.62903000000,
                    45.74619000000
                ]
            }
        },
        {
            "type": "Feature",
            "properties": {
                "name": "Poitiers",
                "id": "14995",
                "icon": "106"
            },
            "geometry": {
                "type": "Point",
                "coordinates": [
                    0.35963000000,
                    46.57275000000
                ]
            }
        },
        {
            "type": "Feature",
            "properties": {
                "id": "4502",
                "icon": "106",
                "name": "Chalais"
            },
            "geometry": {
                "type": "Point",
                "coordinates": [
                    0.09924000000,
                    46.97916000000
                ]
            }
        },
        {
            "type": "Feature",
            "properties": {
                "icon": "50",
                "name": "Saint-Paul-lès-Dax",
                "id": "16696"
            },
            "geometry": {
                "type": "Point",
                "coordinates": [
                    -1.05536000000,
                    43.72499000000
                ]
            }
        },
        {
            "type": "Feature",
            "properties": {
                "name": "Saint-Maixent-l'École",
                "id": "17545",
                "icon": "99"
            },
            "geometry": {
                "type": "Point",
                "coordinates": [
                    -0.20378000000,
                    46.41356000000
                ]
            }
        },
        {
            "type": "Feature",
            "properties": {
                "icon": "43",
                "id": "3507",
                "name": "Talence"
            },
            "geometry": {
                "type": "Point",
                "coordinates": [
                    -0.59207000000,
                    44.82067000000
                ]
            }
        },
        {
            "type": "Feature",
            "properties": {
                "name": "Pas-de-jeu",
                "icon": "99",
                "id": "17696"
            },
            "geometry": {
                "type": "Point",
                "coordinates": [
                    -0.04323000000,
                    46.97508000000
                ]
            }
        },
        {
            "type": "Feature",
            "properties": {
                "icon": "43",
                "name": "Balizac",
                "id": "15602"
            },
            "geometry": {
                "type": "Point",
                "coordinates": [
                    -0.44435000000,
                    44.48792000000
                ]
            }
        },
        {
            "type": "Feature",
            "properties": {
                "id": "3347",
                "name": "Bourganeuf",
                "icon": "33"
            },
            "geometry": {
                "type": "Point",
                "coordinates": [
                    1.75619000000,
                    45.95424000000
                ]
            }
        },
        {
            "type": "Feature",
            "properties": {
                "icon": "106",
                "id": "16752",
                "name": "Nieuil-l'Espoir"
            },
            "geometry": {
                "type": "Point",
                "coordinates": [
                    0.45644000000,
                    46.48939000000
                ]
            }
        },
        {
            "type": "Feature",
            "properties": {
                "name": "Le Bouscat",
                "id": "3523",
                "icon": "43"
            },
            "geometry": {
                "type": "Point",
                "coordinates": [
                    -0.61022000000,
                    44.86690000000
                ]
            }
        },
        {
            "type": "Feature",
            "properties": {
                "icon": "43",
                "name": "Sainte-Foy-la-Grande",
                "id": "16211"
            },
            "geometry": {
                "type": "Point",
                "coordinates": [
                    0.21466000000,
                    44.84184000000
                ]
            }
        },
        {
            "type": "Feature",
            "properties": {
                "name": "Brieuil-sur-Chizé",
                "icon": "99",
                "id": "17651"
            },
            "geometry": {
                "type": "Point",
                "coordinates": [
                    -0.31959000000,
                    46.12432000000
                ]
            }
        },
        {
            "type": "Feature",
            "properties": {
                "name": "Poitiers",
                "icon": "106",
                "id": "14100"
            },
            "geometry": {
                "type": "Point",
                "coordinates": [
                    0.35414000000,
                    46.58414000000
                ]
            }
        },
        {
            "type": "Feature",
            "properties": {
                "icon": "107",
                "name": "La Roche-l'Abeille",
                "id": "3043"
            },
            "geometry": {
                "type": "Point",
                "coordinates": [
                    1.24077000000,
                    45.59716000000
                ]
            }
        },
        {
            "type": "Feature",
            "properties": {
                "id": "14636",
                "name": "Seyches",
                "icon": "57"
            },
            "geometry": {
                "type": "Point",
                "coordinates": [
                    0.30522000000,
                    44.55108000000
                ]
            }
        },
        {
            "type": "Feature",
            "properties": {
                "icon": "43",
                "name": "Bordeaux",
                "id": "428"
            },
            "geometry": {
                "type": "Point",
                "coordinates": [
                    -0.57139000000,
                    44.85540000000
                ]
            }
        },
        {
            "type": "Feature",
            "properties": {
                "icon": "84",
                "id": "8665",
                "name": "Saint-Jean-de-Luz"
            },
            "geometry": {
                "type": "Point",
                "coordinates": [
                    -1.66052000000,
                    43.38903000000
                ]
            }
        },
        {
            "type": "Feature",
            "properties": {
                "icon": "43",
                "name": "Pineuilh",
                "id": "16168"
            },
            "geometry": {
                "type": "Point",
                "coordinates": [
                    0.23318000000,
                    44.84756000000
                ]
            }
        },
        {
            "type": "Feature",
            "properties": {
                "id": "11764",
                "icon": "106",
                "name": "Montmorillon"
            },
            "geometry": {
                "type": "Point",
                "coordinates": [
                    0.86868000000,
                    46.42460000000
                ]
            }
        },
        {
            "type": "Feature",
            "properties": {
                "icon": "84",
                "id": "780",
                "name": "Gelos"
            },
            "geometry": {
                "type": "Point",
                "coordinates": [
                    -0.37236000000,
                    43.28324000000
                ]
            }
        },
        {
            "type": "Feature",
            "properties": {
                "icon": "43",
                "name": "Langon",
                "id": "4434"
            },
            "geometry": {
                "type": "Point",
                "coordinates": [
                    -0.24544000000,
                    44.55513000000
                ]
            }
        },
        {
            "type": "Feature",
            "properties": {
                "name": "Bunzac",
                "icon": "25",
                "id": "17398"
            },
            "geometry": {
                "type": "Point",
                "coordinates": [
                    0.35173000000,
                    45.70231000000
                ]
            }
        },
        {
            "type": "Feature",
            "properties": {
                "name": "Dangé-Saint-Romain",
                "icon": "106",
                "id": "7452"
            },
            "geometry": {
                "type": "Point",
                "coordinates": [
                    0.60509000000,
                    46.93710000000
                ]
            }
        },
        {
            "type": "Feature",
            "properties": {
                "icon": "43",
                "id": "470",
                "name": "Bordeaux"
            },
            "geometry": {
                "type": "Point",
                "coordinates": [
                    -0.59796000000,
                    44.82651000000
                ]
            }
        },
        {
            "type": "Feature",
            "properties": {
                "id": "3689",
                "name": "Niort",
                "icon": "99"
            },
            "geometry": {
                "type": "Point",
                "coordinates": [
                    -0.42848000000,
                    46.32531000000
                ]
            }
        },
        {
            "type": "Feature",
            "properties": {
                "icon": "106",
                "name": "Moulismes",
                "id": "17930"
            },
            "geometry": {
                "type": "Point",
                "coordinates": [
                    0.81366000000,
                    46.32996000000
                ]
            }
        },
        {
            "type": "Feature",
            "properties": {
                "id": "6280",
                "icon": "43",
                "name": "Talence"
            },
            "geometry": {
                "type": "Point",
                "coordinates": [
                    -0.58393000000,
                    44.81008000000
                ]
            }
        },
        {
            "type": "Feature",
            "properties": {
                "name": "Saujon",
                "id": "13633",
                "icon": "26"
            },
            "geometry": {
                "type": "Point",
                "coordinates": [
                    -0.93458000000,
                    45.67405000000
                ]
            }
        },
        {
            "type": "Feature",
            "properties": {
                "name": "Saint-Pierre-de-Maillé",
                "icon": "106",
                "id": "17579"
            },
            "geometry": {
                "type": "Point",
                "coordinates": [
                    0.84305000000,
                    46.67934000000
                ]
            }
        },
        {
            "type": "Feature",
            "properties": {
                "id": "3614",
                "icon": "26",
                "name": "Saint-Laurent-de-la-Prée"
            },
            "geometry": {
                "type": "Point",
                "coordinates": [
                    -1.02526000000,
                    45.99278000000
                ]
            }
        },
        {
            "type": "Feature",
            "properties": {
                "id": "17085",
                "icon": "106",
                "name": "Mignaloux-Beauvoir"
            },
            "geometry": {
                "type": "Point",
                "coordinates": [
                    0.40878000000,
                    46.55888000000
                ]
            }
        },
        {
            "type": "Feature",
            "properties": {
                "icon": "107",
                "id": "4726",
                "name": "Limoges"
            },
            "geometry": {
                "type": "Point",
                "coordinates": [
                    1.25688000000,
                    45.82872000000
                ]
            }
        },
        {
            "type": "Feature",
            "properties": {
                "icon": "43",
                "id": "14703",
                "name": "Arbanats"
            },
            "geometry": {
                "type": "Point",
                "coordinates": [
                    -0.39825000000,
                    44.67548000000
                ]
            }
        },
        {
            "type": "Feature",
            "properties": {
                "icon": "43",
                "id": "3491",
                "name": "La Reole"
            },
            "geometry": {
                "type": "Point",
                "coordinates": [
                    -0.03908000000,
                    44.58240000000
                ]
            }
        },
        {
            "type": "Feature",
            "properties": {
                "icon": "50",
                "id": "16388",
                "name": "Dax"
            },
            "geometry": {
                "type": "Point",
                "coordinates": [
                    -1.05784000000,
                    43.71047000000
                ]
            }
        },
        {
            "type": "Feature",
            "properties": {
                "id": "14958",
                "icon": "106",
                "name": "Ouzilly"
            },
            "geometry": {
                "type": "Point",
                "coordinates": [
                    0.36186000000,
                    46.77580000000
                ]
            }
        },
        {
            "type": "Feature",
            "properties": {
                "name": "Angles-sur-l'Anglin",
                "icon": "106",
                "id": "3399"
            },
            "geometry": {
                "type": "Point",
                "coordinates": [
                    0.88390000000,
                    46.69552000000
                ]
            }
        },
        {
            "type": "Feature",
            "properties": {
                "icon": "43",
                "name": "Biganos",
                "id": "17414"
            },
            "geometry": {
                "type": "Point",
                "coordinates": [
                    -0.96866000000,
                    44.63824000000
                ]
            }
        },
        {
            "type": "Feature",
            "properties": {
                "icon": "84",
                "id": "365",
                "name": "Bayonne"
            },
            "geometry": {
                "type": "Point",
                "coordinates": [
                    -1.47908000000,
                    43.49177000000
                ]
            }
        },
        {
            "type": "Feature",
            "properties": {
                "icon": "84",
                "name": "Bénéjacq",
                "id": "7989"
            },
            "geometry": {
                "type": "Point",
                "coordinates": [
                    -0.20977000000,
                    43.19001000000
                ]
            }
        },
        {
            "type": "Feature",
            "properties": {
                "icon": "106",
                "name": "Neuville-de-Poitou",
                "id": "16236"
            },
            "geometry": {
                "type": "Point",
                "coordinates": [
                    0.23290000000,
                    46.68499000000
                ]
            }
        },
        {
            "type": "Feature",
            "properties": {
                "id": "3269",
                "icon": "106",
                "name": "Lencloître"
            },
            "geometry": {
                "type": "Point",
                "coordinates": [
                    0.32946000000,
                    46.81257000000
                ]
            }
        },
        {
            "type": "Feature",
            "properties": {
                "id": "7169",
                "name": "Lorigné",
                "icon": "99"
            },
            "geometry": {
                "type": "Point",
                "coordinates": [
                    0.05215000000,
                    46.09597000000
                ]
            }
        },
        {
            "type": "Feature",
            "properties": {
                "name": "Port-Sainte-Foy-et-Ponchapt",
                "id": "12325",
                "icon": "43"
            },
            "geometry": {
                "type": "Point",
                "coordinates": [
                    0.20653000000,
                    44.84331000000
                ]
            }
        },
        {
            "type": "Feature",
            "properties": {
                "id": "1546",
                "name": "Curçay-sur-Dive",
                "icon": "106"
            },
            "geometry": {
                "type": "Point",
                "coordinates": [
                    -0.05474700000,
                    47.01181900000
                ]
            }
        },
        {
            "type": "Feature",
            "properties": {
                "icon": "43",
                "name": "Talence",
                "id": "4388"
            },
            "geometry": {
                "type": "Point",
                "coordinates": [
                    -0.58481000000,
                    44.80199000000
                ]
            }
        },
        {
            "type": "Feature",
            "properties": {
                "id": "14191",
                "name": "La Flotte",
                "icon": "26"
            },
            "geometry": {
                "type": "Point",
                "coordinates": [
                    -1.32563000000,
                    46.18722000000
                ]
            }
        },
        {
            "type": "Feature",
            "properties": {
                "icon": "43",
                "name": "Carbon-Blanc",
                "id": "5346"
            },
            "geometry": {
                "type": "Point",
                "coordinates": [
                    -0.51118000000,
                    44.89284000000
                ]
            }
        },
        {
            "type": "Feature",
            "properties": {
                "icon": "43",
                "id": "16913",
                "name": "Carbon-Blanc"
            },
            "geometry": {
                "type": "Point",
                "coordinates": [
                    -0.50059000000,
                    44.89417000000
                ]
            }
        },
        {
            "type": "Feature",
            "properties": {
                "icon": "84",
                "name": "Pau",
                "id": "756"
            },
            "geometry": {
                "type": "Point",
                "coordinates": [
                    -0.37434000000,
                    43.30625000000
                ]
            }
        },
        {
            "type": "Feature",
            "properties": {
                "name": "Brive-la-Gaillarde",
                "id": "3723",
                "icon": "28"
            },
            "geometry": {
                "type": "Point",
                "coordinates": [
                    1.53443000000,
                    45.15607000000
                ]
            }
        },
        {
            "type": "Feature",
            "properties": {
                "id": "4634",
                "icon": "106",
                "name": "Lesigny"
            },
            "geometry": {
                "type": "Point",
                "coordinates": [
                    0.76555000000,
                    46.84774000000
                ]
            }
        },
        {
            "type": "Feature",
            "properties": {
                "id": "16821",
                "name": "Buxeuil",
                "icon": "47"
            },
            "geometry": {
                "type": "Point",
                "coordinates": [
                    0.67278000000,
                    46.97513000000
                ]
            }
        },
        {
            "type": "Feature",
            "properties": {
                "id": "3666",
                "name": "Niort",
                "icon": "99"
            },
            "geometry": {
                "type": "Point",
                "coordinates": [
                    -0.46358000000,
                    46.32516000000
                ]
            }
        },
        {
            "type": "Feature",
            "properties": {
                "icon": "106",
                "id": "3371",
                "name": "Buxerolles"
            },
            "geometry": {
                "type": "Point",
                "coordinates": [
                    0.36216000000,
                    46.60292000000
                ]
            }
        },
        {
            "type": "Feature",
            "properties": {
                "id": "17551",
                "icon": "99",
                "name": "Exireuil"
            },
            "geometry": {
                "type": "Point",
                "coordinates": [
                    -0.19187000000,
                    46.43313000000
                ]
            }
        },
        {
            "type": "Feature",
            "properties": {
                "icon": "43",
                "id": "3533",
                "name": "Saint-Denis-de-Pile"
            },
            "geometry": {
                "type": "Point",
                "coordinates": [
                    -0.20548000000,
                    44.99183000000
                ]
            }
        },
        {
            "type": "Feature",
            "properties": {
                "name": "Feytiat",
                "icon": "107",
                "id": "3045"
            },
            "geometry": {
                "type": "Point",
                "coordinates": [
                    1.31844000000,
                    45.78871000000
                ]
            }
        },
        {
            "type": "Feature",
            "properties": {
                "name": "Douchapt",
                "id": "16511",
                "icon": "34"
            },
            "geometry": {
                "type": "Point",
                "coordinates": [
                    0.44252000000,
                    45.24220000000
                ]
            }
        },
        {
            "type": "Feature",
            "properties": {
                "name": "Anlhiac",
                "id": "14491",
                "icon": "34"
            },
            "geometry": {
                "type": "Point",
                "coordinates": [
                    1.12614000000,
                    45.32049000000
                ]
            }
        },
        {
            "type": "Feature",
            "properties": {
                "name": "Saint-Yrieix-sur-Charente",
                "id": "17477",
                "icon": "25"
            },
            "geometry": {
                "type": "Point",
                "coordinates": [
                    0.11535000000,
                    45.68881000000
                ]
            }
        },
        {
            "type": "Feature",
            "properties": {
                "icon": "43",
                "name": "Bordeaux",
                "id": "434"
            },
            "geometry": {
                "type": "Point",
                "coordinates": [
                    -0.57221000000,
                    44.82009000000
                ]
            }
        },
        {
            "type": "Feature",
            "properties": {
                "icon": "84",
                "name": "Biarritz",
                "id": "9216"
            },
            "geometry": {
                "type": "Point",
                "coordinates": [
                    -1.55270000000,
                    43.48593000000
                ]
            }
        },
        {
            "type": "Feature",
            "properties": {
                "icon": "26",
                "name": "La Rochelle",
                "id": "14054"
            },
            "geometry": {
                "type": "Point",
                "coordinates": [
                    -1.15032000000,
                    46.16063000000
                ]
            }
        },
        {
            "type": "Feature",
            "properties": {
                "icon": "84",
                "id": "778",
                "name": "Bosdarros"
            },
            "geometry": {
                "type": "Point",
                "coordinates": [
                    -0.36159000000,
                    43.21107000000
                ]
            }
        },
        {
            "type": "Feature",
            "properties": {
                "icon": "43",
                "name": "Gujan-Mestras",
                "id": "16402"
            },
            "geometry": {
                "type": "Point",
                "coordinates": [
                    -1.10659000000,
                    44.63462000000
                ]
            }
        },
        {
            "type": "Feature",
            "properties": {
                "name": "La Teste-de-Buch",
                "icon": "43",
                "id": "4376"
            },
            "geometry": {
                "type": "Point",
                "coordinates": [
                    -1.15027000000,
                    44.63238000000
                ]
            }
        },
        {
            "type": "Feature",
            "properties": {
                "icon": "43",
                "name": "Audenge",
                "id": "17410"
            },
            "geometry": {
                "type": "Point",
                "coordinates": [
                    -1.01157000000,
                    44.68192000000
                ]
            }
        },
        {
            "type": "Feature",
            "properties": {
                "name": "Airvault",
                "id": "15245",
                "icon": "99"
            },
            "geometry": {
                "type": "Point",
                "coordinates": [
                    -0.13672000000,
                    46.82633000000
                ]
            }
        },
        {
            "type": "Feature",
            "properties": {
                "id": "56",
                "icon": "57",
                "name": "Agen"
            },
            "geometry": {
                "type": "Point",
                "coordinates": [
                    0.62070000000,
                    44.20805000000
                ]
            }
        },
        {
            "type": "Feature",
            "properties": {
                "name": "Paizay-le-Chapt",
                "id": "7474",
                "icon": "99"
            },
            "geometry": {
                "type": "Point",
                "coordinates": [
                    -0.17962000000,
                    46.08230000000
                ]
            }
        },
        {
            "type": "Feature",
            "properties": {
                "icon": "43",
                "id": "11861",
                "name": "Carignan-de-Bordeaux"
            },
            "geometry": {
                "type": "Point",
                "coordinates": [
                    -0.47781000000,
                    44.81097000000
                ]
            }
        },
        {
            "type": "Feature",
            "properties": {
                "name": "Bellac",
                "icon": "107",
                "id": "486"
            },
            "geometry": {
                "type": "Point",
                "coordinates": [
                    1.04633000000,
                    46.12050000000
                ]
            }
        },
        {
            "type": "Feature",
            "properties": {
                "name": "Asnières-la-Giraud",
                "icon": "26",
                "id": "14861"
            },
            "geometry": {
                "type": "Point",
                "coordinates": [
                    -0.52186000000,
                    45.89079000000
                ]
            }
        },
        {
            "type": "Feature",
            "properties": {
                "id": "3695",
                "name": "Vouillé (79)",
                "icon": "99"
            },
            "geometry": {
                "type": "Point",
                "coordinates": [
                    -0.32506000000,
                    46.32245000000
                ]
            }
        },
        {
            "type": "Feature",
            "properties": {
                "name": "Poitiers",
                "id": "14172",
                "icon": "106"
            },
            "geometry": {
                "type": "Point",
                "coordinates": [
                    0.34846000000,
                    46.58036000000
                ]
            }
        },
        {
            "type": "Feature",
            "properties": {
                "icon": "43",
                "id": "6502",
                "name": "Arsac"
            },
            "geometry": {
                "type": "Point",
                "coordinates": [
                    -0.69309000000,
                    44.99448000000
                ]
            }
        },
        {
            "type": "Feature",
            "properties": {
                "name": "Lagord",
                "icon": "26",
                "id": "3620"
            },
            "geometry": {
                "type": "Point",
                "coordinates": [
                    -1.16051000000,
                    46.17435000000
                ]
            }
        },
        {
            "type": "Feature",
            "properties": {
                "icon": "43",
                "name": "Canéjan",
                "id": "4909"
            },
            "geometry": {
                "type": "Point",
                "coordinates": [
                    -0.64100000000,
                    44.75062000000
                ]
            }
        },
        {
            "type": "Feature",
            "properties": {
                "id": "16704",
                "icon": "50",
                "name": "Saint-Paul-lès-Dax"
            },
            "geometry": {
                "type": "Point",
                "coordinates": [
                    -1.06472000000,
                    43.72828000000
                ]
            }
        },
        {
            "type": "Feature",
            "properties": {
                "name": "Saint-Généroux",
                "id": "17533",
                "icon": "99"
            },
            "geometry": {
                "type": "Point",
                "coordinates": [
                    -0.13917000000,
                    46.88355000000
                ]
            }
        },
        {
            "type": "Feature",
            "properties": {
                "icon": "43",
                "id": "3489",
                "name": "Noaillac"
            },
            "geometry": {
                "type": "Point",
                "coordinates": [
                    -0.02755000000,
                    44.52375000000
                ]
            }
        },
        {
            "type": "Feature",
            "properties": {
                "icon": "57",
                "name": "Caumont-sur-Garonne",
                "id": "3465"
            },
            "geometry": {
                "type": "Point",
                "coordinates": [
                    0.18139400000,
                    44.43934200000
                ]
            }
        },
        {
            "type": "Feature",
            "properties": {
                "name": "Airvault",
                "id": "15255",
                "icon": "99"
            },
            "geometry": {
                "type": "Point",
                "coordinates": [
                    -0.18106000000,
                    46.82974000000
                ]
            }
        },
        {
            "type": "Feature",
            "properties": {
                "icon": "43",
                "name": "Bordeaux",
                "id": "410"
            },
            "geometry": {
                "type": "Point",
                "coordinates": [
                    -0.56463000000,
                    44.82687000000
                ]
            }
        },
        {
            "type": "Feature",
            "properties": {
                "name": "Ambazac",
                "id": "8181",
                "icon": "107"
            },
            "geometry": {
                "type": "Point",
                "coordinates": [
                    1.40041000000,
                    45.95741000000
                ]
            }
        },
        {
            "type": "Feature",
            "properties": {
                "icon": "106",
                "name": "Vouzailles",
                "id": "16232"
            },
            "geometry": {
                "type": "Point",
                "coordinates": [
                    0.09525000000,
                    46.70863000000
                ]
            }
        },
        {
            "type": "Feature",
            "properties": {
                "id": "12867",
                "name": "Saint-Varent",
                "icon": "99"
            },
            "geometry": {
                "type": "Point",
                "coordinates": [
                    -0.23464000000,
                    46.88947000000
                ]
            }
        },
        {
            "type": "Feature",
            "properties": {
                "name": "Poitiers",
                "icon": "106",
                "id": "14174"
            },
            "geometry": {
                "type": "Point",
                "coordinates": [
                    0.38342000000,
                    46.57548000000
                ]
            }
        },
        {
            "type": "Feature",
            "properties": {
                "icon": "33",
                "name": "Maisonnisses",
                "id": "3345"
            },
            "geometry": {
                "type": "Point",
                "coordinates": [
                    1.89934000000,
                    46.06353000000
                ]
            }
        },
        {
            "type": "Feature",
            "properties": {
                "name": "Monthoiron",
                "icon": "106",
                "id": "7204"
            },
            "geometry": {
                "type": "Point",
                "coordinates": [
                    0.61855000000,
                    46.73376000000
                ]
            }
        },
        {
            "type": "Feature",
            "properties": {
                "name": "Jazeneuil",
                "icon": "106",
                "id": "16149"
            },
            "geometry": {
                "type": "Point",
                "coordinates": [
                    0.06875000000,
                    46.46559000000
                ]
            }
        },
        {
            "type": "Feature",
            "properties": {
                "name": "Angliers",
                "icon": "26",
                "id": "11352"
            },
            "geometry": {
                "type": "Point",
                "coordinates": [
                    -0.95425000000,
                    46.21384000000
                ]
            }
        },
        {
            "type": "Feature",
            "properties": {
                "id": "1719",
                "icon": "99",
                "name": "Parthenay"
            },
            "geometry": {
                "type": "Point",
                "coordinates": [
                    -0.23510000000,
                    46.65014000000
                ]
            }
        },
        {
            "type": "Feature",
            "properties": {
                "icon": "43",
                "id": "4402",
                "name": "Blanquefort"
            },
            "geometry": {
                "type": "Point",
                "coordinates": [
                    -0.63479000000,
                    44.92911000000
                ]
            }
        },
        {
            "type": "Feature",
            "properties": {
                "icon": "43",
                "name": "Pomerol",
                "id": "17123"
            },
            "geometry": {
                "type": "Point",
                "coordinates": [
                    -0.19937000000,
                    44.93193000000
                ]
            }
        },
        {
            "type": "Feature",
            "properties": {
                "name": "Chambon-sur-Voueize",
                "id": "6215",
                "icon": "33"
            },
            "geometry": {
                "type": "Point",
                "coordinates": [
                    2.42489000000,
                    46.18842000000
                ]
            }
        },
        {
            "type": "Feature",
            "properties": {
                "icon": "84",
                "name": "Boucau",
                "id": "16918"
            },
            "geometry": {
                "type": "Point",
                "coordinates": [
                    -1.49037000000,
                    43.52346000000
                ]
            }
        },
        {
            "type": "Feature",
            "properties": {
                "icon": "84",
                "name": "Pau",
                "id": "754"
            },
            "geometry": {
                "type": "Point",
                "coordinates": [
                    -0.36892000000,
                    43.31220000000
                ]
            }
        },
        {
            "type": "Feature",
            "properties": {
                "icon": "28",
                "name": "Tulle",
                "id": "3739"
            },
            "geometry": {
                "type": "Point",
                "coordinates": [
                    1.77088000000,
                    45.26647000000
                ]
            }
        },
        {
            "type": "Feature",
            "properties": {
                "icon": "106",
                "id": "17033",
                "name": "Villemort"
            },
            "geometry": {
                "type": "Point",
                "coordinates": [
                    0.92115000000,
                    46.55092000000
                ]
            }
        },
        {
            "type": "Feature",
            "properties": {
                "icon": "26",
                "name": "Le Bois-Plage-en-Ré",
                "id": "14195"
            },
            "geometry": {
                "type": "Point",
                "coordinates": [
                    -1.39323000000,
                    46.18636000000
                ]
            }
        },
        {
            "type": "Feature",
            "properties": {
                "name": "Poitiers",
                "icon": "106",
                "id": "14993"
            },
            "geometry": {
                "type": "Point",
                "coordinates": [
                    0.35761000000,
                    46.57741000000
                ]
            }
        },
        {
            "type": "Feature",
            "properties": {
                "name": "Beaumontois-en-Périgord",
                "id": "15609",
                "icon": "34"
            },
            "geometry": {
                "type": "Point",
                "coordinates": [
                    0.76736000000,
                    44.76983000000
                ]
            }
        },
        {
            "type": "Feature",
            "properties": {
                "icon": "106",
                "id": "4632",
                "name": "La Roche-Posay"
            },
            "geometry": {
                "type": "Point",
                "coordinates": [
                    0.80843000000,
                    46.78812000000
                ]
            }
        },
        {
            "type": "Feature",
            "properties": {
                "id": "3668",
                "name": "Niort",
                "icon": "99"
            },
            "geometry": {
                "type": "Point",
                "coordinates": [
                    -0.46664000000,
                    46.32596000000
                ]
            }
        },
        {
            "type": "Feature",
            "properties": {
                "id": "3379",
                "name": "Ligugé",
                "icon": "106"
            },
            "geometry": {
                "type": "Point",
                "coordinates": [
                    0.33113000000,
                    46.51813000000
                ]
            }
        },
        {
            "type": "Feature",
            "properties": {
                "icon": "43",
                "id": "16517",
                "name": "Saint-Medard-en-Jalles"
            },
            "geometry": {
                "type": "Point",
                "coordinates": [
                    -0.72253000000,
                    44.90259000000
                ]
            }
        },
        {
            "type": "Feature",
            "properties": {
                "name": "Poitiers",
                "icon": "106",
                "id": "16763"
            },
            "geometry": {
                "type": "Point",
                "coordinates": [
                    0.37972000000,
                    46.57423000000
                ]
            }
        },
        {
            "type": "Feature",
            "properties": {
                "name": "Châtellerault",
                "icon": "106",
                "id": "17575"
            },
            "geometry": {
                "type": "Point",
                "coordinates": [
                    0.55642000000,
                    46.82497000000
                ]
            }
        },
        {
            "type": "Feature",
            "properties": {
                "name": "Cénac-et-Saint-Julien",
                "id": "3539",
                "icon": "34"
            },
            "geometry": {
                "type": "Point",
                "coordinates": [
                    1.20345000000,
                    44.80095000000
                ]
            }
        },
        {
            "type": "Feature",
            "properties": {
                "name": "Bourcefranc-le-Chapus",
                "icon": "26",
                "id": "16276"
            },
            "geometry": {
                "type": "Point",
                "coordinates": [
                    -1.14544000000,
                    45.84569000000
                ]
            }
        },
        {
            "type": "Feature",
            "properties": {
                "id": "17657",
                "name": "Bourgneuf",
                "icon": "26"
            },
            "geometry": {
                "type": "Point",
                "coordinates": [
                    -1.02422000000,
                    46.16744000000
                ]
            }
        },
        {
            "type": "Feature",
            "properties": {
                "name": "Poitiers",
                "id": "14947",
                "icon": "106"
            },
            "geometry": {
                "type": "Point",
                "coordinates": [
                    0.34508000000,
                    46.56538000000
                ]
            }
        },
        {
            "type": "Feature",
            "properties": {
                "name": "Saint-Agnant-de-Versillat",
                "id": "3060",
                "icon": "33"
            },
            "geometry": {
                "type": "Point",
                "coordinates": [
                    1.51081000000,
                    46.27846000000
                ]
            }
        },
        {
            "type": "Feature",
            "properties": {
                "icon": "43",
                "name": "Bordeaux",
                "id": "449"
            },
            "geometry": {
                "type": "Point",
                "coordinates": [
                    -0.58532000000,
                    44.84271000000
                ]
            }
        },
        {
            "type": "Feature",
            "properties": {
                "id": "9244",
                "name": "Saint-Eutrope",
                "icon": "25"
            },
            "geometry": {
                "type": "Point",
                "coordinates": [
                    0.11134000000,
                    45.41810000000
                ]
            }
        },
        {
            "type": "Feature",
            "properties": {
                "icon": "99",
                "name": "Parthenay",
                "id": "17003"
            },
            "geometry": {
                "type": "Point",
                "coordinates": [
                    -0.25108000000,
                    46.64713000000
                ]
            }
        },
        {
            "type": "Feature",
            "properties": {
                "icon": "84",
                "name": "Lée",
                "id": "786"
            },
            "geometry": {
                "type": "Point",
                "coordinates": [
                    -0.29198000000,
                    43.28762000000
                ]
            }
        },
        {
            "type": "Feature",
            "properties": {
                "icon": "43",
                "id": "4374",
                "name": "Biganos"
            },
            "geometry": {
                "type": "Point",
                "coordinates": [
                    -0.96623000000,
                    44.63754000000
                ]
            }
        },
        {
            "type": "Feature",
            "properties": {
                "id": "76",
                "icon": "28",
                "name": "Allassac"
            },
            "geometry": {
                "type": "Point",
                "coordinates": [
                    1.46241000000,
                    45.27821000000
                ]
            }
        },
        {
            "type": "Feature",
            "properties": {
                "icon": "50",
                "name": "Saint-Paul-en-Born",
                "id": "7805"
            },
            "geometry": {
                "type": "Point",
                "coordinates": [
                    -1.15185000000,
                    44.22437000000
                ]
            }
        },
        {
            "type": "Feature",
            "properties": {
                "name": "Saussignac",
                "id": "16175",
                "icon": "34"
            },
            "geometry": {
                "type": "Point",
                "coordinates": [
                    0.32627000000,
                    44.80003000000
                ]
            }
        },
        {
            "type": "Feature",
            "properties": {
                "name": "Dompierre-sur-Mer",
                "id": "11942",
                "icon": "26"
            },
            "geometry": {
                "type": "Point",
                "coordinates": [
                    -1.06665000000,
                    46.18846000000
                ]
            }
        },
        {
            "type": "Feature",
            "properties": {
                "icon": "50",
                "name": "Mont-de Marsan",
                "id": "834"
            },
            "geometry": {
                "type": "Point",
                "coordinates": [
                    -0.46662000000,
                    43.88941000000
                ]
            }
        },
        {
            "type": "Feature",
            "properties": {
                "icon": "43",
                "name": "Ayguemorte-les-Graves",
                "id": "15479"
            },
            "geometry": {
                "type": "Point",
                "coordinates": [
                    -0.47498000000,
                    44.71126000000
                ]
            }
        },
        {
            "type": "Feature",
            "properties": {
                "name": "Brive-la-Gaillarde",
                "icon": "28",
                "id": "3709"
            },
            "geometry": {
                "type": "Point",
                "coordinates": [
                    1.50991000000,
                    45.15449000000
                ]
            }
        },
        {
            "type": "Feature",
            "properties": {
                "icon": "26",
                "name": "La Couarde-sur-Mer",
                "id": "14186"
            },
            "geometry": {
                "type": "Point",
                "coordinates": [
                    -1.42301000000,
                    46.19457000000
                ]
            }
        },
        {
            "type": "Feature",
            "properties": {
                "id": "6595",
                "icon": "99",
                "name": "Bessines"
            },
            "geometry": {
                "type": "Point",
                "coordinates": [
                    -0.51591000000,
                    46.30254000000
                ]
            }
        },
        {
            "type": "Feature",
            "properties": {
                "icon": "43",
                "name": "Cabanac-et-Villagrains",
                "id": "16119"
            },
            "geometry": {
                "type": "Point",
                "coordinates": [
                    -0.55368000000,
                    44.60685000000
                ]
            }
        },
        {
            "type": "Feature",
            "properties": {
                "name": "Lussac-les-Châteaux",
                "icon": "106",
                "id": "16780"
            },
            "geometry": {
                "type": "Point",
                "coordinates": [
                    0.72494000000,
                    46.40252000000
                ]
            }
        },
        {
            "type": "Feature",
            "properties": {
                "icon": "50",
                "name": "Ondres",
                "id": "577"
            },
            "geometry": {
                "type": "Point",
                "coordinates": [
                    -1.44635000000,
                    43.56241000000
                ]
            }
        },
        {
            "type": "Feature",
            "properties": {
                "id": "15406",
                "name": "Lafox",
                "icon": "57"
            },
            "geometry": {
                "type": "Point",
                "coordinates": [
                    0.69662000000,
                    44.17022000000
                ]
            }
        },
        {
            "type": "Feature",
            "properties": {
                "id": "3634",
                "name": "Saintes",
                "icon": "26"
            },
            "geometry": {
                "type": "Point",
                "coordinates": [
                    -0.67818000000,
                    45.74746000000
                ]
            }
        },
        {
            "type": "Feature",
            "properties": {
                "name": "Argentonnay",
                "id": "17029",
                "icon": "99"
            },
            "geometry": {
                "type": "Point",
                "coordinates": [
                    -0.44681000000,
                    46.98213000000
                ]
            }
        },
        {
            "type": "Feature",
            "properties": {
                "id": "17917",
                "name": "Nieul-sur-Mer",
                "icon": "26"
            },
            "geometry": {
                "type": "Point",
                "coordinates": [
                    -1.16294000000,
                    46.20873000000
                ]
            }
        },
        {
            "type": "Feature",
            "properties": {
                "id": "4913",
                "icon": "26",
                "name": "Royan"
            },
            "geometry": {
                "type": "Point",
                "coordinates": [
                    -1.01205000000,
                    45.61822000000
                ]
            }
        },
        {
            "type": "Feature",
            "properties": {
                "name": "Poitiers",
                "icon": "106",
                "id": "16809"
            },
            "geometry": {
                "type": "Point",
                "coordinates": [
                    0.38358000000,
                    46.57257000000
                ]
            }
        },
        {
            "type": "Feature",
            "properties": {
                "name": "Le Bouscat",
                "icon": "43",
                "id": "3515"
            },
            "geometry": {
                "type": "Point",
                "coordinates": [
                    -0.58043000000,
                    44.86657000000
                ]
            }
        },
        {
            "type": "Feature",
            "properties": {
                "id": "16239",
                "icon": "106",
                "name": "Neuville-de-Poitou"
            },
            "geometry": {
                "type": "Point",
                "coordinates": [
                    0.24693000000,
                    46.68826000000
                ]
            }
        },
        {
            "type": "Feature",
            "properties": {
                "name": "Jabreilles-les-Bordes",
                "icon": "107",
                "id": "3355"
            },
            "geometry": {
                "type": "Point",
                "coordinates": [
                    1.51581000000,
                    46.01836000000
                ]
            }
        },
        {
            "type": "Feature",
            "properties": {
                "icon": "107",
                "name": "Peyrat-de-Bellac",
                "id": "17464"
            },
            "geometry": {
                "type": "Point",
                "coordinates": [
                    1.03586000000,
                    46.14118000000
                ]
            }
        },
        {
            "type": "Feature",
            "properties": {
                "icon": "43",
                "name": "Bordeaux",
                "id": "420"
            },
            "geometry": {
                "type": "Point",
                "coordinates": [
                    -0.58674000000,
                    44.85507000000
                ]
            }
        },
        {
            "type": "Feature",
            "properties": {
                "id": "8329",
                "icon": "26",
                "name": "Saint-Georges-de-Didonne"
            },
            "geometry": {
                "type": "Point",
                "coordinates": [
                    -0.98495000000,
                    45.60373000000
                ]
            }
        },
        {
            "type": "Feature",
            "properties": {
                "id": "1727",
                "name": "Melle",
                "icon": "99"
            },
            "geometry": {
                "type": "Point",
                "coordinates": [
                    -0.15063000000,
                    46.21994000000
                ]
            }
        },
        {
            "type": "Feature",
            "properties": {
                "name": "Mérignac",
                "icon": "43",
                "id": "16502"
            },
            "geometry": {
                "type": "Point",
                "coordinates": [
                    -0.62584000000,
                    44.82660000000
                ]
            }
        },
        {
            "type": "Feature",
            "properties": {
                "id": "7363",
                "icon": "26",
                "name": "Rochefort"
            },
            "geometry": {
                "type": "Point",
                "coordinates": [
                    -0.96628000000,
                    45.93839000000
                ]
            }
        },
        {
            "type": "Feature",
            "properties": {
                "name": "Belis",
                "icon": "50",
                "id": "16145"
            },
            "geometry": {
                "type": "Point",
                "coordinates": [
                    -0.46250000000,
                    44.06379000000
                ]
            }
        },
        {
            "type": "Feature",
            "properties": {
                "icon": "50",
                "name": "Aire-sur-l'Adour",
                "id": "11561"
            },
            "geometry": {
                "type": "Point",
                "coordinates": [
                    -0.26064000000,
                    43.69904000000
                ]
            }
        },
        {
            "type": "Feature",
            "properties": {
                "icon": "84",
                "name": "Pau",
                "id": "762"
            },
            "geometry": {
                "type": "Point",
                "coordinates": [
                    -0.38483000000,
                    43.29366000000
                ]
            }
        },
        {
            "type": "Feature",
            "properties": {
                "name": "Nontron",
                "id": "4482",
                "icon": "34"
            },
            "geometry": {
                "type": "Point",
                "coordinates": [
                    0.66226000000,
                    45.52929000000
                ]
            }
        },
        {
            "type": "Feature",
            "properties": {
                "id": "17934",
                "icon": "106",
                "name": "Lathus-Saint-Rémy"
            },
            "geometry": {
                "type": "Point",
                "coordinates": [
                    0.89756000000,
                    46.29221000000
                ]
            }
        },
        {
            "type": "Feature",
            "properties": {
                "icon": "43",
                "id": "6278",
                "name": "Talence"
            },
            "geometry": {
                "type": "Point",
                "coordinates": [
                    -0.57942000000,
                    44.80332000000
                ]
            }
        },
        {
            "type": "Feature",
            "properties": {
                "icon": "43",
                "name": "Bordeaux",
                "id": "461"
            },
            "geometry": {
                "type": "Point",
                "coordinates": [
                    -0.55126000000,
                    44.82392000000
                ]
            }
        },
        {
            "type": "Feature",
            "properties": {
                "name": "Rochechouart",
                "id": "3745",
                "icon": "107"
            },
            "geometry": {
                "type": "Point",
                "coordinates": [
                    0.82726000000,
                    45.82925000000
                ]
            }
        },
        {
            "type": "Feature",
            "properties": {
                "icon": "43",
                "name": "Bordeaux",
                "id": "6344"
            },
            "geometry": {
                "type": "Point",
                "coordinates": [
                    -0.56627000000,
                    44.87977000000
                ]
            }
        },
        {
            "type": "Feature",
            "properties": {
                "id": "16757",
                "icon": "106",
                "name": "Mignaloux-Beauvoir"
            },
            "geometry": {
                "type": "Point",
                "coordinates": [
                    0.41337000000,
                    46.54082000000
                ]
            }
        },
        {
            "type": "Feature",
            "properties": {
                "icon": "43",
                "name": "Pessac",
                "id": "13773"
            },
            "geometry": {
                "type": "Point",
                "coordinates": [
                    -0.65725000000,
                    44.81037000000
                ]
            }
        },
        {
            "type": "Feature",
            "properties": {
                "name": "Niort",
                "icon": "99",
                "id": "3685"
            },
            "geometry": {
                "type": "Point",
                "coordinates": [
                    -0.45010000000,
                    46.30684000000
                ]
            }
        },
        {
            "type": "Feature",
            "properties": {
                "icon": "107",
                "name": "Limoges",
                "id": "4718"
            },
            "geometry": {
                "type": "Point",
                "coordinates": [
                    1.26999000000,
                    45.83615000000
                ]
            }
        },
        {
            "type": "Feature",
            "properties": {
                "name": "Thenon",
                "icon": "34",
                "id": "3553"
            },
            "geometry": {
                "type": "Point",
                "coordinates": [
                    1.07015000000,
                    45.13985000000
                ]
            }
        },
        {
            "type": "Feature",
            "properties": {
                "id": "17745",
                "icon": "34",
                "name": "Saint-Geyrac"
            },
            "geometry": {
                "type": "Point",
                "coordinates": [
                    0.91435000000,
                    45.08908000000
                ]
            }
        },
        {
            "type": "Feature",
            "properties": {
                "name": "La Chapelle-Moulière",
                "icon": "106",
                "id": "3393"
            },
            "geometry": {
                "type": "Point",
                "coordinates": [
                    0.56591000000,
                    46.65068000000
                ]
            }
        },
        {
            "type": "Feature",
            "properties": {
                "icon": "43",
                "id": "16492",
                "name": "Talence"
            },
            "geometry": {
                "type": "Point",
                "coordinates": [
                    -0.58316000000,
                    44.80858000000
                ]
            }
        },
        {
            "type": "Feature",
            "properties": {
                "icon": "84",
                "name": "Araujuzon",
                "id": "14570"
            },
            "geometry": {
                "type": "Point",
                "coordinates": [
                    -0.81895000000,
                    43.36008000000
                ]
            }
        },
        {
            "type": "Feature",
            "properties": {
                "id": "194",
                "name": "Angoulême",
                "icon": "25"
            },
            "geometry": {
                "type": "Point",
                "coordinates": [
                    0.14837000000,
                    45.64949000000
                ]
            }
        },
        {
            "type": "Feature",
            "properties": {
                "icon": "43",
                "name": "Floirac",
                "id": "8088"
            },
            "geometry": {
                "type": "Point",
                "coordinates": [
                    -0.53442000000,
                    44.83244000000
                ]
            }
        },
        {
            "type": "Feature",
            "properties": {
                "icon": "106",
                "name": "Biard",
                "id": "16222"
            },
            "geometry": {
                "type": "Point",
                "coordinates": [
                    0.30514000000,
                    46.57688000000
                ]
            }
        },
        {
            "type": "Feature",
            "properties": {
                "name": "Boussac",
                "id": "3332",
                "icon": "33"
            },
            "geometry": {
                "type": "Point",
                "coordinates": [
                    2.21494000000,
                    46.34812000000
                ]
            }
        },
        {
            "type": "Feature",
            "properties": {
                "icon": "43",
                "id": "4380",
                "name": "Arès"
            },
            "geometry": {
                "type": "Point",
                "coordinates": [
                    -1.14241000000,
                    44.76133000000
                ]
            }
        },
        {
            "type": "Feature",
            "properties": {
                "name": "Saint-Michel",
                "id": "17177",
                "icon": "25"
            },
            "geometry": {
                "type": "Point",
                "coordinates": [
                    0.10712000000,
                    45.64165000000
                ]
            }
        },
        {
            "type": "Feature",
            "properties": {
                "id": "6879",
                "icon": "106",
                "name": "Naintré"
            },
            "geometry": {
                "type": "Point",
                "coordinates": [
                    0.47929000000,
                    46.76179000000
                ]
            }
        },
        {
            "type": "Feature",
            "properties": {
                "id": "12334",
                "icon": "26",
                "name": "Cercoux"
            },
            "geometry": {
                "type": "Point",
                "coordinates": [
                    -0.20521000000,
                    45.12872000000
                ]
            }
        },
        {
            "type": "Feature",
            "properties": {
                "name": "Le Tallud",
                "id": "17005",
                "icon": "99"
            },
            "geometry": {
                "type": "Point",
                "coordinates": [
                    -0.29751000000,
                    46.63034000000
                ]
            }
        },
        {
            "type": "Feature",
            "properties": {
                "id": "893",
                "name": "Xaintray",
                "icon": "99"
            },
            "geometry": {
                "type": "Point",
                "coordinates": [
                    -0.47989000000,
                    46.49261000000
                ]
            }
        },
        {
            "type": "Feature",
            "properties": {
                "name": "Brive-la-Gaillarde",
                "id": "3715",
                "icon": "28"
            },
            "geometry": {
                "type": "Point",
                "coordinates": [
                    1.49899000000,
                    45.15685000000
                ]
            }
        },
        {
            "type": "Feature",
            "properties": {
                "icon": "43",
                "id": "17114",
                "name": "Castillon-la-Bataille"
            },
            "geometry": {
                "type": "Point",
                "coordinates": [
                    -0.04885000000,
                    44.85262000000
                ]
            }
        },
        {
            "type": "Feature",
            "properties": {
                "name": "Esnandes",
                "id": "17913",
                "icon": "26"
            },
            "geometry": {
                "type": "Point",
                "coordinates": [
                    -1.11682000000,
                    46.24856000000
                ]
            }
        },
        {
            "type": "Feature",
            "properties": {
                "icon": "43",
                "name": "Ambarès-et-Lagrave",
                "id": "5336"
            },
            "geometry": {
                "type": "Point",
                "coordinates": [
                    -0.49005000000,
                    44.92680000000
                ]
            }
        },
        {
            "type": "Feature",
            "properties": {
                "icon": "84",
                "name": "Pau",
                "id": "742"
            },
            "geometry": {
                "type": "Point",
                "coordinates": [
                    -0.33469000000,
                    43.30652000000
                ]
            }
        },
        {
            "type": "Feature",
            "properties": {
                "id": "15421",
                "icon": "57",
                "name": "Casteljaloux"
            },
            "geometry": {
                "type": "Point",
                "coordinates": [
                    0.08829000000,
                    44.31600000000
                ]
            }
        },
        {
            "type": "Feature",
            "properties": {
                "id": "3721",
                "name": "Brive-la-Gaillarde",
                "icon": "28"
            },
            "geometry": {
                "type": "Point",
                "coordinates": [
                    1.54051000000,
                    45.16065000000
                ]
            }
        },
        {
            "type": "Feature",
            "properties": {
                "name": "Thuré",
                "id": "14962",
                "icon": "106"
            },
            "geometry": {
                "type": "Point",
                "coordinates": [
                    0.49591000000,
                    46.81668000000
                ]
            }
        },
        {
            "type": "Feature",
            "properties": {
                "name": "Nontron",
                "id": "4484",
                "icon": "34"
            },
            "geometry": {
                "type": "Point",
                "coordinates": [
                    0.66352000000,
                    45.53081000000
                ]
            }
        },
        {
            "type": "Feature",
            "properties": {
                "id": "16805",
                "name": "Civaux",
                "icon": "106"
            },
            "geometry": {
                "type": "Point",
                "coordinates": [
                    0.66638000000,
                    46.44421000000
                ]
            }
        },
        {
            "type": "Feature",
            "properties": {
                "id": "3647",
                "name": "Cognac",
                "icon": "25"
            },
            "geometry": {
                "type": "Point",
                "coordinates": [
                    -0.32400000000,
                    45.69706000000
                ]
            }
        },
        {
            "type": "Feature",
            "properties": {
                "id": "16261",
                "icon": "106",
                "name": "Buxerolles"
            },
            "geometry": {
                "type": "Point",
                "coordinates": [
                    0.36530000000,
                    46.59856000000
                ]
            }
        },
        {
            "type": "Feature",
            "properties": {
                "icon": "106",
                "id": "3361",
                "name": "La Roche-Posay"
            },
            "geometry": {
                "type": "Point",
                "coordinates": [
                    0.81554000000,
                    46.78708000000
                ]
            }
        },
        {
            "type": "Feature",
            "properties": {
                "name": "Fleuré (86)",
                "icon": "106",
                "id": "16750"
            },
            "geometry": {
                "type": "Point",
                "coordinates": [
                    0.51978000000,
                    46.47857000000
                ]
            }
        },
        {
            "type": "Feature",
            "properties": {
                "name": "Angoulins",
                "id": "15266",
                "icon": "26"
            },
            "geometry": {
                "type": "Point",
                "coordinates": [
                    -1.10832000000,
                    46.10880000000
                ]
            }
        },
        {
            "type": "Feature",
            "properties": {
                "icon": "43",
                "id": "3527",
                "name": "Saint-Aubin-de-Medoc"
            },
            "geometry": {
                "type": "Point",
                "coordinates": [
                    -0.72342000000,
                    44.91251000000
                ]
            }
        },
        {
            "type": "Feature",
            "properties": {
                "id": "16217",
                "icon": "106",
                "name": "Béruges"
            },
            "geometry": {
                "type": "Point",
                "coordinates": [
                    0.20673000000,
                    46.56747000000
                ]
            }
        },
        {
            "type": "Feature",
            "properties": {
                "name": "Azay-le-Brûlé",
                "id": "17649",
                "icon": "99"
            },
            "geometry": {
                "type": "Point",
                "coordinates": [
                    -0.24885000000,
                    46.39877000000
                ]
            }
        },
        {
            "type": "Feature",
            "properties": {
                "name": "Poitiers",
                "icon": "106",
                "id": "14098"
            },
            "geometry": {
                "type": "Point",
                "coordinates": [
                    0.34332000000,
                    46.58484000000
                ]
            }
        },
        {
            "type": "Feature",
            "properties": {
                "name": "Mairé-Lévescault",
                "id": "1729",
                "icon": "99"
            },
            "geometry": {
                "type": "Point",
                "coordinates": [
                    0.07687000000,
                    46.14026000000
                ]
            }
        },
        {
            "type": "Feature",
            "properties": {
                "name": "Saint-Yrieix-sur-Charente",
                "id": "17479",
                "icon": "25"
            },
            "geometry": {
                "type": "Point",
                "coordinates": [
                    0.14031000000,
                    45.66745000000
                ]
            }
        },
        {
            "type": "Feature",
            "properties": {
                "icon": "43",
                "name": "Bordeaux",
                "id": "432"
            },
            "geometry": {
                "type": "Point",
                "coordinates": [
                    -0.57730000000,
                    44.81932000000
                ]
            }
        },
        {
            "type": "Feature",
            "properties": {
                "id": "8529",
                "name": "Melle",
                "icon": "99"
            },
            "geometry": {
                "type": "Point",
                "coordinates": [
                    -0.14472000000,
                    46.22242000000
                ]
            }
        },
        {
            "type": "Feature",
            "properties": {
                "icon": "43",
                "name": "Pineuilh",
                "id": "16166"
            },
            "geometry": {
                "type": "Point",
                "coordinates": [
                    0.22776000000,
                    44.82942000000
                ]
            }
        },
        {
            "type": "Feature",
            "properties": {
                "name": "Châteauneuf-sur-Charente",
                "id": "11649",
                "icon": "25"
            },
            "geometry": {
                "type": "Point",
                "coordinates": [
                    -0.05401000000,
                    45.59761000000
                ]
            }
        },
        {
            "type": "Feature",
            "properties": {
                "name": "Lescar",
                "icon": "84",
                "id": "768"
            },
            "geometry": {
                "type": "Point",
                "coordinates": [
                    -0.43275000000,
                    43.33230000000
                ]
            }
        },
        {
            "type": "Feature",
            "properties": {
                "icon": "43",
                "name": "Pessac",
                "id": "16487"
            },
            "geometry": {
                "type": "Point",
                "coordinates": [
                    -0.66500000000,
                    44.79197000000
                ]
            }
        },
        {
            "type": "Feature",
            "properties": {
                "id": "3753",
                "icon": "28",
                "name": "Lacelle"
            },
            "geometry": {
                "type": "Point",
                "coordinates": [
                    1.82602000000,
                    45.64089000000
                ]
            }
        },
        {
            "type": "Feature",
            "properties": {
                "name": "Verrières (86)",
                "id": "7515",
                "icon": "106"
            },
            "geometry": {
                "type": "Point",
                "coordinates": [
                    0.59401000000,
                    46.41148000000
                ]
            }
        },
        {
            "type": "Feature",
            "properties": {
                "icon": "84",
                "name": "Biarritz",
                "id": "513"
            },
            "geometry": {
                "type": "Point",
                "coordinates": [
                    -1.56169000000,
                    43.47723000000
                ]
            }
        },
        {
            "type": "Feature",
            "properties": {
                "id": "3693",
                "name": "Vouillé (79)",
                "icon": "99"
            },
            "geometry": {
                "type": "Point",
                "coordinates": [
                    -0.34150000000,
                    46.30562000000
                ]
            }
        },
        {
            "type": "Feature",
            "properties": {
                "id": "17940",
                "name": "Bouëx",
                "icon": "25"
            },
            "geometry": {
                "type": "Point",
                "coordinates": [
                    0.32030000000,
                    45.61793000000
                ]
            }
        },
        {
            "type": "Feature",
            "properties": {
                "icon": "43",
                "name": "Pessac",
                "id": "6352"
            },
            "geometry": {
                "type": "Point",
                "coordinates": [
                    -0.62756000000,
                    44.79717000000
                ]
            }
        },
        {
            "type": "Feature",
            "properties": {
                "icon": "84",
                "name": "Armendarits",
                "id": "14763"
            },
            "geometry": {
                "type": "Point",
                "coordinates": [
                    -1.17256000000,
                    43.30154000000
                ]
            }
        },
        {
            "type": "Feature",
            "properties": {
                "id": "3618",
                "icon": "26",
                "name": "La Rochelle"
            },
            "geometry": {
                "type": "Point",
                "coordinates": [
                    -1.15870000000,
                    46.16893000000
                ]
            }
        },
        {
            "type": "Feature",
            "properties": {
                "id": "4728",
                "icon": "107",
                "name": "Limoges"
            },
            "geometry": {
                "type": "Point",
                "coordinates": [
                    1.26445000000,
                    45.83204000000
                ]
            }
        },
        {
            "type": "Feature",
            "properties": {
                "id": "17516",
                "icon": "106",
                "name": "Ranton"
            },
            "geometry": {
                "type": "Point",
                "coordinates": [
                    -0.03144000000,
                    47.00157000000
                ]
            }
        },
        {
            "type": "Feature",
            "properties": {
                "icon": "43",
                "name": "Lignan de Bordeaux",
                "id": "3495"
            },
            "geometry": {
                "type": "Point",
                "coordinates": [
                    -0.42778000000,
                    44.79617000000
                ]
            }
        },
        {
            "type": "Feature",
            "properties": {
                "icon": "106",
                "id": "13288",
                "name": "Vouneuil-sur-Vienne"
            },
            "geometry": {
                "type": "Point",
                "coordinates": [
                    0.54954000000,
                    46.73164000000
                ]
            }
        },
        {
            "type": "Feature",
            "properties": {
                "id": "3471",
                "name": "Marmande",
                "icon": "57"
            },
            "geometry": {
                "type": "Point",
                "coordinates": [
                    0.16323000000,
                    44.49743000000
                ]
            }
        },
        {
            "type": "Feature",
            "properties": {
                "icon": "84",
                "name": "Bayonne",
                "id": "369"
            },
            "geometry": {
                "type": "Point",
                "coordinates": [
                    -1.45569000000,
                    43.49933000000
                ]
            }
        },
        {
            "type": "Feature",
            "properties": {
                "icon": "84",
                "name": "Bruges-Capbis-Mifaget",
                "id": "8119"
            },
            "geometry": {
                "type": "Point",
                "coordinates": [
                    -0.30357000000,
                    43.12657000000
                ]
            }
        },
        {
            "type": "Feature",
            "properties": {
                "icon": "107",
                "name": "Limoges",
                "id": "13064"
            },
            "geometry": {
                "type": "Point",
                "coordinates": [
                    1.25513000000,
                    45.84463000000
                ]
            }
        },
        {
            "type": "Feature",
            "properties": {
                "name": "Guéret",
                "id": "3342",
                "icon": "33"
            },
            "geometry": {
                "type": "Point",
                "coordinates": [
                    1.87033000000,
                    46.16875000000
                ]
            }
        },
        {
            "type": "Feature",
            "properties": {
                "name": "Dissay",
                "id": "6947",
                "icon": "106"
            },
            "geometry": {
                "type": "Point",
                "coordinates": [
                    0.42219000000,
                    46.70198000000
                ]
            }
        },
        {
            "type": "Feature",
            "properties": {
                "name": "Poitiers",
                "icon": "106",
                "id": "16202"
            },
            "geometry": {
                "type": "Point",
                "coordinates": [
                    0.37363000000,
                    46.56547000000
                ]
            }
        },
        {
            "type": "Feature",
            "properties": {
                "icon": "106",
                "id": "11260",
                "name": "Civray"
            },
            "geometry": {
                "type": "Point",
                "coordinates": [
                    0.29373000000,
                    46.15015000000
                ]
            }
        },
        {
            "type": "Feature",
            "properties": {
                "id": "17021",
                "name": "Poitiers",
                "icon": "106"
            },
            "geometry": {
                "type": "Point",
                "coordinates": [
                    0.34329000000,
                    46.58959000000
                ]
            }
        },
        {
            "type": "Feature",
            "properties": {
                "id": "14094",
                "name": "Poitiers",
                "icon": "106"
            },
            "geometry": {
                "type": "Point",
                "coordinates": [
                    0.33632000000,
                    46.58990000000
                ]
            }
        },
        {
            "type": "Feature",
            "properties": {
                "id": "1223",
                "icon": "43",
                "name": "Andernos-les-Bains"
            },