
{
    "type": "FeatureCollection",
    "generator": "JOSM",
    "features": [
        {
            "type": "Feature",
            "properties": {
                "name": "Ramonville-Saint-Agne",
                "icon": "41",
                "id": "666"
            },
            "geometry": {
                "type": "Point",
                "coordinates": [
                    1.47748000000,
                    43.53589000000
                ]
            }
        },
        {
            "type": "Feature",
            "properties": {
                "name": "Montauban",
                "id": "14255",
                "icon": "102"
            },
            "geometry": {
                "type": "Point",
                "coordinates": [
                    1.35362000000,
                    44.01919000000
                ]
            }
        },
        {
            "type": "Feature",
            "properties": {
                "icon": "41",
                "name": "Bezins-Garraux",
                "id": "17330"
            },
            "geometry": {
                "type": "Point",
                "coordinates": [
                    0.68993000000,
                    42.93260000000
                ]
            }
        },
        {
            "type": "Feature",
            "properties": {
                "icon": "42",
                "id": "15539",
                "name": "Aurensan"
            },
            "geometry": {
                "type": "Point",
                "coordinates": [
                    -0.20327000000,
                    43.61760000000
                ]
            }
        },
        {
            "type": "Feature",
            "properties": {
                "icon": "42",
                "id": "8857",
                "name": "Boucagnères"
            },
            "geometry": {
                "type": "Point",
                "coordinates": [
                    0.61506000000,
                    43.56295000000
                ]
            }
        },
        {
            "type": "Feature",
            "properties": {
                "id": "15392",
                "name": "Valros",
                "icon": "44"
            },
            "geometry": {
                "type": "Point",
                "coordinates": [
                    3.36689000000,
                    43.42061000000
                ]
            }
        },
        {
            "type": "Feature",
            "properties": {
                "icon": "41",
                "name": "Roques",
                "id": "656"
            },
            "geometry": {
                "type": "Point",
                "coordinates": [
                    1.37537000000,
                    43.50895000000
                ]
            }
        },
        {
            "type": "Feature",
            "properties": {
                "id": "11344",
                "name": "Foix",
                "icon": "19"
            },
            "geometry": {
                "type": "Point",
                "coordinates": [
                    1.60759000000,
                    42.96447000000
                ]
            }
        },
        {
            "type": "Feature",
            "properties": {
                "name": "Bouloc",
                "icon": "41",
                "id": "6420"
            },
            "geometry": {
                "type": "Point",
                "coordinates": [
                    1.40378000000,
                    43.78335000000
                ]
            }
        },
        {
            "type": "Feature",
            "properties": {
                "name": "Ambres",
                "id": "152",
                "icon": "101"
            },
            "geometry": {
                "type": "Point",
                "coordinates": [
                    1.81341000000,
                    43.73097000000
                ]
            }
        },
        {
            "type": "Feature",
            "properties": {
                "icon": "86",
                "name": "Perpignan",
                "id": "531"
            },
            "geometry": {
                "type": "Point",
                "coordinates": [
                    2.91584000000,
                    42.69619000000
                ]
            }
        },
        {
            "type": "Feature",
            "properties": {
                "name": "Jacou",
                "id": "2514",
                "icon": "44"
            },
            "geometry": {
                "type": "Point",
                "coordinates": [
                    3.91191000000,
                    43.65471000000
                ]
            }
        },
        {
            "type": "Feature",
            "properties": {
                "name": "Albi",
                "id": "107",
                "icon": "101"
            },
            "geometry": {
                "type": "Point",
                "coordinates": [
                    2.14611000000,
                    43.92703000000
                ]
            }
        },
        {
            "type": "Feature",
            "properties": {
                "id": "13920",
                "name": "Tanus",
                "icon": "101"
            },
            "geometry": {
                "type": "Point",
                "coordinates": [
                    2.31478000000,
                    44.10084000000
                ]
            }
        },
        {
            "type": "Feature",
            "properties": {
                "icon": "19",
                "name": "Auzat",
                "id": "16652"
            },
            "geometry": {
                "type": "Point",
                "coordinates": [
                    1.48046000000,
                    42.76655000000
                ]
            }
        },
        {
            "type": "Feature",
            "properties": {
                "id": "3039",
                "name": "Gourdon",
                "icon": "56"
            },
            "geometry": {
                "type": "Point",
                "coordinates": [
                    1.37994000000,
                    44.73736000000
                ]
            }
        },
        {
            "type": "Feature",
            "properties": {
                "icon": "85",
                "name": "Lourdes",
                "id": "812"
            },
            "geometry": {
                "type": "Point",
                "coordinates": [
                    -0.04661000000,
                    43.09333000000
                ]
            }
        },
        {
            "type": "Feature",
            "properties": {
                "icon": "41",
                "id": "13565",
                "name": "Revel"
            },
            "geometry": {
                "type": "Point",
                "coordinates": [
                    2.00300000000,
                    43.45707000000
                ]
            }
        },
        {
            "type": "Feature",
            "properties": {
                "icon": "21",
                "id": "553",
                "name": "Puivert"
            },
            "geometry": {
                "type": "Point",
                "coordinates": [
                    2.04853000000,
                    42.92037000000
                ]
            }
        },
        {
            "type": "Feature",
            "properties": {
                "icon": "86",
                "id": "15359",
                "name": "Saint-Hippolyte (66)"
            },
            "geometry": {
                "type": "Point",
                "coordinates": [
                    2.96720000000,
                    42.78495000000
                ]
            }
        },
        {
            "type": "Feature",
            "properties": {
                "name": "Lugan",
                "id": "131",
                "icon": "101"
            },
            "geometry": {
                "type": "Point",
                "coordinates": [
                    1.71687000000,
                    43.73022000000
                ]
            }
        },
        {
            "type": "Feature",
            "properties": {
                "icon": "40",
                "name": "Aigues-Mortes",
                "id": "15312"
            },
            "geometry": {
                "type": "Point",
                "coordinates": [
                    4.19957000000,
                    43.56791000000
                ]
            }
        },
        {
            "type": "Feature",
            "properties": {
                "name": "Corn",
                "id": "17737",
                "icon": "56"
            },
            "geometry": {
                "type": "Point",
                "coordinates": [
                    1.89940000000,
                    44.60713000000
                ]
            }
        },
        {
            "type": "Feature",
            "properties": {
                "name": "Lamagistère",
                "id": "14265",
                "icon": "102"
            },
            "geometry": {
                "type": "Point",
                "coordinates": [
                    0.82535000000,
                    44.12675000000
                ]
            }
        },
        {
            "type": "Feature",
            "properties": {
                "icon": "85",
                "name": "Boô-Silhen",
                "id": "15551"
            },
            "geometry": {
                "type": "Point",
                "coordinates": [
                    -0.06860000000,
                    43.02395000000
                ]
            }
        },
        {
            "type": "Feature",
            "properties": {
                "icon": "41",
                "id": "583",
                "name": "Toulouse"
            },
            "geometry": {
                "type": "Point",
                "coordinates": [
                    1.43475000000,
                    43.59808000000
                ]
            }
        },
        {
            "type": "Feature",
            "properties": {
                "id": "13987",
                "name": "Saint-Benoît-de-Carmaux",
                "icon": "101"
            },
            "geometry": {
                "type": "Point",
                "coordinates": [
                    2.12916000000,
                    44.05189000000
                ]
            }
        },
        {
            "type": "Feature",
            "properties": {
                "id": "15429",
                "icon": "44",
                "name": "Servian"
            },
            "geometry": {
                "type": "Point",
                "coordinates": [
                    3.30030000000,
                    43.42711000000
                ]
            }
        },
        {
            "type": "Feature",
            "properties": {
                "icon": "21",
                "id": "543",
                "name": "Narbonne"
            },
            "geometry": {
                "type": "Point",
                "coordinates": [
                    2.99832000000,
                    43.18069000000
                ]
            }
        },
        {
            "type": "Feature",
            "properties": {
                "icon": "85",
                "name": "Bernac-Dessus",
                "id": "15334"
            },
            "geometry": {
                "type": "Point",
                "coordinates": [
                    0.11219000000,
                    43.16095000000
                ]
            }
        },
        {
            "type": "Feature",
            "properties": {
                "icon": "40",
                "name": "Sauve",
                "id": "13425"
            },
            "geometry": {
                "type": "Point",
                "coordinates": [
                    3.95425000000,
                    43.94210000000
                ]
            }
        },
        {
            "type": "Feature",
            "properties": {
                "id": "9189",
                "icon": "101",
                "name": "Rabastens"
            },
            "geometry": {
                "type": "Point",
                "coordinates": [
                    1.72697000000,
                    43.82279000000
                ]
            }
        },
        {
            "type": "Feature",
            "properties": {
                "icon": "41",
                "id": "658",
                "name": "Roques"
            },
            "geometry": {
                "type": "Point",
                "coordinates": [
                    1.36157000000,
                    43.50171000000
                ]
            }
        },
        {
            "type": "Feature",
            "properties": {
                "name": "Jacou",
                "icon": "44",
                "id": "2520"
            },
            "geometry": {
                "type": "Point",
                "coordinates": [
                    3.91308000000,
                    43.66038000000
                ]
            }
        },
        {
            "type": "Feature",
            "properties": {
                "name": "Albi",
                "id": "111",
                "icon": "101"
            },
            "geometry": {
                "type": "Point",
                "coordinates": [
                    2.13895000000,
                    43.91976000000
                ]
            }
        },
        {
            "type": "Feature",
            "properties": {
                "name": "Réalmont",
                "id": "13940",
                "icon": "101"
            },
            "geometry": {
                "type": "Point",
                "coordinates": [
                    2.18916000000,
                    43.77618000000
                ]
            }
        },
        {
            "type": "Feature",
            "properties": {
                "icon": "40",
                "id": "1743",
                "name": "Le Grau-du-Roi"
            },
            "geometry": {
                "type": "Point",
                "coordinates": [
                    4.13439000000,
                    43.53672000000
                ]
            }
        },
        {
            "type": "Feature",
            "properties": {
                "name": "Aussillon",
                "id": "15218",
                "icon": "101"
            },
            "geometry": {
                "type": "Point",
                "coordinates": [
                    2.36739000000,
                    43.50625000000
                ]
            }
        },
        {
            "type": "Feature",
            "properties": {
                "id": "3457",
                "name": "Concots",
                "icon": "56"
            },
            "geometry": {
                "type": "Point",
                "coordinates": [
                    1.64486000000,
                    44.40130000000
                ]
            }
        },
        {
            "type": "Feature",
            "properties": {
                "icon": "85",
                "name": "Lourdes",
                "id": "810"
            },
            "geometry": {
                "type": "Point",
                "coordinates": [
                    -0.07825000000,
                    43.10568000000
                ]
            }
        },
        {
            "type": "Feature",
            "properties": {
                "icon": "85",
                "name": "Arcizans-Avant",
                "id": "206"
            },
            "geometry": {
                "type": "Point",
                "coordinates": [
                    -0.10615000000,
                    42.98741000000
                ]
            }
        },
        {
            "type": "Feature",
            "properties": {
                "icon": "21",
                "name": "Port-la-Nouvelle",
                "id": "15379"
            },
            "geometry": {
                "type": "Point",
                "coordinates": [
                    3.06402000000,
                    43.01415000000
                ]
            }
        },
        {
            "type": "Feature",
            "properties": {
                "id": "648",
                "icon": "41",
                "name": "Cazères"
            },
            "geometry": {
                "type": "Point",
                "coordinates": [
                    1.08671000000,
                    43.20510000000
                ]
            }
        },
        {
            "type": "Feature",
            "properties": {
                "name": "Saint-Gaudens",
                "icon": "41",
                "id": "11340"
            },
            "geometry": {
                "type": "Point",
                "coordinates": [
                    0.72516000000,
                    43.10794000000
                ]
            }
        },
        {
            "type": "Feature",
            "properties": {
                "icon": "41",
                "name": "Sepx",
                "id": "17881"
            },
            "geometry": {
                "type": "Point",
                "coordinates": [
                    0.84086000000,
                    43.15460000000
                ]
            }
        },
        {
            "type": "Feature",
            "properties": {
                "id": "615",
                "icon": "41",
                "name": "Toulouse"
            },
            "geometry": {
                "type": "Point",
                "coordinates": [
                    1.44179000000,
                    43.57935000000
                ]
            }
        },
        {
            "type": "Feature",
            "properties": {
                "name": "Flagnac",
                "id": "14272",
                "icon": "22"
            },
            "geometry": {
                "type": "Point",
                "coordinates": [
                    2.27112000000,
                    44.57496000000
                ]
            }
        },
        {
            "type": "Feature",
            "properties": {
                "id": "1172",
                "name": "Sainte-Eulalie-de-Cernon",
                "icon": "22"
            },
            "geometry": {
                "type": "Point",
                "coordinates": [
                    3.13540000000,
                    43.98238000000
                ]
            }
        },
        {
            "type": "Feature",
            "properties": {
                "name": "Saint-Gaudens",
                "icon": "41",
                "id": "15431"
            },
            "geometry": {
                "type": "Point",
                "coordinates": [
                    0.72053000000,
                    43.10860000000
                ]
            }
        },
        {
            "type": "Feature",
            "properties": {
                "name": "Cahors",
                "icon": "56",
                "id": "3025"
            },
            "geometry": {
                "type": "Point",
                "coordinates": [
                    1.44321000000,
                    44.44804000000
                ]
            }
        },
        {
            "type": "Feature",
            "properties": {
                "name": "Baladou",
                "id": "15329",
                "icon": "56"
            },
            "geometry": {
                "type": "Point",
                "coordinates": [
                    1.55534000000,
                    44.92237000000
                ]
            }
        },
        {
            "type": "Feature",
            "properties": {
                "id": "14445",
                "name": "Alban",
                "icon": "101"
            },
            "geometry": {
                "type": "Point",
                "coordinates": [
                    2.46098000000,
                    43.88824000000
                ]
            }
        },
        {
            "type": "Feature",
            "properties": {
                "icon": "21",
                "id": "11964",
                "name": "Leucate"
            },
            "geometry": {
                "type": "Point",
                "coordinates": [
                    3.02752000000,
                    42.90925000000
                ]
            }
        },
        {
            "type": "Feature",
            "properties": {
                "name": "Colomiers",
                "icon": "41",
                "id": "9184"
            },
            "geometry": {
                "type": "Point",
                "coordinates": [
                    1.33473000000,
                    43.60954000000
                ]
            }
        },
        {
            "type": "Feature",
            "properties": {
                "icon": "40",
                "id": "2534",
                "name": "Nîmes"
            },
            "geometry": {
                "type": "Point",
                "coordinates": [
                    4.34841000000,
                    43.85378000000
                ]
            }
        },
        {
            "type": "Feature",
            "properties": {
                "icon": "41",
                "name": "Fonbeauzard",
                "id": "644"
            },
            "geometry": {
                "type": "Point",
                "coordinates": [
                    1.42643000000,
                    43.67952000000
                ]
            }
        },
        {
            "type": "Feature",
            "properties": {
                "icon": "41",
                "id": "4967",
                "name": "Sainte-Livrade"
            },
            "geometry": {
                "type": "Point",
                "coordinates": [
                    1.10516000000,
                    43.65041000000
                ]
            }
        },
        {
            "type": "Feature",
            "properties": {
                "id": "1745",
                "name": "Montpellier",
                "icon": "44"
            },
            "geometry": {
                "type": "Point",
                "coordinates": [
                    3.88405000000,
                    43.60531000000
                ]
            }
        },
        {
            "type": "Feature",
            "properties": {
                "icon": "41",
                "id": "611",
                "name": "Toulouse"
            },
            "geometry": {
                "type": "Point",
                "coordinates": [
                    1.48323000000,
                    43.59677000000
                ]
            }
        },
        {
            "type": "Feature",
            "properties": {
                "name": "Lescure-d'Albigeois",
                "id": "13963",
                "icon": "101"
            },
            "geometry": {
                "type": "Point",
                "coordinates": [
                    2.16387000000,
                    43.96196000000
                ]
            }
        },
        {
            "type": "Feature",
            "properties": {
                "name": "Valence d'Agen",
                "id": "15390",
                "icon": "102"
            },
            "geometry": {
                "type": "Point",
                "coordinates": [
                    0.88700000000,
                    44.10987000000
                ]
            }
        },
        {
            "type": "Feature",
            "properties": {
                "id": "3535",
                "name": "Le Vigan (46)",
                "icon": "56"
            },
            "geometry": {
                "type": "Point",
                "coordinates": [
                    1.43908000000,
                    44.74133000000
                ]
            }
        },
        {
            "type": "Feature",
            "properties": {
                "id": "202",
                "icon": "101",
                "name": "Appelle"
            },
            "geometry": {
                "type": "Point",
                "coordinates": [
                    1.95290000000,
                    43.58183000000
                ]
            }
        },
        {
            "type": "Feature",
            "properties": {
                "name": "Labastide-Saint-Georges",
                "id": "674",
                "icon": "101"
            },
            "geometry": {
                "type": "Point",
                "coordinates": [
                    1.83098000000,
                    43.70038000000
                ]
            }
        },
        {
            "type": "Feature",
            "properties": {
                "name": "Les Matelles",
                "id": "5286",
                "icon": "44"
            },
            "geometry": {
                "type": "Point",
                "coordinates": [
                    3.81838000000,
                    43.72684000000
                ]
            }
        },
        {
            "type": "Feature",
            "properties": {
                "icon": "19",
                "name": "La Bastide-de-Lordat",
                "id": "14421"
            },
            "geometry": {
                "type": "Point",
                "coordinates": [
                    1.71304000000,
                    43.14282000000
                ]
            }
        },
        {
            "type": "Feature",
            "properties": {
                "id": "2504",
                "name": "Grabels",
                "icon": "44"
            },
            "geometry": {
                "type": "Point",
                "coordinates": [
                    3.80203000000,
                    43.64707000000
                ]
            }
        },
        {
            "type": "Feature",
            "properties": {
                "name": "Albi",
                "id": "102",
                "icon": "101"
            },
            "geometry": {
                "type": "Point",
                "coordinates": [
                    2.14501000000,
                    43.92277000000
                ]
            }
        },
        {
            "type": "Feature",
            "properties": {
                "name": "Aussillon",
                "id": "15214",
                "icon": "101"
            },
            "geometry": {
                "type": "Point",
                "coordinates": [
                    2.36415000000,
                    43.49641000000
                ]
            }
        },
        {
            "type": "Feature",
            "properties": {
                "name": "Luc-la-Primaube",
                "icon": "22",
                "id": "1310"
            },
            "geometry": {
                "type": "Point",
                "coordinates": [
                    2.53490000000,
                    44.31408000000
                ]
            }
        },
        {
            "type": "Feature",
            "properties": {
                "icon": "19",
                "name": "Pamiers",
                "id": "557"
            },
            "geometry": {
                "type": "Point",
                "coordinates": [
                    1.61466000000,
                    43.11257000000
                ]
            }
        },
        {
            "type": "Feature",
            "properties": {
                "name": "Gourdon",
                "id": "3035",
                "icon": "56"
            },
            "geometry": {
                "type": "Point",
                "coordinates": [
                    1.38254000000,
                    44.73581000000
                ]
            }
        },
        {
            "type": "Feature",
            "properties": {
                "icon": "85",
                "id": "790",
                "name": "Bordères-sur-l'Échez"
            },
            "geometry": {
                "type": "Point",
                "coordinates": [
                    0.05106000000,
                    43.25826000000
                ]
            }
        },
        {
            "type": "Feature",
            "properties": {
                "icon": "41",
                "id": "15377",
                "name": "Fenouillet"
            },
            "geometry": {
                "type": "Point",
                "coordinates": [
                    1.39209000000,
                    43.67950000000
                ]
            }
        },
        {
            "type": "Feature",
            "properties": {
                "id": "5239",
                "name": "Baillargues",
                "icon": "44"
            },
            "geometry": {
                "type": "Point",
                "coordinates": [
                    4.01159000000,
                    43.65933000000
                ]
            }
        },
        {
            "type": "Feature",
            "properties": {
                "name": "Donzac",
                "icon": "102",
                "id": "7865"
            },
            "geometry": {
                "type": "Point",
                "coordinates": [
                    0.81650000000,
                    44.11090000000
                ]
            }
        },
        {
            "type": "Feature",
            "properties": {
                "name": "Gaillac",
                "id": "8462",
                "icon": "101"
            },
            "geometry": {
                "type": "Point",
                "coordinates": [
                    1.91783000000,
                    43.91987000000
                ]
            }
        },
        {
            "type": "Feature",
            "properties": {
                "icon": "41",
                "id": "672",
                "name": "Gragnague"
            },
            "geometry": {
                "type": "Point",
                "coordinates": [
                    1.58576000000,
                    43.67613000000
                ]
            }
        },
        {
            "type": "Feature",
            "properties": {
                "icon": "42",
                "name": "Auch",
                "id": "7777"
            },
            "geometry": {
                "type": "Point",
                "coordinates": [
                    0.58381000000,
                    43.64709000000
                ]
            }
        },
        {
            "type": "Feature",
            "properties": {
                "name": "Castelsagrat",
                "icon": "102",
                "id": "14253"
            },
            "geometry": {
                "type": "Point",
                "coordinates": [
                    0.94625000000,
                    44.18375000000
                ]
            }
        },
        {
            "type": "Feature",
            "properties": {
                "icon": "41",
                "id": "17273",
                "name": "Blagnac"
            },
            "geometry": {
                "type": "Point",
                "coordinates": [
                    1.39245000000,
                    43.62468000000
                ]
            }
        },
        {
            "type": "Feature",
            "properties": {
                "icon": "86",
                "id": "8705",
                "name": "Saint-Nazaire (66)"
            },
            "geometry": {
                "type": "Point",
                "coordinates": [
                    2.99042000000,
                    42.66816000000
                ]
            }
        },
        {
            "type": "Feature",
            "properties": {
                "name": "Durfort",
                "id": "7695",
                "icon": "101"
            },
            "geometry": {
                "type": "Point",
                "coordinates": [
                    2.06640000000,
                    43.43895000000
                ]
            }
        },
        {
            "type": "Feature",
            "properties": {
                "name": "Benagues",
                "id": "15623",
                "icon": "19"
            },
            "geometry": {
                "type": "Point",
                "coordinates": [
                    1.61013000000,
                    43.07758000000
                ]
            }
        },
        {
            "type": "Feature",
            "properties": {
                "icon": "85",
                "id": "15415",
                "name": "Aureilhan"
            },
            "geometry": {
                "type": "Point",
                "coordinates": [
                    0.09403000000,
                    43.23645000000
                ]
            }
        },
        {
            "type": "Feature",
            "properties": {
                "icon": "19",
                "id": "563",
                "name": "Saint-Girons"
            },
            "geometry": {
                "type": "Point",
                "coordinates": [
                    1.14313000000,
                    42.98622000000
                ]
            }
        },
        {
            "type": "Feature",
            "properties": {
                "name": "Arcambal",
                "id": "204",
                "icon": "56"
            },
            "geometry": {
                "type": "Point",
                "coordinates": [
                    1.51654000000,
                    44.45678000000
                ]
            }
        },
        {
            "type": "Feature",
            "properties": {
                "icon": "41",
                "id": "662",
                "name": "Roques"
            },
            "geometry": {
                "type": "Point",
                "coordinates": [
                    1.34394000000,
                    43.50538000000
                ]
            }
        },
        {
            "type": "Feature",
            "properties": {
                "icon": "40",
                "name": "Alès",
                "id": "5001"
            },
            "geometry": {
                "type": "Point",
                "coordinates": [
                    4.07998000000,
                    44.12491000000
                ]
            }
        },
        {
            "type": "Feature",
            "properties": {
                "id": "6428",
                "icon": "41",
                "name": "Saint-Lys"
            },
            "geometry": {
                "type": "Point",
                "coordinates": [
                    1.17818000000,
                    43.51428000000
                ]
            }
        },
        {
            "type": "Feature",
            "properties": {
                "name": "Ardengost",
                "icon": "85",
                "id": "14581"
            },
            "geometry": {
                "type": "Point",
                "coordinates": [
                    0.40334000000,
                    42.92517000000
                ]
            }
        },
        {
            "type": "Feature",
            "properties": {
                "name": "Jacou",
                "id": "2518",
                "icon": "44"
            },
            "geometry": {
                "type": "Point",
                "coordinates": [
                    3.91087000000,
                    43.66154000000
                ]
            }
        },
        {
            "type": "Feature",
            "properties": {
                "icon": "41",
                "id": "635",
                "name": "Toulouse"
            },
            "geometry": {
                "type": "Point",
                "coordinates": [
                    1.40927000000,
                    43.60455000000
                ]
            }
        },
        {
            "type": "Feature",
            "properties": {
                "id": "16590",
                "icon": "40",
                "name": "Boisset-et-Gaujac"
            },
            "geometry": {
                "type": "Point",
                "coordinates": [
                    4.02016000000,
                    44.04898000000
                ]
            }
        },
        {
            "type": "Feature",
            "properties": {
                "icon": "41",
                "id": "13651",
                "name": "Saint-Laurent (31)"
            },
            "geometry": {
                "type": "Point",
                "coordinates": [
                    0.79990000000,
                    43.32560000000
                ]
            }
        },
        {
            "type": "Feature",
            "properties": {
                "icon": "40",
                "name": "Aiguèze",
                "id": "15223"
            },
            "geometry": {
                "type": "Point",
                "coordinates": [
                    4.55548000000,
                    44.30382000000
                ]
            }
        },
        {
            "type": "Feature",
            "properties": {
                "name": "Gourdon",
                "id": "3041",
                "icon": "56"
            },
            "geometry": {
                "type": "Point",
                "coordinates": [
                    1.37833000000,
                    44.73145000000
                ]
            }
        },
        {
            "type": "Feature",
            "properties": {
                "icon": "40",
                "name": "Nîmes",
                "id": "6991"
            },
            "geometry": {
                "type": "Point",
                "coordinates": [
                    4.31464000000,
                    43.84781000000
                ]
            }
        },
        {
            "type": "Feature",
            "properties": {
                "id": "816",
                "icon": "85",
                "name": "Gerde"
            },
            "geometry": {
                "type": "Point",
                "coordinates": [
                    0.16454000000,
                    43.05641000000
                ]
            }
        },
        {
            "type": "Feature",
            "properties": {
                "icon": "19",
                "name": "Pamiers",
                "id": "559"
            },
            "geometry": {
                "type": "Point",
                "coordinates": [
                    1.61079000000,
                    43.11266000000
                ]
            }
        },
        {
            "type": "Feature",
            "properties": {
                "name": "Payssous",
                "icon": "41",
                "id": "729"
            },
            "geometry": {
                "type": "Point",
                "coordinates": [
                    0.71103000000,
                    43.03356000000
                ]
            }
        },
        {
            "type": "Feature",
            "properties": {
                "name": "Lautrec",
                "id": "129",
                "icon": "101"
            },
            "geometry": {
                "type": "Point",
                "coordinates": [
                    2.13812000000,
                    43.70561000000
                ]
            }
        },
        {
            "type": "Feature",
            "properties": {
                "id": "2370",
                "name": "Bozouls",
                "icon": "22"
            },
            "geometry": {
                "type": "Point",
                "coordinates": [
                    2.72035000000,
                    44.46946000000
                ]
            }
        },
        {
            "type": "Feature",
            "properties": {
                "name": "Calmont",
                "id": "9983",
                "icon": "22"
            },
            "geometry": {
                "type": "Point",
                "coordinates": [
                    2.54579000000,
                    44.24541000000
                ]
            }
        },
        {
            "type": "Feature",
            "properties": {
                "name": "Lamagistère",
                "icon": "102",
                "id": "14263"
            },
            "geometry": {
                "type": "Point",
                "coordinates": [
                    0.82120000000,
                    44.12547000000
                ]
            }
        },
        {
            "type": "Feature",
            "properties": {
                "name": "Balaguier-sur-Rance",
                "id": "15971",
                "icon": "22"
            },
            "geometry": {
                "type": "Point",
                "coordinates": [
                    2.57696000000,
                    43.89798000000
                ]
            }
        },
        {
            "type": "Feature",
            "properties": {
                "name": "Lacrouzette",
                "id": "13985",
                "icon": "101"
            },
            "geometry": {
                "type": "Point",
                "coordinates": [
                    2.34818000000,
                    43.66353000000
                ]
            }
        },
        {
            "type": "Feature",
            "properties": {
                "id": "7680",
                "icon": "22",
                "name": "Sauveterre-de-Rouergue"
            },
            "geometry": {
                "type": "Point",
                "coordinates": [
                    2.31752000000,
                    44.22014000000
                ]
            }
        },
        {
            "type": "Feature",
            "properties": {
                "name": "Launaguet",
                "icon": "41",
                "id": "15413"
            },
            "geometry": {
                "type": "Point",
                "coordinates": [
                    1.44610000000,
                    43.65617000000
                ]
            }
        },
        {
            "type": "Feature",
            "properties": {
                "icon": "21",
                "id": "549",
                "name": "Homps"
            },
            "geometry": {
                "type": "Point",
                "coordinates": [
                    2.72069000000,
                    43.26755000000
                ]
            }
        },
        {
            "type": "Feature",
            "properties": {
                "icon": "21",
                "name": "Laure-Minervois",
                "id": "13246"
            },
            "geometry": {
                "type": "Point",
                "coordinates": [
                    2.52009000000,
                    43.27273000000
                ]
            }
        },
        {
            "type": "Feature",
            "properties": {
                "name": "Alignan-du-Vent",
                "id": "14432",
                "icon": "44"
            },
            "geometry": {
                "type": "Point",
                "coordinates": [
                    3.34652000000,
                    43.48442000000
                ]
            }
        },
        {
            "type": "Feature",
            "properties": {
                "icon": "41",
                "id": "664",
                "name": "Roques"
            },
            "geometry": {
                "type": "Point",
                "coordinates": [
                    1.37895000000,
                    43.51003000000
                ]
            }
        },
        {
            "type": "Feature",
            "properties": {
                "icon": "40",
                "id": "2524",
                "name": "Junas"
            },
            "geometry": {
                "type": "Point",
                "coordinates": [
                    4.11986000000,
                    43.77379000000
                ]
            }
        },
        {
            "type": "Feature",
            "properties": {
                "id": "109",
                "name": "Albi",
                "icon": "101"
            },
            "geometry": {
                "type": "Point",
                "coordinates": [
                    2.14892000000,
                    43.92207000000
                ]
            }
        },
        {
            "type": "Feature",
            "properties": {
                "name": "Puylaurens",
                "icon": "101",
                "id": "13938"
            },
            "geometry": {
                "type": "Point",
                "coordinates": [
                    2.01420000000,
                    43.57106000000
                ]
            }
        },
        {
            "type": "Feature",
            "properties": {
                "icon": "40",
                "id": "17237",
                "name": "Laudun-l'Ardoise"
            },
            "geometry": {
                "type": "Point",
                "coordinates": [
                    4.65766000000,
                    44.10497000000
                ]
            }
        },
        {
            "type": "Feature",
            "properties": {
                "icon": "41",
                "id": "593",
                "name": "Toulouse"
            },
            "geometry": {
                "type": "Point",
                "coordinates": [
                    1.44520000000,
                    43.60477000000
                ]
            }
        },
        {
            "type": "Feature",
            "properties": {
                "id": "3459",
                "name": "Lalbenque",
                "icon": "56"
            },
            "geometry": {
                "type": "Point",
                "coordinates": [
                    1.54508000000,
                    44.33816000000
                ]
            }
        },
        {
            "type": "Feature",
            "properties": {
                "id": "824",
                "icon": "41",
                "name": "Montastruc-la-Conseillère"
            },
            "geometry": {
                "type": "Point",
                "coordinates": [
                    1.58924000000,
                    43.71939000000
                ]
            }
        },
        {
            "type": "Feature",
            "properties": {
                "name": "Saint-Quentin-la-Tour",
                "id": "13701",
                "icon": "19"
            },
            "geometry": {
                "type": "Point",
                "coordinates": [
                    1.89835000000,
                    43.03334000000
                ]
            }
        },
        {
            "type": "Feature",
            "properties": {
                "icon": "21",
                "name": "Villanière",
                "id": "15385"
            },
            "geometry": {
                "type": "Point",
                "coordinates": [
                    2.36165000000,
                    43.34133000000
                ]
            }
        },
        {
            "type": "Feature",
            "properties": {
                "icon": "41",
                "id": "654",
                "name": "Eaunes"
            },
            "geometry": {
                "type": "Point",
                "coordinates": [
                    1.35761000000,
                    43.42576000000
                ]
            }
        },
        {
            "type": "Feature",
            "properties": {
                "icon": "86",
                "name": "Torreilles",
                "id": "11342"
            },
            "geometry": {
                "type": "Point",
                "coordinates": [
                    2.99389000000,
                    42.75447000000
                ]
            }
        },
        {
            "type": "Feature",
            "properties": {
                "id": "2379",
                "name": "La Loubière",
                "icon": "22"
            },
            "geometry": {
                "type": "Point",
                "coordinates": [
                    2.63053000000,
                    44.40649000000
                ]
            }
        },
        {
            "type": "Feature",
            "properties": {
                "icon": "41",
                "id": "621",
                "name": "Toulouse"
            },
            "geometry": {
                "type": "Point",
                "coordinates": [
                    1.37780000000,
                    43.58954000000
                ]
            }
        },
        {
            "type": "Feature",
            "properties": {
                "icon": "86",
                "id": "16086",
                "name": "Amélie-les-Bains-Palalda"
            },
            "geometry": {
                "type": "Point",
                "coordinates": [
                    2.66833000000,
                    42.47018000000
                ]
            }
        },
        {
            "type": "Feature",
            "properties": {
                "name": "Aussillon",
                "id": "15216",
                "icon": "101"
            },
            "geometry": {
                "type": "Point",
                "coordinates": [
                    2.35446000000,
                    43.48879000000
                ]
            }
        },
        {
            "type": "Feature",
            "properties": {
                "id": "15419",
                "name": "Gindou",
                "icon": "56"
            },
            "geometry": {
                "type": "Point",
                "coordinates": [
                    1.24977000000,
                    44.63211000000
                ]
            }
        },
        {
            "type": "Feature",
            "properties": {
                "icon": "40",
                "id": "2538",
                "name": "Castillon-du-Gard"
            },
            "geometry": {
                "type": "Point",
                "coordinates": [
                    4.55437000000,
                    43.97054000000
                ]
            }
        },
        {
            "type": "Feature",
            "properties": {
                "id": "293",
                "icon": "85",
                "name": "Bagnères-de-Bigorre"
            },
            "geometry": {
                "type": "Point",
                "coordinates": [
                    0.14910000000,
                    43.06268000000
                ]
            }
        },
        {
            "type": "Feature",
            "properties": {
                "icon": "85",
                "id": "792",
                "name": "Tarbes"
            },
            "geometry": {
                "type": "Point",
                "coordinates": [
                    0.07592000000,
                    43.23873000000
                ]
            }
        },
        {
            "type": "Feature",
            "properties": {
                "icon": "41",
                "name": "Aspet",
                "id": "228"
            },
            "geometry": {
                "type": "Point",
                "coordinates": [
                    0.80019000000,
                    43.01482000000
                ]
            }
        },
        {
            "type": "Feature",
            "properties": {
                "name": "Biars-sur-Cère",
                "id": "15363",
                "icon": "56"
            },
            "geometry": {
                "type": "Point",
                "coordinates": [
                    1.84571000000,
                    44.92759000000
                ]
            }
        },
        {
            "type": "Feature",
            "properties": {
                "id": "7795",
                "icon": "22",
                "name": "Nant"
            },
            "geometry": {
                "type": "Point",
                "coordinates": [
                    3.29824000000,
                    44.02380000000
                ]
            }
        },
        {
            "type": "Feature",
            "properties": {
                "icon": "41",
                "id": "17400",
                "name": "Bourg-Saint-Bernard"
            },
            "geometry": {
                "type": "Point",
                "coordinates": [
                    1.71387000000,
                    43.60108000000
                ]
            }
        },
        {
            "type": "Feature",
            "properties": {
                "icon": "41",
                "id": "633",
                "name": "Toulouse"
            },
            "geometry": {
                "type": "Point",
                "coordinates": [
                    1.48273000000,
                    43.58672000000
                ]
            }
        },
        {
            "type": "Feature",
            "properties": {
                "name": "Bénac (09)",
                "id": "15529",
                "icon": "19"
            },
            "geometry": {
                "type": "Point",
                "coordinates": [
                    1.53110000000,
                    42.95451000000
                ]
            }
        },
        {
            "type": "Feature",
            "properties": {
                "icon": "41",
                "id": "595",
                "name": "Toulouse"
            },
            "geometry": {
                "type": "Point",
                "coordinates": [
                    1.39756000000,
                    43.61831000000
                ]
            }
        },
        {
            "type": "Feature",
            "properties": {
                "icon": "101",
                "id": "13959",
                "name": "Burlats"
            },
            "geometry": {
                "type": "Point",
                "coordinates": [
                    2.32572000000,
                    43.62359000000
                ]
            }
        },
        {
            "type": "Feature",
            "properties": {
                "icon": "86",
                "name": "Alénya",
                "id": "14890"
            },
            "geometry": {
                "type": "Point",
                "coordinates": [
                    2.97978000000,
                    42.63977000000
                ]
            }
        },
        {
            "type": "Feature",
            "properties": {
                "icon": "21",
                "id": "15394",
                "name": "Limoux"
            },
            "geometry": {
                "type": "Point",
                "coordinates": [
                    2.22182000000,
                    43.05646000000
                ]
            }
        },
        {
            "type": "Feature",
            "properties": {
                "id": "13477",
                "name": "Figeac",
                "icon": "56"
            },
            "geometry": {
                "type": "Point",
                "coordinates": [
                    2.02940000000,
                    44.60909000000
                ]
            }
        },
        {
            "type": "Feature",
            "properties": {
                "icon": "42",
                "id": "9628",
                "name": "Sainte-Christie-d'Armagnac"
            },
            "geometry": {
                "type": "Point",
                "coordinates": [
                    -0.00830000000,
                    43.78396000000
                ]
            }
        },
        {
            "type": "Feature",
            "properties": {
                "icon": "41",
                "name": "Toulouse",
                "id": "623"
            },
            "geometry": {
                "type": "Point",
                "coordinates": [
                    1.44840000000,
                    43.61248000000
                ]
            }
        },
        {
            "type": "Feature",
            "properties": {
                "id": "2508",
                "name": "Castelnau-le-Lez",
                "icon": "44"
            },
            "geometry": {
                "type": "Point",
                "coordinates": [
                    3.92439000000,
                    43.64390000000
                ]
            }
        },
        {
            "type": "Feature",
            "properties": {
                "icon": "41",
                "id": "587",
                "name": "Toulouse"
            },
            "geometry": {
                "type": "Point",
                "coordinates": [
                    1.45597000000,
                    43.59449000000
                ]
            }
        },
        {
            "type": "Feature",
            "properties": {
                "id": "1735",
                "name": "Sénaillac-Latronquière",
                "icon": "56"
            },
            "geometry": {
                "type": "Point",
                "coordinates": [
                    2.04734000000,
                    44.82767000000
                ]
            }
        },
        {
            "type": "Feature",
            "properties": {
                "icon": "21",
                "name": "Puichéric",
                "id": "547"
            },
            "geometry": {
                "type": "Point",
                "coordinates": [
                    2.62691000000,
                    43.22352000000
                ]
            }
        },
        {
            "type": "Feature",
            "properties": {
                "id": "3027",
                "name": "Cahors",
                "icon": "56"
            },
            "geometry": {
                "type": "Point",
                "coordinates": [
                    1.43814000000,
                    44.44478000000
                ]
            }
        },
        {
            "type": "Feature",
            "properties": {
                "icon": "85",
                "id": "814",
                "name": "Lourdes"
            },
            "geometry": {
                "type": "Point",
                "coordinates": [
                    -0.04321000000,
                    43.09196000000
                ]
            }
        },
        {
            "type": "Feature",
            "properties": {
                "name": "Sauveterre-de-Comminges",
                "icon": "41",
                "id": "732"
            },
            "geometry": {
                "type": "Point",
                "coordinates": [
                    0.67985000000,
                    43.05422000000
                ]
            }
        },
        {
            "type": "Feature",
            "properties": {
                "id": "11674",
                "icon": "85",
                "name": "Argelès-Gazost"
            },
            "geometry": {
                "type": "Point",
                "coordinates": [
                    -0.09772000000,
                    43.00567000000
                ]
            }
        },
        {
            "type": "Feature",
            "properties": {
                "name": "Aynac",
                "id": "13452",
                "icon": "56"
            },
            "geometry": {
                "type": "Point",
                "coordinates": [
                    1.85261000000,
                    44.78286000000
                ]
            }
        },
        {
            "type": "Feature",
            "properties": {
                "id": "14454",
                "icon": "101",
                "name": "Aiguefonde"
            },
            "geometry": {
                "type": "Point",
                "coordinates": [
                    2.31543000000,
                    43.51635000000
                ]
            }
        },
        {
            "type": "Feature",
            "properties": {
                "name": "Aguts",
                "id": "14397",
                "icon": "101"
            },
            "geometry": {
                "type": "Point",
                "coordinates": [
                    1.91869000000,
                    43.53018000000
                ]
            }
        },
        {
            "type": "Feature",
            "properties": {
                "icon": "41",
                "id": "15129",
                "name": "Ayguesvives"
            },
            "geometry": {
                "type": "Point",
                "coordinates": [
                    1.59611000000,
                    43.43745000000
                ]
            }
        },
        {
            "type": "Feature",
            "properties": {
                "name": "Rudelle",
                "id": "17789",
                "icon": "56"
            },
            "geometry": {
                "type": "Point",
                "coordinates": [
                    1.88054000000,
                    44.72194000000
                ]
            }
        },
        {
            "type": "Feature",
            "properties": {
                "icon": "41",
                "id": "15580",
                "name": "Belberaud"
            },
            "geometry": {
                "type": "Point",
                "coordinates": [
                    1.56622000000,
                    43.50633000000
                ]
            }
        },
        {
            "type": "Feature",
            "properties": {
                "name": "Souillac",
                "icon": "56",
                "id": "15397"
            },
            "geometry": {
                "type": "Point",
                "coordinates": [
                    1.47779000000,
                    44.89312000000
                ]
            }
        },
        {
            "type": "Feature",
            "properties": {
                "id": "14423",
                "icon": "19",
                "name": "La Bastide-de-Lordat"
            },
            "geometry": {
                "type": "Point",
                "coordinates": [
                    1.71223000000,
                    43.14396000000
                ]
            }
        },
        {
            "type": "Feature",
            "properties": {
                "icon": "85",
                "name": "Arrens-Marsous",
                "id": "222"
            },
            "geometry": {
                "type": "Point",
                "coordinates": [
                    -0.20160000000,
                    42.96499000000
                ]
            }
        },
        {
            "type": "Feature",
            "properties": {
                "icon": "40",
                "name": "Alès",
                "id": "5003"
            },
            "geometry": {
                "type": "Point",
                "coordinates": [
                    4.07841000000,
                    44.12258000000
                ]
            }
        },
        {
            "type": "Feature",
            "properties": {
                "icon": "85",
                "id": "13135",
                "name": "Aureilhan"
            },
            "geometry": {
                "type": "Point",
                "coordinates": [
                    0.08861000000,
                    43.24339000000
                ]
            }
        },
        {
            "type": "Feature",
            "properties": {
                "name": "Muret",
                "id": "6426",
                "icon": "41"
            },
            "geometry": {
                "type": "Point",
                "coordinates": [
                    1.30929000000,
                    43.41182000000
                ]
            }
        },
        {
            "type": "Feature",
            "properties": {
                "id": "2522",
                "icon": "40",
                "name": "Gallargues-le-Montueux"
            },
            "geometry": {
                "type": "Point",
                "coordinates": [
                    4.17444000000,
                    43.72162000000
                ]
            }
        },
        {
            "type": "Feature",
            "properties": {
                "icon": "41",
                "id": "625",
                "name": "Toulouse"
            },
            "geometry": {
                "type": "Point",
                "coordinates": [
                    1.43235000000,
                    43.61068000000
                ]
            }
        },
        {
            "type": "Feature",
            "properties": {
                "name": "Cournonterral",
                "id": "1737",
                "icon": "44"
            },
            "geometry": {
                "type": "Point",
                "coordinates": [
                    3.71715000000,
                    43.55551000000
                ]
            }
        },
        {
            "type": "Feature",
            "properties": {
                "icon": "41",
                "id": "597",
                "name": "Toulouse"
            },
            "geometry": {
                "type": "Point",
                "coordinates": [
                    1.42880000000,
                    43.58455000000
                ]
            }
        },
        {
            "type": "Feature",
            "properties": {
                "name": "Pradines",
                "id": "3463",
                "icon": "56"
            },
            "geometry": {
                "type": "Point",
                "coordinates": [
                    1.37866000000,
                    44.47385000000
                ]
            }
        },
        {
            "type": "Feature",
            "properties": {
                "icon": "85",
                "name": "Esparros",
                "id": "820"
            },
            "geometry": {
                "type": "Point",
                "coordinates": [
                    0.31999000000,
                    43.03177000000
                ]
            }
        },
        {
            "type": "Feature",
            "properties": {
                "icon": "41",
                "name": "Juzet-d'Izaut",
                "id": "565"
            },
            "geometry": {
                "type": "Point",
                "coordinates": [
                    0.75728000000,
                    42.97794000000
                ]
            }
        },
        {
            "type": "Feature",
            "properties": {
                "icon": "85",
                "id": "295",
                "name": "Bagnères-de-Bigorre"
            },
            "geometry": {
                "type": "Point",
                "coordinates": [
                    0.14648000000,
                    43.06502000000
                ]
            }
        },
        {
            "type": "Feature",
            "properties": {
                "icon": "41",
                "id": "726",
                "name": "Encausse-les-Thermes"
            },
            "geometry": {
                "type": "Point",
                "coordinates": [
                    0.74176000000,
                    43.04915000000
                ]
            }
        },
        {
            "type": "Feature",
            "properties": {
                "icon": "40",
                "id": "11563",
                "name": "Nîmes"
            },
            "geometry": {
                "type": "Point",
                "coordinates": [
                    4.35818000000,
                    43.85903000000
                ]
            }
        },
        {
            "type": "Feature",
            "properties": {
                "name": "Reyrevignes",
                "icon": "56",
                "id": "13472"
            },
            "geometry": {
                "type": "Point",
                "coordinates": [
                    1.91644000000,
                    44.65440000000
                ]
            }
        },
        {
            "type": "Feature",
            "properties": {
                "name": "Couffouleux",
                "icon": "101",
                "id": "127"
            },
            "geometry": {
                "type": "Point",
                "coordinates": [
                    1.72847000000,
                    43.81860000000
                ]
            }
        },
        {
            "type": "Feature",
            "properties": {
                "name": "Almayrac",
                "id": "14411",
                "icon": "101"
            },
            "geometry": {
                "type": "Point",
                "coordinates": [
                    2.16384000000,
                    44.10112000000
                ]
            }
        },
        {
            "type": "Feature",
            "properties": {
                "name": "Estaing",
                "id": "2372",
                "icon": "22"
            },
            "geometry": {
                "type": "Point",
                "coordinates": [
                    2.67250000000,
                    44.55416000000
                ]
            }
        },
        {
            "type": "Feature",
            "properties": {
                "name": "Saint-Paul-d'Espis",
                "icon": "102",
                "id": "14261"
            },
            "geometry": {
                "type": "Point",
                "coordinates": [
                    0.96827000000,
                    44.14389000000
                ]
            }
        },
        {
            "type": "Feature",
            "properties": {
                "name": "Belvis",
                "icon": "21",
                "id": "15631"
            },
            "geometry": {
                "type": "Point",
                "coordinates": [
                    2.07592000000,
                    42.85008000000
                ]
            }
        },
        {
            "type": "Feature",
            "properties": {
                "icon": "41",
                "id": "589",
                "name": "Toulouse"
            },
            "geometry": {
                "type": "Point",
                "coordinates": [
                    1.45640000000,
                    43.61072000000
                ]
            }
        },
        {
            "type": "Feature",
            "properties": {
                "id": "13982",
                "icon": "101",
                "name": "Lisle-sur-Tarn"
            },
            "geometry": {
                "type": "Point",
                "coordinates": [
                    1.80800000000,
                    43.85421000000
                ]
            }
        },
        {
            "type": "Feature",
            "properties": {
                "name": "Lacourt-Saint-Pierre",
                "id": "15433",
                "icon": "102"
            },
            "geometry": {
                "type": "Point",
                "coordinates": [
                    1.26312000000,
                    43.98560000000
                ]
            }
        },
        {
            "type": "Feature",
            "properties": {
                "id": "9780",
                "icon": "41",
                "name": "Aurignac"
            },
            "geometry": {
                "type": "Point",
                "coordinates": [
                    0.87926000000,
                    43.21986000000
                ]
            }
        },
        {
            "type": "Feature",
            "properties": {
                "icon": "86",
                "name": "Perpignan",
                "id": "539"
            },
            "geometry": {
                "type": "Point",
                "coordinates": [
                    2.89132000000,
                    42.70731000000
                ]
            }
        },
        {
            "type": "Feature",
            "properties": {
                "icon": "40",
                "id": "15336",
                "name": "Barjac"
            },
            "geometry": {
                "type": "Point",
                "coordinates": [
                    4.34599000000,
                    44.30779000000
                ]
            }
        },
        {
            "type": "Feature",
            "properties": {
                "icon": "40",
                "name": "Rochefort-du-Gard",
                "id": "7861"
            },
            "geometry": {
                "type": "Point",
                "coordinates": [
                    4.68507000000,
                    43.97959000000
                ]
            }
        },
        {
            "type": "Feature",
            "properties": {
                "icon": "41",
                "id": "670",
                "name": "Labège"
            },
            "geometry": {
                "type": "Point",
                "coordinates": [
                    1.52546000000,
                    43.53069000000
                ]
            }
        },
        {
            "type": "Feature",
            "properties": {
                "name": "Saubens",
                "icon": "41",
                "id": "11387"
            },
            "geometry": {
                "type": "Point",
                "coordinates": [
                    1.35055000000,
                    43.48033000000
                ]
            }
        },
        {
            "type": "Feature",
            "properties": {
                "icon": "85",
                "id": "13137",
                "name": "Séméac"
            },
            "geometry": {
                "type": "Point",
                "coordinates": [
                    0.10407000000,
                    43.22668000000
                ]
            }
        },
        {
            "type": "Feature",
            "properties": {
                "name": "Montech",
                "id": "14259",
                "icon": "102"
            },
            "geometry": {
                "type": "Point",
                "coordinates": [
                    1.23601000000,
                    43.96081000000
                ]
            }
        },
        {
            "type": "Feature",
            "properties": {
                "icon": "40",
                "id": "2528",
                "name": "Calvisson"
            },
            "geometry": {
                "type": "Point",
                "coordinates": [
                    4.19450000000,
                    43.78546000000
                ]
            }
        },
        {
            "type": "Feature",
            "properties": {
                "name": "Taix",
                "id": "123",
                "icon": "101"
            },
            "geometry": {
                "type": "Point",
                "coordinates": [
                    2.12173000000,
                    44.00763000000
                ]
            }
        },
        {
            "type": "Feature",
            "properties": {
                "name": "Algans",
                "id": "13936",
                "icon": "101"
            },
            "geometry": {
                "type": "Point",
                "coordinates": [
                    1.89347000000,
                    43.59744000000
                ]
            }
        },
        {
            "type": "Feature",
            "properties": {
                "id": "1747",
                "name": "Montpellier",
                "icon": "44"
            },
            "geometry": {
                "type": "Point",
                "coordinates": [
                    3.87610000000,
                    43.60958000000
                ]
            }
        },
        {
            "type": "Feature",
            "properties": {
                "icon": "41",
                "name": "Beaumont-sur-Lèze",
                "id": "379"
            },
            "geometry": {
                "type": "Point",
                "coordinates": [
                    1.35841000000,
                    43.38232000000
                ]
            }
        },
        {
            "type": "Feature",
            "properties": {
                "icon": "85",
                "id": "818",
                "name": "Campan"
            },
            "geometry": {
                "type": "Point",
                "coordinates": [
                    0.17680000000,
                    43.01728000000
                ]
            }
        },
        {
            "type": "Feature",
            "properties": {
                "id": "561",
                "icon": "19",
                "name": "Pamiers"
            },
            "geometry": {
                "type": "Point",
                "coordinates": [
                    1.60770000000,
                    43.11351000000
                ]
            }
        },
        {
            "type": "Feature",
            "properties": {
                "name": "Lavercantière",
                "id": "3537",
                "icon": "56"
            },
            "geometry": {
                "type": "Point",
                "coordinates": [
                    1.31937000000,
                    44.63788000000
                ]
            }
        },
        {
            "type": "Feature",
            "properties": {
                "icon": "41",
                "id": "312",
                "name": "Barbazan"
            },
            "geometry": {
                "type": "Point",
                "coordinates": [
                    0.62158000000,
                    43.03309000000
                ]
            }
        },
        {
            "type": "Feature",
            "properties": {
                "icon": "19",
                "name": "Vira",
                "id": "13718"
            },
            "geometry": {
                "type": "Point",
                "coordinates": [
                    1.75863000000,
                    43.05180000000
                ]
            }
        },
        {
            "type": "Feature",
            "properties": {
                "icon": "41",
                "id": "660",
                "name": "Roques"
            },
            "geometry": {
                "type": "Point",
                "coordinates": [
                    1.38275000000,
                    43.51351000000
                ]
            }
        },
        {
            "type": "Feature",
            "properties": {
                "name": "Olemps",
                "id": "2381",
                "icon": "22"
            },
            "geometry": {
                "type": "Point",
                "coordinates": [
                    2.55362000000,
                    44.34116000000
                ]
            }
        },
        {
            "type": "Feature",
            "properties": {
                "name": "Bagnac-sur-Célé",
                "id": "15238",
                "icon": "56"
            },
            "geometry": {
                "type": "Point",
                "coordinates": [
                    2.15623000000,
                    44.66513000000
                ]
            }
        },
        {
            "type": "Feature",
            "properties": {
                "name": "Le Crès",
                "id": "2506",
                "icon": "44"
            },
            "geometry": {
                "type": "Point",
                "coordinates": [
                    3.93619000000,
                    43.66401000000
                ]
            }
        },
        {
            "type": "Feature",
            "properties": {
                "id": "591",
                "icon": "41",
                "name": "Toulouse"
            },
            "geometry": {
                "type": "Point",
                "coordinates": [
                    1.45752000000,
                    43.54970000000
                ]
            }
        },
        {
            "type": "Feature",
            "properties": {
                "id": "480",
                "icon": "44",
                "name": "Béziers"
            },
            "geometry": {
                "type": "Point",
                "coordinates": [
                    3.22744000000,
                    43.35197000000
                ]
            }
        },
        {
            "type": "Feature",
            "properties": {
                "id": "16383",
                "icon": "85",
                "name": "Génos"
            },
            "geometry": {
                "type": "Point",
                "coordinates": [
                    0.40186000000,
                    42.80895000000
                ]
            }
        },
        {
            "type": "Feature",
            "properties": {
                "id": "3029",
                "name": "Pradines",
                "icon": "56"
            },
            "geometry": {
                "type": "Point",
                "coordinates": [
                    1.41211000000,
                    44.47000000000
                ]
            }
        },
        {
            "type": "Feature",
            "properties": {
                "name": "Arzenc-de-Randon",
                "id": "14789",
                "icon": "58"
            },
            "geometry": {
                "type": "Point",
                "coordinates": [
                    3.63147000000,
                    44.66178000000
                ]
            }
        },
        {
            "type": "Feature",
            "properties": {
                "icon": "41",
                "name": "Pibrac",
                "id": "15442"
            },
            "geometry": {
                "type": "Point",
                "coordinates": [
                    1.27966000000,
                    43.61812000000
                ]
            }
        },
        {
            "type": "Feature",
            "properties": {
                "id": "14458",
                "icon": "101",
                "name": "Aiguefonde"
            },
            "geometry": {
                "type": "Point",
                "coordinates": [
                    2.34298000000,
                    43.50478000000
                ]
            }
        },
        {
            "type": "Feature",
            "properties": {
                "name": "Biars-sur-Cère",
                "id": "15361",
                "icon": "56"
            },
            "geometry": {
                "type": "Point",
                "coordinates": [
                    1.85216000000,
                    44.92610000000
                ]
            }
        },
        {
            "type": "Feature",
            "properties": {
                "icon": "101",
                "name": "Vieux (81)",
                "id": "119"
            },
            "geometry": {
                "type": "Point",
                "coordinates": [
                    1.87331000000,
                    43.99341000000
                ]
            }
        },
        {
            "type": "Feature",
            "properties": {
                "icon": "86",
                "name": "Perpignan",
                "id": "11383"
            },
            "geometry": {
                "type": "Point",
                "coordinates": [
                    2.93428000000,
                    42.69821000000
                ]
            }
        },
        {
            "type": "Feature",
            "properties": {
                "id": "17290",
                "name": "Saint-Simon",
                "icon": "56"
            },
            "geometry": {
                "type": "Point",
                "coordinates": [
                    1.85098000000,
                    44.69589000000
                ]
            }
        },
        {
            "type": "Feature",
            "properties": {
                "name": "Ancizan",
                "icon": "85",
                "id": "14500"
            },
            "geometry": {
                "type": "Point",
                "coordinates": [
                    0.33963000000,
                    42.87213000000
                ]
            }
        },
        {
            "type": "Feature",
            "properties": {
                "icon": "41",
                "id": "640",
                "name": "Toulouse"
            },
            "geometry": {
                "type": "Point",
                "coordinates": [
                    1.42003000000,
                    43.61316000000
                ]
            }
        },
        {
            "type": "Feature",
            "properties": {
                "name": "Cugnaux",
                "icon": "41",
                "id": "15525"
            },
            "geometry": {
                "type": "Point",
                "coordinates": [
                    1.33785000000,
                    43.53854000000
                ]
            }
        },
        {
            "type": "Feature",
            "properties": {
                "icon": "41",
                "id": "603",
                "name": "Toulouse"
            },
            "geometry": {
                "type": "Point",
                "coordinates": [
                    1.44919000000,
                    43.58067000000
                ]
            }
        },
        {
            "type": "Feature",
            "properties": {
                "name": "Saix",
                "id": "13956",
                "icon": "101"
            },
            "geometry": {
                "type": "Point",
                "coordinates": [
                    2.14210000000,
                    43.58322000000
                ]
            }
        },
        {
            "type": "Feature",
            "properties": {
                "icon": "86",
                "id": "15417",
                "name": "Bompas"
            },
            "geometry": {
                "type": "Point",
                "coordinates": [
                    2.93063000000,
                    42.73213000000
                ]
            }
        },
        {
            "type": "Feature",
            "properties": {
                "name": "Espédaillac",
                "id": "13475",
                "icon": "56"
            },
            "geometry": {
                "type": "Point",
                "coordinates": [
                    1.77288000000,
                    44.63572000000
                ]
            }
        },
        {
            "type": "Feature",
            "properties": {
                "icon": "85",
                "name": "Avezac-Prat-Lahitte",
                "id": "278"
            },
            "geometry": {
                "type": "Point",
                "coordinates": [
                    0.33764000000,
                    43.06652000000
                ]
            }
        },
        {
            "type": "Feature",
            "properties": {
                "icon": "40",
                "id": "11636",
                "name": "Villevieille"
            },
            "geometry": {
                "type": "Point",
                "coordinates": [
                    4.09590000000,
                    43.79407000000
                ]
            }
        },
        {
            "type": "Feature",
            "properties": {
                "icon": "21",
                "name": "Trèbes",
                "id": "13244"
            },
            "geometry": {
                "type": "Point",
                "coordinates": [
                    2.42434000000,
                    43.20616000000
                ]
            }
        },
        {
            "type": "Feature",
            "properties": {
                "icon": "40",
                "id": "13418",
                "name": "Mialet"
            },
            "geometry": {
                "type": "Point",
                "coordinates": [
                    3.94190000000,
                    44.11154000000
                ]
            }
        },
        {
            "type": "Feature",
            "properties": {
                "id": "629",
                "icon": "41",
                "name": "Toulouse"
            },
            "geometry": {
                "type": "Point",
                "coordinates": [
                    1.45906000000,
                    43.59665000000
                ]
            }
        },
        {
            "type": "Feature",
            "properties": {
                "name": "Gaillac",
                "id": "13993",
                "icon": "101"
            },
            "geometry": {
                "type": "Point",
                "coordinates": [
                    1.89700000000,
                    43.90416000000
                ]
            }
        },
        {
            "type": "Feature",
            "properties": {
                "icon": "21",
                "name": "Peyriac-de-Mer",
                "id": "541"
            },
            "geometry": {
                "type": "Point",
                "coordinates": [
                    2.95970000000,
                    43.08690000000
                ]
            }
        },
        {
            "type": "Feature",
            "properties": {
                "id": "2512",
                "name": "Jacou",
                "icon": "44"
            },
            "geometry": {
                "type": "Point",
                "coordinates": [
                    3.91241000000,
                    43.65478000000
                ]
            }
        },
        {
            "type": "Feature",
            "properties": {
                "id": "115",
                "name": "Castelnau-de-Lévis",
                "icon": "101"
            },
            "geometry": {
                "type": "Point",
                "coordinates": [
                    2.08361000000,
                    43.93813000000
                ]
            }
        },
        {
            "type": "Feature",
            "properties": {
                "icon": "41",
                "id": "585",
                "name": "Toulouse"
            },
            "geometry": {
                "type": "Point",
                "coordinates": [
                    1.47735000000,
                    43.61217000000
                ]
            }
        },
        {
            "type": "Feature",
            "properties": {
                "id": "476",
                "icon": "44",
                "name": "Béziers"
            },
            "geometry": {
                "type": "Point",
                "coordinates": [
                    3.25788000000,
                    43.34002000000
                ]
            }
        },
        {
            "type": "Feature",
            "properties": {
                "icon": "41",
                "name": "Ausson",
                "id": "16623"
            },
            "geometry": {
                "type": "Point",
                "coordinates": [
                    0.59406000000,
                    43.08355000000
                ]
            }
        },
        {
            "type": "Feature",
            "properties": {
                "icon": "41",
                "id": "599",
                "name": "Toulouse"
            },
            "geometry": {
                "type": "Point",
                "coordinates": [
                    1.49061000000,
                    43.59811000000
                ]
            }
        },
        {
            "type": "Feature",
            "properties": {
                "name": "Gourdon",
                "id": "3037",
                "icon": "56"
            },
            "geometry": {
                "type": "Point",
                "coordinates": [
                    1.38473000000,
                    44.73744000000
                ]
            }
        },
        {
            "type": "Feature",
            "properties": {
                "icon": "85",
                "id": "794",
                "name": "Odos"
            },
            "geometry": {
                "type": "Point",
                "coordinates": [
                    0.05881000000,
                    43.19713000000
                ]
            }
        },
        {
            "type": "Feature",
            "properties": {
                "id": "13687",
                "icon": "19",
                "name": "Tourtrol"
            },
            "geometry": {
                "type": "Point",
                "coordinates": [
                    1.79856000000,
                    43.06874000000
                ]
            }
        },
        {
            "type": "Feature",
            "properties": {
                "id": "15370",
                "icon": "41",
                "name": "Castanet-Tolosan"
            },
            "geometry": {
                "type": "Point",
                "coordinates": [
                    1.50842000000,
                    43.52196000000
                ]
            }
        },
        {
            "type": "Feature",
            "properties": {
                "id": "13449",
                "name": "Brengues",
                "icon": "56"
            },
            "geometry": {
                "type": "Point",
                "coordinates": [
                    1.83307000000,
                    44.57640000000
                ]
            }
        },
        {
            "type": "Feature",
            "properties": {
                "icon": "101",
                "name": "Aiguefonde",
                "id": "14451"
            },
            "geometry": {
                "type": "Point",
                "coordinates": [
                    2.34525000000,
                    43.50927000000
                ]
            }
        },
        {
            "type": "Feature",
            "properties": {
                "icon": "41",
                "name": "Savères",
                "id": "652"
            },
            "geometry": {
                "type": "Point",
                "coordinates": [
                    1.10509000000,
                    43.37031000000
                ]
            }
        },
        {
            "type": "Feature",
            "properties": {
                "id": "17740",
                "icon": "56",
                "name": "Lanzac"
            },
            "geometry": {
                "type": "Point",
                "coordinates": [
                    1.48243000000,
                    44.87391000000
                ]
            }
        },
        {
            "type": "Feature",
            "properties": {
                "icon": "41",
                "id": "619",
                "name": "Toulouse"
            },
            "geometry": {
                "type": "Point",
                "coordinates": [
                    1.40283000000,
                    43.57106000000
                ]
            }
        },
        {
            "type": "Feature",
            "properties": {
                "name": "Marminiac",
                "id": "14056",
                "icon": "56"
            },
            "geometry": {
                "type": "Point",
                "coordinates": [
                    1.19326000000,
                    44.66601000000
                ]
            }
        },
        {
            "type": "Feature",
            "properties": {
                "name": "Cugnaux",
                "icon": "41",
                "id": "16014"
            },
            "geometry": {
                "type": "Point",
                "coordinates": [
                    1.34831000000,
                    43.54241000000
                ]
            }
        },
        {
            "type": "Feature",
            "properties": {
                "icon": "19",
                "id": "15426",
                "name": "Taurignan-Vieux"
            },
            "geometry": {
                "type": "Point",
                "coordinates": [
                    1.11560000000,
                    43.02381000000
                ]
            }
        },
        {
            "type": "Feature",
            "properties": {
                "id": "12235",
                "icon": "102",
                "name": "Castelmayran"
            },
            "geometry": {
                "type": "Point",
                "coordinates": [
                    1.04076000000,
                    44.02815000000
                ]
            }
        },
        {
            "type": "Feature",
            "properties": {
                "name": "Bouloc",
                "icon": "41",
                "id": "6424"
            },
            "geometry": {
                "type": "Point",
                "coordinates": [
                    1.40577000000,
                    43.77991000000
                ]
            }
        },
        {
            "type": "Feature",
            "properties": {
                "icon": "40",
                "id": "2526",
                "name": "Congenies"
            },
            "geometry": {
                "type": "Point",
                "coordinates": [
                    4.15871000000,
                    43.77773000000
                ]
            }
        },
        {
            "type": "Feature",
            "properties": {
                "icon": "41",
                "id": "631",
                "name": "Toulouse"
            },
            "geometry": {
                "type": "Point",
                "coordinates": [
                    1.41069000000,
                    43.56494000000
                ]
            }
        },
        {
            "type": "Feature",
            "properties": {
                "id": "1741",
                "name": "Palavas-les-Flots",
                "icon": "44"
            },
            "geometry": {
                "type": "Point",
                "coordinates": [
                    3.93192000000,
                    43.53371000000
                ]
            }
        },
        {
            "type": "Feature",
            "properties": {
                "id": "7968",
                "icon": "41",
                "name": "Roquettes"
            },
            "geometry": {
                "type": "Point",
                "coordinates": [
                    1.36575000000,
                    43.49915000000
                ]
            }
        },
        {
            "type": "Feature",
            "properties": {
                "icon": "41",
                "id": "13649",
                "name": "L'Isle-en-Dodon"
            },
            "geometry": {
                "type": "Point",
                "coordinates": [
                    0.83737000000,
                    43.38029000000
                ]
            }
        },
        {
            "type": "Feature",
            "properties": {
                "name": "Parnac (46)",
                "id": "3461",
                "icon": "56"
            },
            "geometry": {
                "type": "Point",
                "coordinates": [
                    1.31640000000,
                    44.48866000000
                ]
            }
        },
        {
            "type": "Feature",
            "properties": {
                "id": "826",
                "icon": "41",
                "name": "Villaudric"
            },
            "geometry": {
                "type": "Point",
                "coordinates": [
                    1.43226000000,
                    43.83084000000
                ]
            }
        },
        {
            "type": "Feature",
            "properties": {
                "icon": "19",
                "id": "555",
                "name": "Ségura"
            },