<?xml version='1.0' encoding='UTF-8'?>
<gpx version="1.1" creator="JOSM GPX export" xmlns="http://www.topografix.com/GPX/1/1"
    xmlns:xsi="http://www.w3.org/2001/XMLSchema-instance"
    xsi:schemaLocation="http://www.topografix.com/GPX/1/1 http://www.topografix.com/GPX/1/1/gpx.xsd">
  <metadata>
    <bounds minlat="47.574022" minlon="3.4971195" maxlat="50.0860362" maxlon="8.1786011"/>
  </metadata>
  <wpt lat="49.254546" lon="5.8295959">
    <name>Chemin du moulin</name>
    <cmt>Amenity::entertainment:public_bookcase</cmt>
    <desc>Dans un arrêt de bus sur la route principale</desc>
    <type>Boite à livre</type>
  </wpt>
  <wpt lat="49.2456616" lon="5.8214975">
    <name>Rue de Verdun</name>
    <cmt>Amenity::entertainment:public_bookcase</cmt>
    <desc>Cabine téléphonique devant ancienne maison commune</desc>
    <type>Boite à livre</type>
  </wpt>
  <wpt lat="49.209869" lon="5.935614">
    <name>Place de la mairie</name>
    <cmt>Amenity::entertainment:public_bookcase</cmt>
    <type>Boite à livre</type>
  </wpt>
  <wpt lat="49.225133" lon="5.966848">
    <name>Rue de la clairière</name>
    <cmt>Amenity::entertainment:public_bookcase</cmt>
    <desc>Près d une aire de jeux</desc>
    <type>Boite à livre</type>
  </wpt>
  <wpt lat="49.236185" lon="5.959442">
    <name>Rue foch</name>
    <cmt>Amenity::entertainment:public_bookcase</cmt>
    <desc>Près du périscolaire</desc>
    <type>Boite à livre</type>
  </wpt>
  <wpt lat="49.2356739" lon="5.9740889">
    <name>Square Bagno Di Romagna</name>
    <cmt>Amenity::entertainment:public_bookcase</cmt>
    <desc>Proche d une aire de jeux et d&apos;un arrêt de bus</desc>
    <type>Boite à livre</type>
  </wpt>
  <wpt lat="48.8868225" lon="6.3920818">
    <name>Place de la République</name>
    <cmt>Amenity::entertainment:public_bookcase</cmt>
    <type>Boite à livre</type>
  </wpt>
  <wpt lat="49.215886" lon="6.116957">
    <name>Rue de l Abani</name>
    <cmt>Amenity::entertainment:public_bookcase</cmt>
    <desc>A côté du local polyvalent La RucheFrigo à livres</desc>
    <type>Boite à livre</type>
  </wpt>
  <wpt lat="48.7088492" lon="6.2554851">
    <name>Avenue du gremillon</name>
    <cmt>Amenity::entertainment:public_bookcase</cmt>
    <desc>La boîte à lire se situe au bord du plan d eau, vers les jeux pour enfants, superbe endroit !</desc>
    <type>Boite à livre</type>
  </wpt>
  <wpt lat="48.57907731187229" lon="7.754502296447755">
    <name>Place des orphelins</name>
    <cmt>Amenity::entertainment:public_bookcase</cmt>
    <desc>À côté parc jeux enfants. Côté rue Sainte Madeleine</desc>
    <type>Boite à livre</type>
  </wpt>
  <wpt lat="49.20515" lon="5.944989">
    <name>Avenue de la République</name>
    <cmt>Amenity::entertainment:public_bookcase</cmt>
    <desc>Près d un parking et d&apos;une petite place de pétanque</desc>
    <type>Boite à livre</type>
  </wpt>
  <wpt lat="48.55804" lon="7.5333248">
    <name>2 rue du Viehweg</name>
    <cmt>Amenity::entertainment:public_bookcase</cmt>
    <desc>Angle des rues du Viehweg et d Altorf</desc>
    <type>Boite à livre</type>
  </wpt>
  <wpt lat="48.460432" lon="7.431096">
    <name>Place des Tilleuls</name>
    <cmt>Amenity::entertainment:public_bookcase</cmt>
    <type>Boite à livre</type>
  </wpt>
  <wpt lat="48.643622" lon="6.209153">
    <name>Rond point d Armsheim</name>
    <cmt>Amenity::entertainment:public_bookcase</cmt>
    <desc>À côté de l arrêt de bus, près de la maison de associations,Très belle construction, bravo !</desc>
    <type>Boite à livre</type>
  </wpt>
  <wpt lat="48.6254513" lon="6.2051693">
    <name>18 rue du chateau</name>
    <cmt>Amenity::entertainment:public_bookcase</cmt>
    <desc>Boite à livres installée dans une ancienne cabine téléphonique, très chouette !</desc>
    <type>Boite à livre</type>
  </wpt>
  <wpt lat="48.457443" lon="7.42462">
    <name>46 rue principale</name>
    <cmt>Amenity::entertainment:public_bookcase</cmt>
    <desc>2ème boîte à lire sur OTTROTTsitué à l&apos;office du tourisme</desc>
    <type>Boite à livre</type>
  </wpt>
  <wpt lat="48.8891445" lon="6.2270447">
    <name>quai Emile Benoit</name>
    <cmt>Amenity::entertainment:public_bookcase</cmt>
    <desc>Sur le parking en face du bureau de tabac, deux cabines téléphoniques réhabilitées en boîtes à livres</desc>
    <type>Boite à livre</type>
  </wpt>
  <wpt lat="48.4975075" lon="3.5098348">
    <name>Avenue St Roch</name>
    <cmt>Amenity::entertainment:public_bookcase</cmt>
    <desc>A l&apos;intérieur de l&apos;Agora</desc>
    <type>Boite à livre</type>
  </wpt>
  <wpt lat="48.5694964" lon="7.2855575">
    <name>98 rue du Nideck</name>
    <cmt>Amenity::entertainment:public_bookcase</cmt>
    <desc>Sur le parking de l?auberge cascade du Nideck</desc>
    <type>Boite à livre</type>
  </wpt>
  <wpt lat="49.10984" lon="7.0706194">
    <name>2 rue du maire massing</name>
    <cmt>Amenity::entertainment:public_bookcase</cmt>
    <desc>Fixée au mur de la mairie juste à côté de la porte d entrée</desc>
    <type>Boite à livre</type>
  </wpt>
  <wpt lat="49.1170455" lon="7.0935597">
    <name>Cora sarreguemines 50 rue de bitche</name>
    <cmt>Amenity::entertainment:public_bookcase</cmt>
    <desc>La boîte à livres est situé devant les caisses près de la presse</desc>
    <type>Boite à livre</type>
  </wpt>
  <wpt lat="49.283096" lon="5.8975715">
    <name>Rue Maréchal Joffre</name>
    <cmt>Amenity::entertainment:public_bookcase</cmt>
    <desc>À côté de la salle des fêtes, sous les arbres. Petit kiosque très chaleureux</desc>
    <type>Boite à livre</type>
  </wpt>
  <wpt lat="48.5582111" lon="7.643046">
    <name>Place du Lieutenant LESPAGNOL</name>
    <cmt>Amenity::entertainment:public_bookcase</cmt>
    <type>Boite à livre</type>
  </wpt>
  <wpt lat="48.679339" lon="7.657217">
    <name>Arrêt de bus près de la boulangerie</name>
    <cmt>Amenity::entertainment:public_bookcase</cmt>
    <type>Boite à livre</type>
  </wpt>
  <wpt lat="48.82781" lon="3.7996062">
    <name>1 rue des marais de saint-Gond</name>
    <cmt>Amenity::entertainment:public_bookcase</cmt>
    <type>Boite à livre</type>
  </wpt>
  <wpt lat="48.6152673" lon="6.121628">
    <name>rue Gaston Deferre</name>
    <cmt>Amenity::entertainment:public_bookcase</cmt>
    <desc>Au sein du quartier de Cumène, à côté de l&apos;aire de jeux pour enfants</desc>
    <type>Boite à livre</type>
  </wpt>
  <wpt lat="48.5725933" lon="7.4687247">
    <name>46 route du vin</name>
    <cmt>Amenity::entertainment:public_bookcase</cmt>
    <desc>Petite boîte à livre située juste à côté de la boulangerie</desc>
    <type>Boite à livre</type>
  </wpt>
  <wpt lat="48.5174821" lon="7.705198">
    <name>Parc Friedel - Rue Girlenhirsch</name>
    <cmt>Amenity::entertainment:public_bookcase</cmt>
    <type>Boite à livre</type>
  </wpt>
  <wpt lat="48.8113788" lon="7.7870293">
    <name>Maison des services</name>
    <cmt>Amenity::entertainment:public_bookcase</cmt>
    <type>Boite à livre</type>
  </wpt>
  <wpt lat="48.3483682" lon="7.1057211">
    <name>Maison des services Grand Rue</name>
    <cmt>Amenity::entertainment:public_bookcase</cmt>
    <desc>Elle se trouve dans la maison des services.</desc>
    <type>Boite à livre</type>
  </wpt>
  <wpt lat="48.5456463" lon="5.1124413">
    <name>Rue de la Brunette</name>
    <cmt>Amenity::entertainment:public_bookcase</cmt>
    <desc>Placé juste à coté d&apos;une aire de jeux</desc>
    <type>Boite à livre</type>
  </wpt>
  <wpt lat="48.32076851623764" lon="4.068058133125306">
    <name>54 avenue aristide briant</name>
    <cmt>Amenity::entertainment:public_bookcase</cmt>
    <desc>Dans le parc des étangs de fouchy, à côté de l&apos;entrée du pavillon exotique.</desc>
    <type>Boite à livre</type>
  </wpt>
  <wpt lat="49.1831428" lon="6.2803705">
    <name>Rue de l&apos;école</name>
    <cmt>Amenity::entertainment:public_bookcase</cmt>
    <desc>Cette boite à livre ce trouve sous le préau devant l&apos;école de Sanry-lès-Vigy rue de l&apos;école. Elle a été réalisé par le Foyer Rural Sanry-Méchy et l&apos;école de la commune.</desc>
    <type>Boite à livre</type>
  </wpt>
  <wpt lat="49.1883433" lon="6.2644373">
    <name>Rue de la Fontaine</name>
    <cmt>Amenity::entertainment:public_bookcase</cmt>
    <desc>Cette boite à livre ce trouve dans l&apos;abri bus de Méchy rue de la fontaine. Elle a été réalisé par le Foyer Rural Sanry-Méchy et le périscolaire de la commune.</desc>
    <type>Boite à livre</type>
  </wpt>
  <wpt lat="47.6063212" lon="7.5733313">
    <name>128, rue du Gal de Gaulle</name>
    <cmt>Amenity::entertainment:public_bookcase</cmt>
    <desc>C&apos;est un petit réfrigérateur qui connait une deuxième vie comme boîte à livre.</desc>
    <type>Boite à livre</type>
  </wpt>
  <wpt lat="47.6802539" lon="7.2158664">
    <name>Rue de l&apos;église</name>
    <cmt>Amenity::entertainment:public_bookcase</cmt>
    <desc>Jardin de l&apos;ancien presbytère</desc>
    <type>Boite à livre</type>
  </wpt>
  <wpt lat="48.7712138" lon="7.4151187">
    <name>Place de la Liberté</name>
    <cmt>Amenity::entertainment:public_bookcase</cmt>
    <type>Boite à livre</type>
  </wpt>
  <wpt lat="49.295466" lon="3.946307">
    <name>33 Grande Rue</name>
    <cmt>Amenity::entertainment:public_bookcase</cmt>
    <desc>Collée au mur, juste à l&apos;entrée de l&apos;école maternelle.</desc>
    <type>Boite à livre</type>
  </wpt>
  <wpt lat="48.08084" lon="6.925673">
    <name>Place de l&apos;église</name>
    <cmt>Amenity::entertainment:public_bookcase</cmt>
    <desc>Cette Boîte à lire et faite à partir d&apos;une ancienne cabine téléphonique</desc>
    <type>Boite à livre</type>
  </wpt>
  <wpt lat="49.1338723" lon="4.363404">
    <name>espace suzanne haulin</name>
    <cmt>Amenity::entertainment:public_bookcase</cmt>
    <type>Boite à livre</type>
  </wpt>
  <wpt lat="49.1407517" lon="4.3666759">
    <name>Bois des soeurs</name>
    <cmt>Amenity::entertainment:public_bookcase</cmt>
    <type>Boite à livre</type>
  </wpt>
  <wpt lat="49.133099" lon="4.3644326">
    <name>salle la lousianne</name>
    <cmt>Amenity::entertainment:public_bookcase</cmt>
    <type>Boite à livre</type>
  </wpt>
  <wpt lat="48.643622" lon="6.209153">
    <name>Rond point D Armsheim</name>
    <cmt>Amenity::entertainment:public_bookcase</cmt>
    <desc>Au niveau de l&apos;arrêt de bus à côté de la maison des associations</desc>
    <type>Boite à livre</type>
  </wpt>
  <wpt lat="48.608170919390595" lon="7.747850418090821">
    <name>rue de Sarrebourg</name>
    <cmt>Amenity::entertainment:public_bookcase</cmt>
    <desc>La cabane de Denis, au début de la rue</desc>
    <type>Boite à livre</type>
  </wpt>
  <wpt lat="48.3181795" lon="7.4416241">
    <name>Place d&apos;Alsace</name>
    <cmt>Amenity::entertainment:public_bookcase</cmt>
    <desc>Sur un parking bétonné, sur la gauche en arrivant de Souillac</desc>
    <type>Boite à livre</type>
  </wpt>
  <wpt lat="48.5403936" lon="7.3454136">
    <name>Place des fêtes</name>
    <cmt>Amenity::entertainment:public_bookcase</cmt>
    <desc>Petite boîte à lire située dans le parc de la ville.</desc>
    <type>Boite à livre</type>
  </wpt>
  <wpt lat="48.6990497" lon="6.1885332">
    <name>Rue Lecreulx</name>
    <cmt>Amenity::entertainment:public_bookcase</cmt>
    <desc>Faisant état de la forte fréquentation de l?espace piétonnier entre la Pépinière et les berges du canal de la Marne au Rhin, l?association la passerelle a souhaité l?aménagement, rue Lecreulx, d?un arbre à livres dénommé Dylan PELOT en hommage à un personnage incontournable de la vie culturelle nancéienne.Dylan PELOT traversait chaque jour la Pépinière et le canal pour se rendre dans son atelier à la MJC Bazin où il devenait professeur de monstres et animait des cours d?Arts plastiques.Génial artiste touche-à-tout. Musicien et parolier au sein de plusieurs groupes musicaux, photographe, sculpteur, illustrateur, écrivain de littérature jeunesse.Appelé Didiche par son entourage et ses amis, il était l?illustrateur de Vincent, le chien terriblement jaune écrit par son père Pierre PELOT et l?auteur de Victor qui pète dessiné par Mathis.Certaines des illustrations de Vincent, le chien terriblement jaune ont été retenues pour figurer sur les éléments en bois à l?intérieur de l?arbre à livres.Objet artistique, cet arbre à livres est une bibliothèque gratuite en auto gestion, installée dans l?espace public auprès duquel les usagers peuvent prendre ou déposer des ouvrages librement. Pour la réalisation de ce mobilier, le choix de l association s?est porté sur la transformation d?une cabine téléphonique.La conception de cette bibliothèque a été confié à deux jeunes architectes : Guilhem VINCENT et Marie-Amélie RAUCOURT.</desc>
    <type>Boite à livre</type>
  </wpt>
  <wpt lat="48.9915179" lon="7.3823872">
    <name>Maison de santé</name>
    <cmt>Amenity::entertainment:public_bookcase</cmt>
    <type>Boite à livre</type>
  </wpt>
  <wpt lat="48.1083648" lon="7.4341811">
    <name>Grand Rue</name>
    <cmt>Amenity::entertainment:public_bookcase</cmt>
    <type>Boite à livre</type>
  </wpt>
  <wpt lat="49.3546877" lon="6.1595451">
    <name>Rue St Pierre</name>
    <cmt>Amenity::entertainment:public_bookcase</cmt>
    <desc>Bibliothèque de Rue.Près du feu rouge , 100m après l Auchan qui fait l&apos;angle.</desc>
    <type>Boite à livre</type>
  </wpt>
  <wpt lat="48.6052065" lon="7.5921668">
    <name>1 Rue du Hahnenberg</name>
    <cmt>Amenity::entertainment:public_bookcase</cmt>
    <desc>près du bureau de Poste rue du Hahnenberghttp://www.ittenheim.fr/fr/actualite/156178/boite-livres-ittenheim</desc>
    <type>Boite à livre</type>
  </wpt>
  <wpt lat="48.6052065" lon="7.5921668">
    <name>1 Rue du Hahnenberg</name>
    <cmt>Amenity::entertainment:public_bookcase</cmt>
    <desc>près du bureau de Poste rue du Hahnenberg</desc>
    <type>Boite à livre</type>
  </wpt>
  <wpt lat="48.7328489" lon="7.7003918">
    <name>16 Rue de la Gare</name>
    <cmt>Amenity::entertainment:public_bookcase</cmt>
    <desc>devant l&apos;abri à vélos de la gare.</desc>
    <type>Boite à livre</type>
  </wpt>
  <wpt lat="48.1654252" lon="7.2965036">
    <name>24 Rue de la 1E Armée</name>
    <cmt>Amenity::entertainment:public_bookcase</cmt>
    <type>Boite à livre</type>
  </wpt>
  <wpt lat="47.7952083" lon="7.0296464">
    <name>8, Route Joffre</name>
    <cmt>Amenity::entertainment:public_bookcase</cmt>
    <desc>Ancienne cabine téléphonique, devant l école.</desc>
    <type>Boite à livre</type>
  </wpt>
  <wpt lat="48.1007729" lon="5.1366938">
    <name>Maison des associations 24 rue des platanes</name>
    <cmt>Amenity::entertainment:public_bookcase</cmt>
    <desc>La boîte à lire se situe dans le hall de la maison des associations, accessible aux heures d ouverture, du lundi au vendredi de 8h30 à 23h et le samedi de 8h30 à 12h - 13h30-18h</desc>
    <type>Boite à livre</type>
  </wpt>
  <wpt lat="47.7880019" lon="7.3275385">
    <name>Rue Pierre de Coubertin</name>
    <cmt>Amenity::entertainment:public_bookcase</cmt>
    <desc>La Kabine du Parc des Gravières !</desc>
    <type>Boite à livre</type>
  </wpt>
  <wpt lat="48.8108587" lon="7.0648556">
    <name>Rue des vignes</name>
    <cmt>Amenity::entertainment:public_bookcase</cmt>
    <desc>Joli petite boite à livres, mise en place par la municipalité de ce village.</desc>
    <type>Boite à livre</type>
  </wpt>
  <wpt lat="48.6168984" lon="6.1051018">
    <name>6 rue Jean Jaures</name>
    <cmt>Amenity::entertainment:public_bookcase</cmt>
    <type>Boite à livre</type>
  </wpt>
  <wpt lat="48.6168984" lon="6.1051018">
    <name>6 rue Jean-Jaurès</name>
    <cmt>Amenity::entertainment:public_bookcase</cmt>
    <desc>A l intérieur de la Maison Départementale des Solidarités, MDS.Accessible aux horaires d?ouverture au public. Lundi, mardi, mercredi et vendredi de 9h à 12h et de 14h à 17h. Jeudi de 14h à 17h.</desc>
    <type>Boite à livre</type>
  </wpt>
  <wpt lat="48.6029245" lon="7.7015831">
    <name>9 rue Marcel Pagnol</name>
    <cmt>Amenity::entertainment:public_bookcase</cmt>
    <type>Boite à livre</type>
  </wpt>
  <wpt lat="48.1657129" lon="7.2968234">
    <name>Rue de la 1ère armée</name>
    <cmt>Amenity::entertainment:public_bookcase</cmt>
    <type>Boite à livre</type>
  </wpt>
  <wpt lat="49.2879578" lon="4.0571986">
    <name>12 rue des terres saint Rémi</name>
    <cmt>Amenity::entertainment:public_bookcase</cmt>
    <type>Boite à livre</type>
  </wpt>
  <wpt lat="48.6606384" lon="6.171742">
    <name>Rue de parme</name>
    <cmt>Amenity::entertainment:public_bookcase</cmt>
    <desc>Devant la mairie</desc>
    <type>Boite à livre</type>
  </wpt>
  <wpt lat="49.2920439" lon="6.5310613">
    <name>place du marché</name>
    <cmt>Amenity::entertainment:public_bookcase</cmt>
    <type>Boite à livre</type>
  </wpt>
  <wpt lat="47.8646414" lon="7.2756748">
    <name>5 rue des bois</name>
    <cmt>Amenity::entertainment:public_bookcase</cmt>
    <desc>Juste en face de l école.</desc>
    <type>Boite à livre</type>
  </wpt>
  <wpt lat="49.0431775" lon="3.9599338">
    <name>9 avenue de Champagne</name>
    <cmt>Amenity::entertainment:public_bookcase</cmt>
    <desc>La bôite se trouve dans le parc de l Hôtel de Ville, en face du perron.</desc>
    <type>Boite à livre</type>
  </wpt>
  <wpt lat="49.6196991" lon="5.1917884">
    <name>Mairie</name>
    <cmt>Amenity::entertainment:public_bookcase</cmt>
    <desc>MairieÀ droite de la porte sur la façade</desc>
    <type>Boite à livre</type>
  </wpt>
  <wpt lat="49.6227583" lon="5.1875605">
    <name>4 rue des ecoles</name>
    <cmt>Amenity::entertainment:public_bookcase</cmt>
    <desc>École primaire de Blagny</desc>
    <type>Boite à livre</type>
  </wpt>
  <wpt lat="48.7088492" lon="6.2554851">
    <name>avenue du Gremillon</name>
    <cmt>Amenity::entertainment:public_bookcase</cmt>
    <desc>La boîte à lire est autour du plan d&apos;eau de Pulnoy, à côté d&apos;un terrain de foot</desc>
    <type>Boite à livre</type>
  </wpt>
  <wpt lat="48.489147" lon="7.6911551">
    <name>rue du Bourg</name>
    <cmt>Amenity::entertainment:public_bookcase</cmt>
    <desc>Dans la parc entre l EHPAD du Gentil&apos;Home et la Rue de Neuchâtel, au niveau du terrain de jeux</desc>
    <type>Boite à livre</type>
  </wpt>
  <wpt lat="49.62336" lon="5.185634">
    <name>Rue du stade</name>
    <cmt>Amenity::entertainment:public_bookcase</cmt>
    <desc>Au niveau du stade</desc>
    <type>Boite à livre</type>
  </wpt>
  <wpt lat="48.6381731" lon="6.8581843">
    <name>rue des écoles</name>
    <cmt>Amenity::entertainment:public_bookcase</cmt>
    <desc>Une ancienne armoire électrique transformée en bibliothèque. L accès est libre. Les rayonnages sont bien garnis.</desc>
    <type>Boite à livre</type>
  </wpt>
  <wpt lat="48.3461674" lon="4.6064379">
    <name>2 rue des anémones / La Giberie</name>
    <cmt>Amenity::entertainment:public_bookcase</cmt>
    <desc>Sur la clôture de la maison rose dans la rue menant au stade.</desc>
    <type>Boite à livre</type>
  </wpt>
  <wpt lat="49.2507288" lon="3.9918454">
    <name>Place du commerce</name>
    <cmt>Amenity::entertainment:public_bookcase</cmt>
    <type>Boite à livre</type>
  </wpt>
  <wpt lat="49.244261" lon="3.9893111">
    <name>Parc Croix Cordier</name>
    <cmt>Amenity::entertainment:public_bookcase</cmt>
    <type>Boite à livre</type>
  </wpt>
  <wpt lat="48.6139456" lon="7.6912445">
    <name>rue principale</name>
    <cmt>Amenity::entertainment:public_bookcase</cmt>
    <desc>sur le mur caserne des pompiers</desc>
    <type>Boite à livre</type>
  </wpt>
  <wpt lat="48.67403" lon="7.36029">
    <name>rue principale</name>
    <cmt>Amenity::entertainment:public_bookcase</cmt>
    <desc>croisement avec la rue de la fontaine - cabine téléphonique</desc>
    <type>Boite à livre</type>
  </wpt>
  <wpt lat="47.6623541" lon="7.349515">
    <name>1 rue des Seigneurs            mairie</name>
    <cmt>Amenity::entertainment:public_bookcase</cmt>
    <desc>2 boîtes une pour les livres jeunesse une autre pour les livres adultes</desc>
    <type>Boite à livre</type>
  </wpt>
  <wpt lat="48.6013565" lon="7.750078">
    <name>Parc du chateau</name>
    <cmt>Amenity::entertainment:public_bookcase</cmt>
    <desc>Grande boite dans un parc pour enfant</desc>
    <type>Boite à livre</type>
  </wpt>
  <wpt lat="48.7742679" lon="5.608944">
    <name>2 Place Charles de Gaulle</name>
    <cmt>Amenity::entertainment:public_bookcase</cmt>
    <desc>La boîte à livres se trouve devant la Médiathèque de Vignot.</desc>
    <type>Boite à livre</type>
  </wpt>
  <wpt lat="48.7662461" lon="5.5866226">
    <name>Place de la gare</name>
    <cmt>Amenity::entertainment:public_bookcase</cmt>
    <desc>Devant l entrée de la gare</desc>
    <type>Boite à livre</type>
  </wpt>
  <wpt lat="48.9524048" lon="7.1766931">
    <name>90 rue principale</name>
    <cmt>Amenity::entertainment:public_bookcase</cmt>
    <desc>Sur le site de l’association la Grange aux Paysages (association d’initiation à la culture et à la nature) près des locaux de l’Office de Tourisme d’Alsace Bossue. Elle est accessible 24/24h et 7/7j.</desc>
    <type>Boite à livre</type>
  </wpt>
  <wpt lat="48.1269506" lon="7.3687363">
    <name>Galerie Commerciale Shop In Houssen Cora</name>
    <cmt>Amenity::entertainment:public_bookcase</cmt>
    <desc>à l intérieur de la galerie commerciale</desc>
    <type>Boite à livre</type>
  </wpt>
  <wpt lat="48.6805766" lon="6.170572">
    <name>Parc Sainte Marie</name>
    <cmt>Amenity::entertainment:public_bookcase</cmt>
    <desc>En face de la Maison de la Nature</desc>
    <type>Boite à livre</type>
  </wpt>
  <wpt lat="48.1580544" lon="7.3255458">
    <name>Place des fetes</name>
    <cmt>Amenity::entertainment:public_bookcase</cmt>
    <desc>Accolée a la salle des fetes</desc>
    <type>Boite à livre</type>
  </wpt>
  <wpt lat="48.1326669" lon="7.3038632">
    <name>Route des vins</name>
    <cmt>Amenity::entertainment:public_bookcase</cmt>
    <desc>La boite a livres se trouve a gauche de la caserne des pompiers sous le porche de la mairie.</desc>
    <type>Boite à livre</type>
  </wpt>
  <wpt lat="48.7126012" lon="7.4115614">
    <name>Rue principale</name>
    <cmt>Amenity::entertainment:public_bookcase</cmt>
    <desc>Elle est de couleur mauve et se trouve sur le petit parking devant la mairie.</desc>
    <type>Boite à livre</type>
  </wpt>
  <wpt lat="49.3404758" lon="6.0381474">
    <name>place de la mairie</name>
    <cmt>Amenity::entertainment:public_bookcase</cmt>
    <desc>Se trouve place de la mairie à Knutange</desc>
    <type>Boite à livre</type>
  </wpt>
  <wpt lat="48.6045635" lon="7.5907805">
    <name>rue du Hahnenberg</name>
    <cmt>Amenity::entertainment:public_bookcase</cmt>
    <desc>grande boite fixée au mur de la poste</desc>
    <type>Boite à livre</type>
  </wpt>
  <wpt lat="48.6558841" lon="4.9640413">
    <name>Hôpital Geneviève de Gaulle Anthonioz</name>
    <cmt>Amenity::entertainment:public_bookcase</cmt>
    <desc>La boîte, installée par le Lions Club St Dizier 2000, se trouve dans le hall de l hôpital</desc>
    <type>Boite à livre</type>
  </wpt>
  <wpt lat="48.9756028" lon="3.6450844">
    <name>Place de la mairie</name>
    <cmt>Amenity::entertainment:public_bookcase</cmt>
    <desc>Boite à livres Lions</desc>
    <type>Boite à livre</type>
  </wpt>
  <wpt lat="48.445137" lon="6.466815">
    <name>Rue de l?eglise</name>
    <cmt>Amenity::entertainment:public_bookcase</cmt>
    <desc>A l?abribus du village</desc>
    <type>Boite à livre</type>
  </wpt>
  <wpt lat="48.458002" lon="6.517576">
    <name>Grande rue</name>
    <cmt>Amenity::entertainment:public_bookcase</cmt>
    <desc>Au milieu du village dans un frigo customisé ...</desc>
    <type>Boite à livre</type>
  </wpt>
  <wpt lat="48.528335" lon="6.541732">
    <name>Rue grandjacquot</name>
    <cmt>Amenity::entertainment:public_bookcase</cmt>
    <desc>À l?arrêt de bus près des écoles</desc>
    <type>Boite à livre</type>
  </wpt>
  <wpt lat="48.6170575" lon="6.3537316">
    <name>Rue vaudémont square du Maroc</name>
    <cmt>Amenity::entertainment:public_bookcase</cmt>
    <desc>Sur le parking du centre médico social</desc>
    <type>Boite à livre</type>
  </wpt>
  <wpt lat="49.3409214" lon="6.0386949">
    <name>103 bis rue de la République</name>
    <cmt>Amenity::entertainment:public_bookcase</cmt>
    <desc>A côté du parking  , près du cabinet de kiné</desc>
    <type>Boite à livre</type>
  </wpt>
  <wpt lat="49.3546167" lon="6.1393864">
    <name>Rue du maillet</name>
    <cmt>Amenity::entertainment:public_bookcase</cmt>
    <desc>Elle se trouve à l intérieur du centre commercial GERIC. à côté de la boutique Go Cho</desc>
    <type>Boite à livre</type>
  </wpt>
  <wpt lat="47.9255096" lon="7.294134">
    <name>rue de merxheim</name>
    <cmt>Amenity::entertainment:public_bookcase</cmt>
    <desc>installer dans l abri de bus</desc>
    <type>Boite à livre</type>
  </wpt>
  <wpt lat="48.0489343" lon="7.4319105">
    <name>Sundhoffen</name>
    <cmt>Amenity::entertainment:public_bookcase</cmt>
    <type>Boite à livre</type>
  </wpt>
  <wpt lat="47.9341369" lon="7.2943763">
    <name>4 rue du Nord</name>
    <cmt>Amenity::entertainment:public_bookcase</cmt>
    <desc>Installer dans l abri de bus</desc>
    <type>Boite à livre</type>
  </wpt>
  <wpt lat="48.0020365" lon="7.2837252">
    <name>rue de Rouffach</name>
    <cmt>Amenity::entertainment:public_bookcase</cmt>
    <desc>Installer dans l abri de bus a l&apos;entrée du village</desc>
    <type>Boite à livre</type>
  </wpt>
  <wpt lat="49.250313" lon="3.977409">
    <name>Champ Paveau</name>
    <cmt>Amenity::entertainment:public_bookcase</cmt>
    <desc>Retrouvez notre boîte à livres du quartier Champ Paveau</desc>
    <type>Boite à livre</type>
  </wpt>
  <wpt lat="49.1539187" lon="4.0796864">
    <name>Place de la république</name>
    <cmt>Amenity::entertainment:public_bookcase</cmt>
    <type>Boite à livre</type>
  </wpt>
  <wpt lat="49.7382564" lon="4.9251356">
    <name>Parking mairie</name>
    <cmt>Amenity::entertainment:public_bookcase</cmt>
    <desc>Dans l ancienne cabine téléphonique.</desc>
    <type>Boite à livre</type>
  </wpt>
  <wpt lat="49.7382564" lon="4.9251356">
    <name>Parking mairie</name>
    <cmt>Amenity::entertainment:public_bookcase</cmt>
    <desc>Ancienne cabine téléphonique sur la place peinte en rouge.</desc>
    <type>Boite à livre</type>
  </wpt>
  <wpt lat="49.3600049" lon="6.172285">
    <name>Parc Napoléon</name>
    <cmt>Amenity::entertainment:public_bookcase</cmt>
    <desc>Boîte rouge dans le parc Napoléon</desc>
    <type>Boite à livre</type>
  </wpt>
  <wpt lat="48.1112279" lon="4.376854">
    <name>Place du Marché</name>
    <cmt>Amenity::entertainment:public_bookcase</cmt>
    <desc>Devant la Halle</desc>
    <type>Boite à livre</type>
  </wpt>
  <wpt lat="49.3846611" lon="5.1841774">
    <name>Rue de l hôtel de ville</name>
    <cmt>Amenity::entertainment:public_bookcase</cmt>
    <type>Boite à livre</type>
  </wpt>
  <wpt lat="47.87726" lon="7.210324">
    <name>Rue de la fonderie</name>
    <cmt>Amenity::entertainment:public_bookcase</cmt>
    <desc>Près du cimetière et de l&apos;église dans le coin de l&apos;espace vert : un tonneau couché</desc>
    <type>Boite à livre</type>
  </wpt>
  <wpt lat="47.800270459811905" lon="7.315843105316163">
    <name>Rue de la Capucine</name>
    <cmt>Amenity::entertainment:public_bookcase</cmt>
    <desc>Près de la Maison des Jeunes. Installée par le LIONS CLUB MULHOUSE EUROPE</desc>
    <type>Boite à livre</type>
  </wpt>
  <wpt lat="47.7335462" lon="7.3073082">
    <name>31 Rue Fénelon</name>
    <cmt>Amenity::entertainment:public_bookcase</cmt>
    <desc>Devant le cinéma du Centre Bel Air. Installée par le Lions Club Mulhouse Europe</desc>
    <type>Boite à livre</type>
  </wpt>
  <wpt lat="47.7559782" lon="7.3192881">
    <name>41 rue Lavoisier Centre Socio-Culturel Lavoisier Brustlein</name>
    <cmt>Amenity::entertainment:public_bookcase</cmt>
    <desc>installée par le Lions Club Mulhouse Europe</desc>
    <type>Boite à livre</type>
  </wpt>
  <wpt lat="47.7021692" lon="7.3588313">
    <name>Rue de Rixheim, Salle Polyvalente</name>
    <cmt>Amenity::entertainment:public_bookcase</cmt>
    <desc>installée par le Lions Club Mulhouse Europe</desc>
    <type>Boite à livre</type>
  </wpt>
  <wpt lat="47.7194866" lon="7.3872244">
    <name>rue de l&apos;Ecole, Hotel de Ville</name>
    <cmt>Amenity::entertainment:public_bookcase</cmt>
    <desc>installée par le Lions Club Mulhouse Europe</desc>
    <type>Boite à livre</type>
  </wpt>
  <wpt lat="49.7400019" lon="4.7470541">
    <name>1 rue jules Guesde</name>
    <cmt>Amenity::entertainment:public_bookcase</cmt>
    <desc>Ancienne cabine téléphonique</desc>
    <type>Boite à livre</type>
  </wpt>
  <wpt lat="49.634292" lon="4.980523">
    <name>Route principale</name>
    <cmt>Amenity::entertainment:public_bookcase</cmt>
    <desc>Derrière l abris bus.</desc>
    <type>Boite à livre</type>
  </wpt>
  <wpt lat="49.634292" lon="4.980523">
    <name>Route principale</name>
    <cmt>Amenity::entertainment:public_bookcase</cmt>
    <desc>Derrière l abris bus.</desc>
    <type>Boite à livre</type>
  </wpt>
  <wpt lat="49.738535" lon="4.7147353">
    <name>guillaume.daniele-jean-claude@wanadoo.fr</name>
    <cmt>Amenity::entertainment:public_bookcase</cmt>
    <desc>DON de 9 boîtes des 3 LIONS CLUB de CHARLEVILLE-MEZIERES à l initiative de JC GUILLAUME Prdt de la Zone 13 réparties dans les différents quartiers de la Ville</desc>
    <type>Boite à livre</type>
  </wpt>
  <wpt lat="49.008422" lon="6.203882">
    <name>Parc du Château</name>
    <cmt>Amenity::entertainment:public_bookcase</cmt>
    <type>Boite à livre</type>
  </wpt>
  <wpt lat="47.9263128" lon="6.484265">
    <name>Place de l&apos;Hotel de Ville</name>
    <cmt>Amenity::entertainment:public_bookcase</cmt>
    <desc>boîte offerte par le Lions Club Plombières Remiremont installée à proximité de la médiathèque, de la MJC et de l?ecole de musique.</desc>
    <type>Boite à livre</type>
  </wpt>
  <wpt lat="49.7104338" lon="4.9298652">
    <name>avenue des martyrs de la résistance</name>
    <cmt>Amenity::entertainment:public_bookcase</cmt>
    <desc>sur le parking près de la Meuse, face au café</desc>
    <type>Boite à livre</type>
  </wpt>
  <wpt lat="49.607771" lon="4.9569363">
    <name>rue de la bastille</name>
    <cmt>Amenity::entertainment:public_bookcase</cmt>
    <desc>à l arrêt de bus</desc>
    <type>Boite à livre</type>
  </wpt>
  <wpt lat="49.6019247" lon="4.9574262">
    <name>place du pavé</name>
    <cmt>Amenity::entertainment:public_bookcase</cmt>
    <desc>sur la mairie</desc>
    <type>Boite à livre</type>
  </wpt>
  <wpt lat="47.926193" lon="6.484068">
    <name>Grande Rue - île aux enfants</name>
    <cmt>Amenity::entertainment:public_bookcase</cmt>
    <desc>Boîte à livres offerte par le Lions Club Plombières Remiremont et installée à l&apos;entrée de l&apos;ile aux enfants Grande Rue.</desc>
    <type>Boite à livre</type>
  </wpt>
  <wpt lat="48.605629" lon="5.043778">
    <name>Place de la Mairie</name>
    <cmt>Amenity::entertainment:public_bookcase</cmt>
    <type>Boite à livre</type>
  </wpt>
  <wpt lat="48.584904" lon="5.036454">
    <name>Place Notre Dame</name>
    <cmt>Amenity::entertainment:public_bookcase</cmt>
    <type>Boite à livre</type>
  </wpt>
  <wpt lat="48.3322542" lon="3.7426764">
    <name>Rue du haut de Troyes</name>
    <cmt>Amenity::entertainment:public_bookcase</cmt>
    <desc>Boîte à livres située entre la mairie et l église.</desc>
    <type>Boite à livre</type>
  </wpt>
  <wpt lat="48.950731" lon="3.699861">
    <name>près de l église</name>
    <cmt>Amenity::entertainment:public_bookcase</cmt>
    <type>Boite à livre</type>
  </wpt>
  <wpt lat="48.541611" lon="7.4178432">
    <name>172 rue de général de Gaulle</name>
    <cmt>Amenity::entertainment:public_bookcase</cmt>
    <desc>Grande boite à lire en forme de maison. Plein de livres à lire.</desc>
    <type>Boite à livre</type>
  </wpt>
  <wpt lat="47.88707151079382" lon="7.230672240257264">
    <name>6 Place de l&apos;Église</name>
    <cmt>Amenity::entertainment:public_bookcase</cmt>
    <desc>Entre l&apos;église et la médiathèque</desc>
    <type>Boite à livre</type>
  </wpt>
  <wpt lat="48.046701684462384" lon="7.309577465057374">
    <name>Rue des Oiseaux</name>
    <cmt>Amenity::entertainment:public_bookcase</cmt>
    <desc>Au centre du Parc</desc>
    <type>Boite à livre</type>
  </wpt>
  <wpt lat="48.6586101" lon="7.5136869">
    <name>15 rue de l église</name>
    <cmt>Amenity::entertainment:public_bookcase</cmt>
    <desc>Face a la mairie, a l intérieur d&apos;un abri pour voyageurs</desc>
    <type>Boite à livre</type>
  </wpt>
  <wpt lat="48.188045" lon="7.4097546">
    <name>Route d illhaeusern</name>
    <cmt>Amenity::entertainment:public_bookcase</cmt>
    <desc>Elle se situe entre le proxy et la boulangerie</desc>
    <type>Boite à livre</type>
  </wpt>
  <wpt lat="47.9263128" lon="6.484265">
    <name>Place de l hôtel de ville</name>
    <cmt>Amenity::entertainment:public_bookcase</cmt>
    <desc>Jolie boîte à livres située à proximité de la mairie  à droite</desc>
    <type>Boite à livre</type>
  </wpt>
  <wpt lat="48.9973908" lon="6.0999628">
    <name>Rue du haut lessis</name>
    <cmt>Amenity::entertainment:public_bookcase</cmt>
    <desc>Ancienne cabine téléphonique située devant l église.</desc>
    <type>Boite à livre</type>
  </wpt>
  <wpt lat="48.5719294" lon="7.4854311">
    <name>8 Rue des Soeurs</name>
    <cmt>Amenity::entertainment:public_bookcase</cmt>
    <desc>Etagère située à l entrée de la bibliothèque sur la droite , accessible aux heures d&apos;ouverture</desc>
    <type>Boite à livre</type>
  </wpt>
  <wpt lat="48.7880519" lon="7.5045618">
    <name>rue Principale - Zoebersdorf</name>
    <cmt>Amenity::entertainment:public_bookcase</cmt>
    <desc>Petite boîte à lire, ou à livres, installée sous l abri-bus scolaire. Il y a un banc, vous pouvez vous y installer pour consulter les ouvrages avant de décider de les emporter, ou non.</desc>
    <type>Boite à livre</type>
  </wpt>
  <wpt lat="48.6242291" lon="7.490584">
    <name>2, rue des Roses</name>
    <cmt>Amenity::entertainment:public_bookcase</cmt>
    <desc>Très belle boîte à livres située devant la chapelle protestante, régulièrement entretenue et rangée.</desc>
    <type>Boite à livre</type>
  </wpt>
  <wpt lat="50.08603624590763" lon="4.727479219436646">
    <name>Office de Tourisme</name>
    <cmt>Amenity::entertainment:public_bookcase</cmt>
    <desc>Boîte à livres située devant l&apos;office du tourisme</desc>
    <type>Boite à livre</type>
  </wpt>
  <wpt lat="48.6727026" lon="6.1421047">
    <name>28 rue de Versigny</name>
    <cmt>Amenity::entertainment:public_bookcase</cmt>
    <desc>3 jolies boîtes en bois</desc>
    <type>Boite à livre</type>
  </wpt>
  <wpt lat="48.6726242" lon="6.1420314">
    <name>26 rue de versigny</name>
    <cmt>Amenity::entertainment:public_bookcase</cmt>
    <desc>3 jolies boîtes en bois</desc>
    <type>Boite à livre</type>
  </wpt>
  <wpt lat="48.6801692" lon="6.1588212">
    <name>86 boulevard Émile Zola</name>
    <cmt>Amenity::entertainment:public_bookcase</cmt>
    <desc>Sur le rebord d un fenêtre</desc>
    <type>Boite à livre</type>
  </wpt>
  <wpt lat="49.0871267" lon="6.1598624">
    <name>EHPAD Résidence les acacias</name>
    <cmt>Amenity::entertainment:public_bookcase</cmt>
    <desc>Boite à livres pour tous située devant l EHPAD.</desc>
    <type>Boite à livre</type>
  </wpt>
  <wpt lat="49.0612763" lon="3.8444065">
    <name>Place de la Mairie</name>
    <cmt>Amenity::entertainment:public_bookcase</cmt>
    <desc>Boîte à livres Lions club</desc>
    <type>Boite à livre</type>
  </wpt>
  <wpt lat="48.5818517" lon="7.7454274">
    <name>14 rue Sainte-Barbe</name>
    <cmt>Amenity::entertainment:public_bookcase</cmt>
    <desc>Au Trolley. Choix très diversifiés et à disposition libre...</desc>
    <type>Boite à livre</type>
  </wpt>
  <wpt lat="49.8093057" lon="4.7966655">
    <name>17 rue jean baptiste clement</name>
    <cmt>Amenity::entertainment:public_bookcase</cmt>
    <desc>très grosse boite a lire de l  association le relais</desc>
    <type>Boite à livre</type>
  </wpt>
  <wpt lat="48.1295617" lon="7.2913783">
    <name>14 Rue des Primevères</name>
    <cmt>Amenity::entertainment:public_bookcase</cmt>
    <desc>Au terrain de jeux du quartier des fleurs, en face de la Pharmacie</desc>
    <type>Boite à livre</type>
  </wpt>
  <wpt lat="48.1243252" lon="7.2824895">
    <name>7 Rue du Tir</name>
    <cmt>Amenity::entertainment:public_bookcase</cmt>
    <desc>Située dans le petit Square Kuehn près de la maison de retraite</desc>
    <type>Boite à livre</type>
  </wpt>
  <wpt lat="48.1259822" lon="7.281735">
    <name>6 Place du Gén de Gaulle</name>
    <cmt>Amenity::entertainment:public_bookcase</cmt>
    <desc>Située place de l hôtel de ville</desc>
    <type>Boite à livre</type>
  </wpt>
  <wpt lat="49.7471134" lon="4.720845">
    <name>rue des Mesanges</name>
    <cmt>Amenity::entertainment:public_bookcase</cmt>
    <desc>piscine de la Ronde Couture du Lions Club Charleville mezieres</desc>
    <type>Boite à livre</type>
  </wpt>
  <wpt lat="48.0283396" lon="7.4394179">
    <name>6 rue principale</name>
    <cmt>Amenity::entertainment:public_bookcase</cmt>
    <desc>Essentiellement pour les enfants car près d une école.</desc>
    <type>Boite à livre</type>
  </wpt>
  <wpt lat="49.2514865" lon="4.0279097">
    <name>Rue Libergier</name>
    <cmt>Amenity::entertainment:public_bookcase</cmt>
    <desc>Petite boite à lire en bois située sur la grille du jardin du musée des Beaux Arts.</desc>
    <type>Boite à livre</type>
  </wpt>
  <wpt lat="48.5736289" lon="7.76149">
    <name>Place Jeanne HELBLING</name>
    <cmt>Amenity::entertainment:public_bookcase</cmt>
    <desc>Gérée par l Association des Résidents Etoile Malraux</desc>
    <type>Boite à livre</type>
  </wpt>
  <wpt lat="47.802544" lon="7.168088">
    <name>rue René Guibert</name>
    <cmt>Amenity::entertainment:public_bookcase</cmt>
    <desc>A proximité du Parc à cigognes</desc>
    <type>Boite à livre</type>
  </wpt>
  <wpt lat="47.8047863" lon="7.1807322">
    <name>1 Rue Gustave Eiffel</name>
    <cmt>Amenity::entertainment:public_bookcase</cmt>
    <desc>Située dans le parc des Rives de la Thur</desc>
    <type>Boite à livre</type>
  </wpt>
  <wpt lat="47.8089306" lon="7.177455">
    <name>Rue Clemenceau</name>
    <cmt>Amenity::entertainment:public_bookcase</cmt>
    <desc>Située place de l?Abbé Pierre, a proximité de l Eglise Saint Etienne</desc>
    <type>Boite à livre</type>
  </wpt>
  <wpt lat="49.7609697" lon="4.715104">
    <name>place de la Basilique</name>
    <cmt>Amenity::entertainment:public_bookcase</cmt>
    <desc>devant la basilique de Mezieres</desc>
    <type>Boite à livre</type>
  </wpt>
  <wpt lat="49.7719079" lon="4.7217634">
    <name>Place Winston Churchill</name>
    <cmt>Amenity::entertainment:public_bookcase</cmt>
    <desc>La boîte du Lions Club Rimbaud est dans le square devant le lycée St Paul</desc>
    <type>Boite à livre</type>
  </wpt>
  <wpt lat="48.0749662" lon="7.3507768">
    <name>Avenue de la République</name>
    <cmt>Amenity::entertainment:public_bookcase</cmt>
    <desc>À l entrée du parking souterrain Place Rapp</desc>
    <type>Boite à livre</type>
  </wpt>
  <wpt lat="49.7424015" lon="4.7468502">
    <name>Place de la mairie</name>
    <cmt>Amenity::entertainment:public_bookcase</cmt>
    <desc>Boite située devant l école</desc>
    <type>Boite à livre</type>
  </wpt>
  <wpt lat="49.2249844" lon="5.9891741">
    <name>21 rue des platanes</name>
    <cmt>Amenity::entertainment:public_bookcase</cmt>
    <desc>elle est sur le chemin de promenade à l arrière de la maison, à hauteur de la mairie</desc>
    <type>Boite à livre</type>
  </wpt>
  <wpt lat="49.3488683" lon="6.0615434">
    <name>RUE DE VEYMERANGE</name>
    <cmt>Amenity::entertainment:public_bookcase</cmt>
    <desc>INSTALLEE LE 11 SEPTEMBRE 2018 VENEZ DECOUVRIR CETTE NOUVELLE BOITE A LIRE EN LIBRE SERVICE. Empruntez, déposer, partager, lire pour le plaisir de tous</desc>
    <type>Boite à livre</type>
  </wpt>
  <wpt lat="48.741795" lon="7.36052">
    <name>Ecluse</name>
    <cmt>Amenity::entertainment:public_bookcase</cmt>
    <desc>Mise en place avec l aide de la Ville depuis près de deux ans par deux habitantes de Saverne s&apos;occupant par ailleurs des Incroyables Comestibles ,d&apos;où le tournesol</desc>
    <type>Boite à livre</type>
  </wpt>
  <wpt lat="49.649935" lon="4.918108">
    <name>Rue de l&apos;école</name>
    <cmt>Amenity::entertainment:public_bookcase</cmt>
    <desc>Dans l&apos;abri-bus</desc>
    <type>Boite à livre</type>
  </wpt>
  <wpt lat="49.6852488" lon="4.9405725">
    <name>Place de la mairie</name>
    <cmt>Amenity::entertainment:public_bookcase</cmt>
    <desc>Située dans la mairie</desc>
    <type>Boite à livre</type>
  </wpt>
  <wpt lat="48.3608191" lon="4.0027351">
    <name>Mairie de Saint Lyé</name>
    <cmt>Amenity::entertainment:public_bookcase</cmt>
    <desc>Boîte à livre installée par le LIONS CLUB ORLEANS-SOLOGNEPhoto prise lors de l&apos;inauguration</desc>
    <type>Boite à livre</type>
  </wpt>
  <wpt lat="48.587321" lon="6.03198">
    <name>8 rue de la mairie</name>
    <cmt>Amenity::entertainment:public_bookcase</cmt>
    <desc>Kabin alir installée par la mairie. Plus d info sur le site de la commune rubrique Kabin alir.</desc>
    <type>Boite à livre</type>
  </wpt>
  <wpt lat="48.2866044" lon="7.418105">
    <name>rue de l école</name>
    <cmt>Amenity::entertainment:public_bookcase</cmt>
    <desc>devant la bibliothèque</desc>
    <type>Boite à livre</type>
  </wpt>
  <wpt lat="47.9611425" lon="7.2398418">
    <name>Place du Général-de-Gaulle</name>
    <cmt>Amenity::entertainment:public_bookcase</cmt>
    <desc>Située sur la place, entre la Mairie et La Poste</desc>
    <type>Boite à livre</type>
  </wpt>
  <wpt lat="49.2411796" lon="4.051732">
    <name>Parc saint bruno</name>
    <cmt>Amenity::entertainment:public_bookcase</cmt>
    <type>Boite à livre</type>
  </wpt>
  <wpt lat="49.0341118" lon="3.9564105">
    <name>Place de la Méditerranée</name>
    <cmt>Amenity::entertainment:public_bookcase</cmt>
    <desc>Boite à livres Lions en face de la fleuriste</desc>
    <type>Boite à livre</type>
  </wpt>
  <wpt lat="48.9351358" lon="6.0282598">
    <name>17 rue abbé Paul varney</name>
    <cmt>Amenity::entertainment:public_bookcase</cmt>
    <desc>Près de la boulangerie.</desc>
    <type>Boite à livre</type>
  </wpt>
  <wpt lat="49.6601962" lon="4.7961031">
    <name>Mairie</name>
    <cmt>Amenity::entertainment:public_bookcase</cmt>
    <desc>Boîte située dans la cours de la mairie du village. Créée en mai 2018, on y trouve de tout.</desc>
    <type>Boite à livre</type>
  </wpt>
  <wpt lat="49.22492687502207" lon="5.989930629730225">
    <name>21 RUE DES PLATANES</name>
    <cmt>Amenity::entertainment:public_bookcase</cmt>
    <desc>SUR LE CHEMIN DE L&apos;ORNE DERRIERE LA MAISON</desc>
    <type>Boite à livre</type>
  </wpt>
  <wpt lat="49.0468008" lon="7.4223622">
    <name>1 rue de Lebach</name>
    <cmt>Amenity::entertainment:public_bookcase</cmt>
    <desc>bibliothèque de rue</desc>
    <type>Boite à livre</type>
  </wpt>
  <wpt lat="49.6631965" lon="4.930913">
    <name>Route de la Marfée</name>
    <cmt>Amenity::entertainment:public_bookcase</cmt>
    <desc>Située dans le square</desc>
    <type>Boite à livre</type>
  </wpt>
  <wpt lat="49.6685472" lon="4.9548117">
    <name>Rue du Commerce</name>
    <cmt>Amenity::entertainment:public_bookcase</cmt>
    <desc>Située dans l&apos;abris bus</desc>
    <type>Boite à livre</type>
  </wpt>
  <wpt lat="49.7674847" lon="4.7238553">
    <name>Gare</name>
    <cmt>Amenity::entertainment:public_bookcase</cmt>
    <desc>Boîte à livres située à l intérieur de la gare.</desc>
    <type>Boite à livre</type>
  </wpt>
  <wpt lat="48.6240396" lon="7.4892772">
    <name>10 rue des roses</name>
    <cmt>Amenity::entertainment:public_bookcase</cmt>
    <type>Boite à livre</type>
  </wpt>
  <wpt lat="47.6961906" lon="7.2940385">
    <name>Place du général de Gaule</name>
    <cmt>Amenity::entertainment:public_bookcase</cmt>
    <desc>Cabane du lecteur</desc>
    <type>Boite à livre</type>
  </wpt>
  <wpt lat="48.077758" lon="7.3531456">
    <name>6 Avenue de la République</name>
    <cmt>Amenity::entertainment:public_bookcase</cmt>
    <desc>Situer sur la Place Rapp, entre la Caisse d Epargne et le Café Rapp</desc>
    <type>Boite à livre</type>
  </wpt>
  <wpt lat="47.9046037" lon="7.2543155">
    <name>60 Rue de Rouffach</name>
    <cmt>Amenity::entertainment:public_bookcase</cmt>
    <desc>En face de la Boulangerie</desc>
    <type>Boite à livre</type>
  </wpt>
  <wpt lat="47.9020141" lon="7.2455809">
    <name>89 Rue de Guebwiller</name>
    <cmt>Amenity::entertainment:public_bookcase</cmt>
    <desc>Devant le terrain de pétanque</desc>
    <type>Boite à livre</type>
  </wpt>
  <wpt lat="47.9292424" lon="7.2339302">
    <name>21 Rue Principale</name>
    <cmt>Amenity::entertainment:public_bookcase</cmt>
    <type>Boite à livre</type>
  </wpt>
  <wpt lat="47.9514138" lon="7.2918371">
    <name>Rue du 4ème Spahis Marocains</name>
    <cmt>Amenity::entertainment:public_bookcase</cmt>
    <desc>Installée par un particulier, en face de l&apos;aire de jeux</desc>
    <type>Boite à livre</type>
  </wpt>
  <wpt lat="48.5372758" lon="7.4560581">
    <name>Passage des lavoirs</name>
    <cmt>Amenity::entertainment:public_bookcase</cmt>
    <type>Boite à livre</type>
  </wpt>
  <wpt lat="47.8605076" lon="7.29731">
    <name>Rue de Ruelisheim</name>
    <cmt>Amenity::entertainment:public_bookcase</cmt>
    <desc>Parc pour tous  Offert par le Lions Club de Guebwiller</desc>
    <type>Boite à livre</type>
  </wpt>
  <wpt lat="47.8268061" lon="7.2553003">
    <name>Mairie de Staffelfelden</name>
    <cmt>Amenity::entertainment:public_bookcase</cmt>
    <desc>Offerte par le Lions Club de Guebwiller</desc>
    <type>Boite à livre</type>
  </wpt>
  <wpt lat="48.6172286" lon="4.9120933">
    <name>avenue du Piemont</name>
    <cmt>Amenity::entertainment:public_bookcase</cmt>
    <desc>dans l abri bus.A savoir qu&apos;il existe aussi une grainothèque,  dans le jardin derrière la mairie, accès par le portail à gauche.</desc>
    <type>Boite à livre</type>
  </wpt>
  <wpt lat="49.0745447" lon="3.878075">
    <name>Parc de la mairie</name>
    <cmt>Amenity::entertainment:public_bookcase</cmt>
    <desc>Boîte à livres Lions</desc>
    <type>Boite à livre</type>
  </wpt>
  <wpt lat="48.9044949" lon="4.0049676">
    <name>Boulevard Paul Goerg</name>
    <cmt>Amenity::entertainment:public_bookcase</cmt>
    <desc>Boîte à livres Lions</desc>
    <type>Boite à livre</type>
  </wpt>
  <wpt lat="49.0273882" lon="3.9546939">
    <name>Place du 13ème Régiment de Génie</name>
    <cmt>Amenity::entertainment:public_bookcase</cmt>
    <desc>Boîte à livres Lions dans le parc de la communauté d&apos;agglo</desc>
    <type>Boite à livre</type>
  </wpt>
  <wpt lat="47.6135612" lon="7.5290173">
    <name>Parc Soleil</name>
    <cmt>Amenity::entertainment:public_bookcase</cmt>
    <desc>Très belles boîtes à livre</desc>
    <type>Boite à livre</type>
  </wpt>
  <wpt lat="47.809109" lon="7.241036">
    <name>Place du général De Gaulle</name>
    <cmt>Amenity::entertainment:public_bookcase</cmt>
    <type>Boite à livre</type>
  </wpt>
  <wpt lat="47.7810074" lon="7.2245355">
    <name>Graffenwald - Rue de la gare</name>
    <cmt>Amenity::entertainment:public_bookcase</cmt>
    <type>Boite à livre</type>
  </wpt>
  <wpt lat="47.822363" lon="7.335676">
    <name>place de Thiers</name>
    <cmt>Amenity::entertainment:public_bookcase</cmt>
    <desc>Située près de l arrêt de bus ligne 4</desc>
    <type>Boite à livre</type>
  </wpt>
  <wpt lat="47.8240669" lon="7.3372743">
    <name>rue de la première armée</name>
    <cmt>Amenity::entertainment:public_bookcase</cmt>
    <desc>devant la maison des Associations ancienne MJC Théodore</desc>
    <type>Boite à livre</type>
  </wpt>
  <wpt lat="47.8133222" lon="7.3123504">
    <name>rue d ile de france</name>
    <cmt>Amenity::entertainment:public_bookcase</cmt>
    <desc>près de la MJC Jeune Bois</desc>
    <type>Boite à livre</type>
  </wpt>
  <wpt lat="47.7999171" lon="7.3145004">
    <name>rue de la Capucine</name>
    <cmt>Amenity::entertainment:public_bookcase</cmt>
    <desc>devant la MJC Fernand Anna</desc>
    <type>Boite à livre</type>
  </wpt>
  <wpt lat="48.632174" lon="6.3147515">
    <name>Espace Prieuré rue Jean Jaurès</name>
    <cmt>Amenity::entertainment:public_bookcase</cmt>
    <desc>À l intérieur du bâtiment Cargo</desc>
    <type>Boite à livre</type>
  </wpt>
  <wpt lat="49.0300361" lon="5.8621872">
    <name>22 Grand Rue</name>
    <cmt>Amenity::entertainment:public_bookcase</cmt>
    <desc>Cabinet téléphonique. A côté de la mairie</desc>
    <type>Boite à livre</type>
  </wpt>
  <wpt lat="48.9775149" lon="5.849646">
    <name>Grand Rue</name>
    <cmt>Amenity::entertainment:public_bookcase</cmt>
    <desc>Dans un abribus</desc>
    <type>Boite à livre</type>
  </wpt>
  <wpt lat="48.9029139" lon="6.0546985">
    <name>Place Duroc</name>
    <cmt>Amenity::entertainment:public_bookcase</cmt>
    <desc>Près de l office de tourisme</desc>
    <type>Boite à livre</type>
  </wpt>
  <wpt lat="48.5736289" lon="7.76149">
    <name>Place Jeanne Helbling</name>
    <cmt>Amenity::entertainment:public_bookcase</cmt>
    <type>Boite à livre</type>
  </wpt>
  <wpt lat="49.3159154" lon="3.9629633">
    <name>1  place de la Mairie</name>
    <cmt>Amenity::entertainment:public_bookcase</cmt>
    <desc>Placée à l abri sous le porche de la Mairie, cette boîte à lire et ses annexes, documentaires et magazines,  livres jeunesse,  attend les lecteurs.</desc>
    <type>Boite à livre</type>
  </wpt>
  <wpt lat="49.2140239" lon="4.0941524">
    <name>2 rue de Sillery</name>
    <cmt>Amenity::entertainment:public_bookcase</cmt>
    <desc>Se situe devant la mairie, la boîte est transparente</desc>
    <type>Boite à livre</type>
  </wpt>
  <wpt lat="49.386561" lon="6.242162">
    <name>106 Avenue de nieppe</name>
    <cmt>Amenity::entertainment:public_bookcase</cmt>
    <desc>À côté du café c est l ancienne cabine téléphonique réhabilitée.</desc>
    <type>Boite à livre</type>
  </wpt>
  <wpt lat="49.4168128" lon="5.7074521">
    <name>8 rue de la gare</name>
    <cmt>Amenity::entertainment:public_bookcase</cmt>
    <desc>Les commerces de proximité VIVAL installent des boites à livres devant tous leurs commerces. Félicitations, très belle réalisation.</desc>
    <type>Boite à livre</type>
  </wpt>
  <wpt lat="48.1971633" lon="7.3001816">
    <name>48.195, 7.319</name>
    <cmt>Amenity::entertainment:public_bookcase</cmt>
    <type>Boite à livre</type>
  </wpt>
  <wpt lat="49.1548464" lon="6.1618852">
    <name>Woippy plage</name>
    <cmt>Amenity::entertainment:public_bookcase</cmt>
    <type>Boite à livre</type>
  </wpt>
  <wpt lat="49.1052729" lon="6.205223">
    <name>Mélanie</name>
    <cmt>Amenity::entertainment:public_bookcase</cmt>
    <desc>Cour du centre socio culturel bon pasteur</desc>
    <type>Boite à livre</type>
  </wpt>
  <wpt lat="47.7849007" lon="7.2848123">
    <name>Place du général de Gaulle</name>
    <cmt>Amenity::entertainment:public_bookcase</cmt>
    <type>Boite à livre</type>
  </wpt>
  <wpt lat="48.6254513" lon="6.2051693">
    <name>18 Rue du Château</name>
    <cmt>Amenity::entertainment:public_bookcase</cmt>
    <type>Boite à livre</type>
  </wpt>
  <wpt lat="48.1214282" lon="4.3718465">
    <name>rue du Stade</name>
    <cmt>Amenity::entertainment:public_bookcase</cmt>
    <desc>à côté de l arrêt de bus</desc>
    <type>Boite à livre</type>
  </wpt>
  <wpt lat="47.7691861" lon="7.3216092">
    <name>54 rue de Soultz</name>
    <cmt>Amenity::entertainment:public_bookcase</cmt>
    <desc>Boîte aux livres dans le jardin du Pax spécial enfance et petite enfance</desc>
    <type>Boite à livre</type>
  </wpt>
  <wpt lat="48.9751211" lon="8.1786011">
    <name>Place de la république</name>
    <cmt>Amenity::entertainment:public_bookcase</cmt>
    <desc>En face de la poste près du kiosque.</desc>
    <type>Boite à livre</type>
  </wpt>
  <wpt lat="48.5496995" lon="7.7528199">
    <name>8 avenue de Normandie</name>
    <cmt>Amenity::entertainment:public_bookcase</cmt>
    <desc>Dans le jardin interreligieux  L Oasis de la rencontre&quot;, derrière L&apos;église St Vincent  de Paul et tout près de la Médiathèque de la Meinau</desc>
    <type>Boite à livre</type>
  </wpt>
  <wpt lat="48.5736289" lon="7.76149">
    <name>Place Jeanne Helbling</name>
    <cmt>Amenity::entertainment:public_bookcase</cmt>
    <desc>Entre le centre commercial Rivétoile et le cinéma UGC Cité Cité, tout près de la Médiathèque Malraux, depuis juin 2018Gérée par l Association des Résidents Etoile Malraux</desc>
    <type>Boite à livre</type>
  </wpt>
  <wpt lat="49.600295" lon="4.955177">
    <name>rue du gué nolet</name>
    <cmt>Amenity::entertainment:public_bookcase</cmt>
    <type>Boite à livre</type>
  </wpt>
  <wpt lat="48.4459976" lon="4.5810884">
    <name>Rue des Fontaines</name>
    <cmt>Amenity::entertainment:public_bookcase</cmt>
    <desc>Dans l&apos;arrêt de bus.</desc>
    <type>Boite à livre</type>
  </wpt>
  <wpt lat="49.8727332" lon="4.7898364">
    <name>Grand Rue</name>
    <cmt>Amenity::entertainment:public_bookcase</cmt>
    <desc>Située au bord de la Semoy</desc>
    <type>Boite à livre</type>
  </wpt>
  <wpt lat="48.4571303" lon="7.2076004">
    <name>Place du Général de Gaulle</name>
    <cmt>Amenity::entertainment:public_bookcase</cmt>
    <desc>Grande boite à livre située entre le coiffeur et la Taverne Alsacienne, face à l église</desc>
    <type>Boite à livre</type>
  </wpt>
  <wpt lat="48.6060425" lon="4.7770269">
    <name>grande rue des côtes</name>
    <cmt>Amenity::entertainment:public_bookcase</cmt>
    <desc>Dans une ancienne cabine téléphonique en face de l&apos;arrêt de bus</desc>
    <type>Boite à livre</type>
  </wpt>
  <wpt lat="47.6087336" lon="7.528012">
    <name>Square Albert Schweitzer</name>
    <cmt>Amenity::entertainment:public_bookcase</cmt>
    <desc>A proximité de la maison pour tous</desc>
    <type>Boite à livre</type>
  </wpt>
  <wpt lat="48.6263422" lon="6.1141629">
    <name>24 rue du haldat</name>
    <cmt>Amenity::entertainment:public_bookcase</cmt>
    <type>Boite à livre</type>
  </wpt>
  <wpt lat="48.5418866" lon="6.1410888">
    <name>Place du Foyer culturel</name>
    <cmt>Amenity::entertainment:public_bookcase</cmt>
    <desc>Installée en avril 2018, l&apos;aménagement intérieur et la décoration est en cours.</desc>
    <type>Boite à livre</type>
  </wpt>
  <wpt lat="48.6247914" lon="6.0825435">
    <name>6 Rue Des Martyrs</name>
    <cmt>Amenity::entertainment:public_bookcase</cmt>
    <desc>A l&apos;intérieur de l&apos;école de Chaligny Le Mont, accessible pour les élèves depuis la cours de récréation.</desc>
    <type>Boite à livre</type>
  </wpt>
  <wpt lat="48.6351191" lon="6.0466639">
    <name>2 Rue de Toul</name>
    <cmt>Amenity::entertainment:public_bookcase</cmt>
    <desc>En cours d&apos;aménagement</desc>
    <type>Boite à livre</type>
  </wpt>
  <wpt lat="48.6412043" lon="6.0437547">
    <name>83 rue de Toul</name>
    <cmt>Amenity::entertainment:public_bookcase</cmt>
    <desc>Boîte à livres à l&apos;initiative d&apos;habitants. Visible et accessible depuis la voie publique.</desc>
    <type>Boite à livre</type>
  </wpt>
  <wpt lat="48.6044932" lon="6.1007897">
    <name>33 rue Jean Jaurès</name>
    <cmt>Amenity::entertainment:public_bookcase</cmt>
    <desc>Installée en avril, elle est en cours d aménagement.</desc>
    <type>Boite à livre</type>
  </wpt>
  <wpt lat="48.141935896251304" lon="6.626880168914796">
    <name>Rue du Colonel Bertin</name>
    <cmt>Amenity::entertainment:public_bookcase</cmt>
    <desc>La boîte à lire se trouve sur l&apos;aire de jeux sous les arbres.</desc>
    <type>Boite à livre</type>
  </wpt>
  <wpt lat="48.55909946717044" lon="7.56659746170044">
    <name>Rue de la gare</name>
    <cmt>Amenity::entertainment:public_bookcase</cmt>
    <desc>Derrière la salle omnisports, sur le terrain de promenade, dans une ancienne cabine téléphonique</desc>
    <type>Boite à livre</type>
  </wpt>
  <wpt lat="49.7249716" lon="4.944348">
    <name>Chemin du limon</name>
    <cmt>Amenity::entertainment:public_bookcase</cmt>
    <desc>Sur un lavoir, au croisement avec la rue du cimetière</desc>
    <type>Boite à livre</type>
  </wpt>
  <wpt lat="48.5840421" lon="7.4352907">
    <name>154 rue du cercle</name>
    <cmt>Amenity::entertainment:public_bookcase</cmt>
    <desc>Grande boîte de bricolage en plastique avec étagères. devant maison particulière</desc>
    <type>Boite à livre</type>
  </wpt>
  <wpt lat="48.4951089" lon="7.4682058">
    <name>9 Rue Gal Brauer</name>
    <cmt>Amenity::entertainment:public_bookcase</cmt>
    <desc>Une boite à livres, qui ressemble à un grand nid , située à l entrée d&apos;une très jolie médiathèque</desc>
    <type>Boite à livre</type>
  </wpt>
  <wpt lat="49.2143293" lon="6.8674907">
    <name>147 rue Huber</name>
    <cmt>Amenity::entertainment:public_bookcase</cmt>
    <desc>Nous comptons sur vous pour venir faire vivre notre boîte à lire en échangeant vos livres contre d&apos;autres et espérons que tous en prendront soin. Elle est dédiée aux livres pour enfants de tous âges. On y trouve des albums, des documentaires et des petits romans. Elle se trouve à l?entrée de l?ecole maternelle la farandole à Petite Rosselle.</desc>
    <type>Boite à livre</type>
  </wpt>
  <wpt lat="48.3319121" lon="7.6802766">
    <name>Place de la Mairie</name>
    <cmt>Amenity::entertainment:public_bookcase</cmt>
    <desc>Elle est à côté de l&apos;école maternelle, en face de la boulangerieAvec un petit banc pas loin parfait pour manger son petit pain en lisant un bon livre !</desc>
    <type>Boite à livre</type>
  </wpt>
  <wpt lat="49.20995785177468" lon="6.846799850463868">
    <name>227 rue principale</name>
    <cmt>Amenity::entertainment:public_bookcase</cmt>
    <desc>Boîte à lire installée par la bibliothèque municipale avec un espace de détente pour profiter des ouvrages.</desc>
    <type>Boite à livre</type>
  </wpt>
  <wpt lat="49.339832" lon="6.0484878">
    <name>Place François Mitterand</name>
    <cmt>Amenity::entertainment:public_bookcase</cmt>
    <type>Boite à livre</type>
  </wpt>
  <wpt lat="49.3130802" lon="6.0199711">
    <name>Rue du Conroy</name>
    <cmt>Amenity::entertainment:public_bookcase</cmt>
    <type>Boite à livre</type>
  </wpt>
  <wpt lat="48.2134679" lon="4.7162647">
    <name>1 Rue Saint Antoine</name>
    <cmt>Amenity::entertainment:public_bookcase</cmt>
    <type>Boite à livre</type>
  </wpt>
  <wpt lat="49.744358" lon="4.739637">
    <name>rue Chales Prevost</name>
    <cmt>Amenity::entertainment:public_bookcase</cmt>
    <desc>Située juste devant l&apos;entrée de l&apos;école maternelle du Charme</desc>
    <type>Boite à livre</type>
  </wpt>
  <wpt lat="49.74344490938505" lon="4.743304252624513">
    <name>Rue Jules Ferry</name>
    <cmt>Amenity::entertainment:public_bookcase</cmt>
    <desc>Située en face du collège Jules Leroux</desc>
    <type>Boite à livre</type>
  </wpt>
  <wpt lat="49.75239470945757" lon="4.732178449630738">
    <name>Place de Mohon</name>
    <cmt>Amenity::entertainment:public_bookcase</cmt>
    <desc>Située sur la place de l&apos;église</desc>
    <type>Boite à livre</type>
  </wpt>
  <wpt lat="49.77206321368045" lon="4.722007513046266">
    <name>Place Winston Churchill</name>
    <cmt>Amenity::entertainment:public_bookcase</cmt>
    <desc>Située dans le parc</desc>
    <type>Boite à livre</type>
  </wpt>
  <wpt lat="48.5840421" lon="7.4352907">
    <name>154 rue du Cercle</name>
    <cmt>Amenity::entertainment:public_bookcase</cmt>
    <desc>Grande Boîte de bricolage en plastique avec étagères. Devant maison particulière</desc>
    <type>Boite à livre</type>
  </wpt>
  <wpt lat="49.0127535" lon="6.2356392">
    <name>2 rue des Fontaines</name>
    <cmt>Amenity::entertainment:public_bookcase</cmt>
    <desc>Boite à livres située juste à côté de l&apos;école, proche du golf.</desc>
    <type>Boite à livre</type>
  </wpt>
  <wpt lat="48.6672486" lon="6.1770885">
    <name>1, rue Gabriel Péri, Place du Marché</name>
    <cmt>Amenity::entertainment:public_bookcase</cmt>
    <desc>Juste devant l&apos;entrée de la ludothèque</desc>
    <type>Boite à livre</type>
  </wpt>
  <wpt lat="48.354558" lon="6.525138">
    <name>Mairie</name>
    <cmt>Amenity::entertainment:public_bookcase</cmt>
    <desc>Installée depuis avril 2018, derrière la fontaine de la mairie.</desc>
    <type>Boite à livre</type>
  </wpt>
  <wpt lat="49.6855516" lon="4.9071698">
    <name>rue de la marfée</name>
    <cmt>Amenity::entertainment:public_bookcase</cmt>
    <desc>quartier de Frénois,  derrière l école, près du square.</desc>
    <type>Boite à livre</type>
  </wpt>
  <wpt lat="49.701289" lon="4.920769">
    <name>rue Le Chatelier</name>
    <cmt>Amenity::entertainment:public_bookcase</cmt>
    <desc>quartier des cités jardin, près de la salle des fêtes.</desc>
    <type>Boite à livre</type>
  </wpt>
  <wpt lat="49.7109716" lon="4.9141429">
    <name>rue du Maréchal Foch</name>
    <cmt>Amenity::entertainment:public_bookcase</cmt>
    <desc>une ancienne cabine téléphonique à trouvé une nouvelle vie.</desc>
    <type>Boite à livre</type>
  </wpt>
  <wpt lat="49.7220699" lon="4.9276132">
    <name>place de la mairie</name>
    <cmt>Amenity::entertainment:public_bookcase</cmt>
    <desc>adossée au mur de droite de la mairie, jolie boîte à lire colorée</desc>
    <type>Boite à livre</type>
  </wpt>
  <wpt lat="49.697203" lon="4.945568">
    <name>rue de Bitche</name>
    <cmt>Amenity::entertainment:public_bookcase</cmt>
    <desc>dans le jardin botanique, près du jardin d enfants.</desc>
    <type>Boite à livre</type>
  </wpt>
  <wpt lat="48.6710975" lon="7.5526058">
    <name>Rue Paul BUCHER</name>
    <cmt>Amenity::entertainment:public_bookcase</cmt>
    <desc>Sous le préau a gauche de la mairie</desc>
    <type>Boite à livre</type>
  </wpt>
  <wpt lat="49.7067506" lon="4.9439507">
    <name>bd des écossais</name>
    <cmt>Amenity::entertainment:public_bookcase</cmt>
    <desc>tour les myrtilles</desc>
    <type>Boite à livre</type>
  </wpt>
  <wpt lat="48.6214338" lon="6.9835773">
    <name>Parc</name>
    <cmt>Amenity::entertainment:public_bookcase</cmt>
    <desc>Toute nouvelle boîte à livres, contre la petite maison dans le parc.</desc>
    <type>Boite à livre</type>
  </wpt>
  <wpt lat="49.069933" lon="3.9508216">
    <name>Chemin rural du pont Malo</name>
    <cmt>Amenity::entertainment:public_bookcase</cmt>
    <desc>Le nom de la boîte à lire est « Bulles et Books ». Elle est située le long du canal au Pont Malo.</desc>
    <type>Boite à livre</type>
  </wpt>
  <wpt lat="48.6368833" lon="4.9492469">
    <name>24 rue Gambetta</name>
    <cmt>Amenity::entertainment:public_bookcase</cmt>
    <desc>Sous les petites Halles de l&apos;ancien marché couvert</desc>
    <type>Boite à livre</type>
  </wpt>
  <wpt lat="47.981182" lon="7.2183085">
    <name>31 Rue du Stade</name>
    <cmt>Amenity::entertainment:public_bookcase</cmt>
    <desc>Cabane à livres située dans le camping</desc>
    <type>Boite à livre</type>
  </wpt>
  <wpt lat="48.6628017" lon="7.6031598">
    <name>10, rue du Feu</name>
    <cmt>Amenity::entertainment:public_bookcase</cmt>
    <desc>petite boite dans le parc des droits de l homme</desc>
    <type>Boite à livre</type>
  </wpt>
  <wpt lat="48.5796941" lon="7.7615708">
    <name>Place du foin</name>
    <cmt>Amenity::entertainment:public_bookcase</cmt>
    <desc>Dans le bar &quot;Le Chariot</desc>
    <type>Boite à livre</type>
  </wpt>
  <wpt lat="48.6584278" lon="7.5832988">
    <name>Rue de l école</name>
    <cmt>Amenity::entertainment:public_bookcase</cmt>
    <desc>grande boite a lire sous un préau</desc>
    <type>Boite à livre</type>
  </wpt>
  <wpt lat="48.2810856" lon="4.0969964">
    <name>130 AVENUE MICHEL BAROIN</name>
    <cmt>Amenity::entertainment:public_bookcase</cmt>
    <desc>Intermarché Rive de Seine met à la disposition de tous , un magnifique  arbre à livres . Il se situe dans la galerie du supermarché à proximité de bancs pour ceux qui souhaitent  consommer&quot; sur place !!</desc>
    <type>Boite à livre</type>
  </wpt>
  <wpt lat="47.5936569" lon="7.5789488">
    <name>2, rue de Saint-Louis</name>
    <cmt>Amenity::entertainment:public_bookcase</cmt>
    <desc>Située sur le parvis du Triangle, boîte transparente</desc>
    <type>Boite à livre</type>
  </wpt>
  <wpt lat="49.1963607" lon="6.6874942">
    <name>Lac de Creutzwald</name>
    <cmt>Amenity::entertainment:public_bookcase</cmt>
    <desc>Une boîte à lire protégée sur la rive gauche du Lac près de l aire de jeux. Joliment décorée!</desc>
    <type>Boite à livre</type>
  </wpt>
  <wpt lat="49.1187826" lon="6.1737998">
    <name>24 rue du Palais</name>
    <cmt>Amenity::entertainment:public_bookcase</cmt>
    <desc>Posée sur le guichet du cinéma d&apos;art et essais le Caméo Ariel.</desc>
    <type>Boite à livre</type>
  </wpt>
  <wpt lat="48.071476" lon="6.8763121">
    <name>Rue Carnot</name>
    <cmt>Amenity::entertainment:public_bookcase</cmt>
    <desc>La boite à livres se trouve sur le parvis des droits de l Homme</desc>
    <type>Boite à livre</type>
  </wpt>
  <wpt lat="48.2488059" lon="4.3337563">
    <name>Place de la mairie</name>
    <cmt>Amenity::entertainment:public_bookcase</cmt>
    <desc>En cours d&apos;installation.</desc>
    <type>Boite à livre</type>
  </wpt>
  <wpt lat="48.2488059" lon="4.3337563">
    <name>Place de la mairie</name>
    <cmt>Amenity::entertainment:public_bookcase</cmt>
    <type>Boite à livre</type>
  </wpt>
  <wpt lat="48.236518" lon="4.4692069">
    <name>Supermarché Bi1 - 5 rue des anciennes tanneries</name>
    <cmt>Amenity::entertainment:public_bookcase</cmt>
    <desc>Cette boite se situe dans la galerie marchande du supermarché Bi1</desc>
    <type>Boite à livre</type>
  </wpt>
  <wpt lat="48.6503238" lon="7.7002965">
    <name>2 rue de Mundolsheim</name>
    <cmt>Amenity::entertainment:public_bookcase</cmt>
    <desc>Une ancienne cabine téléphonique délaissée, transformée en boite à lire pour livres voyageurs !</desc>
    <type>Boite à livre</type>
  </wpt>
  <wpt lat="48.7220929" lon="4.585708">
    <name>promenade françois 1er</name>
    <cmt>Amenity::entertainment:public_bookcase</cmt>
    <desc>derrière le Bureau d Information Touristique.</desc>
    <type>Boite à livre</type>
  </wpt>
  <wpt lat="49.160818" lon="5.385865">
    <name>quai de Londres</name>
    <cmt>Amenity::entertainment:public_bookcase</cmt>
    <desc>face à la poste, près du jet d eau</desc>
    <type>Boite à livre</type>
  </wpt>
  <wpt lat="48.5947569" lon="7.4653875">
    <name>Place de la fontaine</name>
    <cmt>Amenity::entertainment:public_bookcase</cmt>
    <desc>Grande boîte à livre située sous l arrêt de bus, à côté de la fontaine.</desc>
    <type>Boite à livre</type>
  </wpt>
  <wpt lat="48.5947569" lon="7.4653875">
    <name>Place de la Fontaine</name>
    <cmt>Amenity::entertainment:public_bookcase</cmt>
    <desc>Grande boite à livre située sous l&apos;abribus, à côté de la place de la Fontaine</desc>
    <type>Boite à livre</type>
  </wpt>
  <wpt lat="49.105346241657955" lon="6.707491278648377">
    <name>Gare routière Transavold, rue des Moulins</name>
    <cmt>Amenity::entertainment:public_bookcase</cmt>
    <desc>Cette boîte à lire a été instaurée par l&apos;association Lions Club de Saint-Avold dans le but de cultiver le goût de lire. Elle se trouve dans le bureau d&apos;accueil, à l&apos;entrée de la gare routière Transavold.</desc>
    <type>Boite à livre</type>
  </wpt>
  <wpt lat="49.1063330827889" lon="6.698784828186035">
    <name>Stade Nautique, rue de la Piscine</name>
    <cmt>Amenity::entertainment:public_bookcase</cmt>
    <desc>Cette boîte à lire a été instaurée par l&apos;association Lions Club de Saint-Avold dans le but de cultiver le goût de lire. Elle se trouve à l&apos;accueil de la piscine.</desc>
    <type>Boite à livre</type>
  </wpt>
  <wpt lat="49.10061545310275" lon="6.710768938064576">
    <name>Maison de la petite enfance L&apos;Arc-en-ciel, rue du Maréchal Joffre</name>
    <cmt>Amenity::entertainment:public_bookcase</cmt>
    <desc>Cette boîte à lire a été instaurée par l&apos;association Lions Club de Saint-Avold dans le but de cultiver le goût de lire. Elle se trouve à l&apos;entrée de la garderie.</desc>
    <type>Boite à livre</type>
  </wpt>
  <wpt lat="49.062629" lon="6.5809426">
    <name>Centre culturel Créanto, rue de Metz</name>
    <cmt>Amenity::entertainment:public_bookcase</cmt>
    <desc>Cette boîte à lire se trouve à l entrée de la médiathèque. Les cartons sont souvent remplis de magazines que les bibliothécaires sortent des rayons.</desc>
    <type>Boite à livre</type>
  </wpt>
  <wpt lat="48.78220057747244" lon="6.531313061714173">
    <name>Place Jeanne d&apos;Arc</name>
    <cmt>Amenity::entertainment:public_bookcase</cmt>
    <desc>En face du musée George de la Tour, près du parking, dans une cabine téléphonique, vous trouverez de charmantes étagères recouvertes de bouquins. Original et surprenant !</desc>
    <type>Boite à livre</type>
  </wpt>
  <wpt lat="48.8196659" lon="7.2798022">
    <name>26 rue principale Graufthal</name>
    <cmt>Amenity::entertainment:public_bookcase</cmt>
    <desc>Un lire service dans un abri bus en bois, très typique, très alsacien, on adore !</desc>
    <type>Boite à livre</type>
  </wpt>
  <wpt lat="49.076178159828984" lon="6.683582067489624">
    <name>Hôtel de ville, rue d&apos;Usson du Poitou</name>
    <cmt>Amenity::entertainment:public_bookcase</cmt>
    <desc>Une boîte à lire en extérieur, juste en face de la mairie et à proximité du collège Alexandre Dreux.</desc>
    <type>Boite à livre</type>
  </wpt>
  <wpt lat="48.58352049271566" lon="7.741971015930177">
    <name>Rue du jeu des enfants</name>
    <cmt>Amenity::entertainment:public_bookcase</cmt>
    <desc>Au croisement avec la rue Gustave Doré</desc>
    <type>Boite à livre</type>
  </wpt>
  <wpt lat="48.5901787" lon="7.7445468">
    <name>Place de pierre</name>
    <cmt>Amenity::entertainment:public_bookcase</cmt>
    <desc>Mise en place par l&apos;association Envie de quartier</desc>
    <type>Boite à livre</type>
  </wpt>
  <wpt lat="48.6728006" lon="6.2085018">
    <name>La Cali</name>
    <cmt>Amenity::entertainment:public_bookcase</cmt>
    <desc>Sur la place prêt du feu rouge en face de la ludothèque</desc>
    <type>Boite à livre</type>
  </wpt>
  <wpt lat="48.771219" lon="5.162588">
    <name>rue de la Maréchale</name>
    <cmt>Amenity::entertainment:public_bookcase</cmt>
    <desc>Parc de l&apos;hôtel de ville avec 3 entrées possibleselle est située du côté des jeux pour enfants.  A  noter que cette boite à lire est peu remplie en hiver à cause des aléas climatiques :  humidité, froid</desc>
    <type>Boite à livre</type>
  </wpt>
  <wpt lat="47.8019873" lon="7.3802075">
    <name>33 rue principale</name>
    <cmt>Amenity::entertainment:public_bookcase</cmt>
    <desc>A coté de la supérette , pour les adultes et en face de la mairie , dans la cabine téléphonique pour les enfants.</desc>
    <type>Boite à livre</type>
  </wpt>
  <wpt lat="48.403928" lon="6.837065">
    <name>Gare sncf</name>
    <cmt>Amenity::entertainment:public_bookcase</cmt>
    <desc>Elle est située dans le parc près de la gare sncf de raon l étape</desc>
    <type>Boite à livre</type>
  </wpt>
  <wpt lat="47.881873" lon="5.338596">
    <name>Rue du Port Halte nautique</name>
    <cmt>Amenity::entertainment:public_bookcase</cmt>
    <type>Boite à livre</type>
  </wpt>
  <wpt lat="48.7834803" lon="5.0051676">
    <name>rue de l église</name>
    <cmt>Amenity::entertainment:public_bookcase</cmt>
    <desc>à côté de la mairie, dans la cour de l agence postale.2 cabines téléphoniques recyclées : une en boîte à lire l autre en boîte à dons ou l&apos;on dépose les objets en bon état qui ne nous servent plus</desc>
    <type>Boite à livre</type>
  </wpt>
  <wpt lat="48.199137" lon="6.449579">
    <name>rue du coteau</name>
    <cmt>Amenity::entertainment:public_bookcase</cmt>
    <desc>La boite se trouve sur al gauche de la rue en descendant vers la Moselle.</desc>
    <type>Boite à livre</type>
  </wpt>
  <wpt lat="49.302257" lon="6.1574325">
    <name>rue de la Gare</name>
    <cmt>Amenity::entertainment:public_bookcase</cmt>
    <desc>Grande armoire abritée sous le préau de la gare SNCF</desc>
    <type>Boite à livre</type>
  </wpt>
  <wpt lat="49.3556716" lon="6.1639425">
    <name>place de la République</name>
    <cmt>Amenity::entertainment:public_bookcase</cmt>
    <desc>Une armoire à livre bleue située au fond du Parc Wilson, près de l aire de jeux</desc>
    <type>Boite à livre</type>
  </wpt>
  <wpt lat="49.3609317" lon="6.1722727">
    <name>rue du Général De Gaulle</name>
    <cmt>Amenity::entertainment:public_bookcase</cmt>
    <desc>Une armoire à livre rouge située au fond du Parc Napoléon, près de l aire de jeux</desc>
    <type>Boite à livre</type>
  </wpt>
  <wpt lat="49.4665188" lon="6.3719896">
    <name>11 route de Trèves</name>
    <cmt>Amenity::entertainment:public_bookcase</cmt>
    <desc>En face de la Tour Eiffel miniature, l ancien poste douanier a été réaménagé en Armoire à Livres. Il y a des ouvrages en français et en allemand, car c&apos;est une armoire transfrontalière.</desc>
    <type>Boite à livre</type>
  </wpt>
  <wpt lat="48.5952719" lon="7.4692164">
    <name>2, Rue de l école</name>
    <cmt>Amenity::entertainment:public_bookcase</cmt>
    <desc>Boite a livres de petite taille , fermée et accrochée sous un abri a l arrière de l&apos;école , coté Mairie.</desc>
    <type>Boite à livre</type>
  </wpt>
  <wpt lat="48.111133" lon="5.1367056">
    <name>18 rue de Verdun</name>
    <cmt>Amenity::entertainment:public_bookcase</cmt>
    <desc>Semblables à 2 grosses boîtes aux lettres situées sur le portail de l&apos;agence de graphisme</desc>
    <type>Boite à livre</type>
  </wpt>
  <wpt lat="49.3223143" lon="4.0025089">
    <name>1 place de la mairie</name>
    <cmt>Amenity::entertainment:public_bookcase</cmt>
    <desc>La boîte à lire est installée sous le porche de la mairie de THIL, petit village situé à côté de REIMS, dans la Marne</desc>
    <type>Boite à livre</type>
  </wpt>
  <wpt lat="48.4926756" lon="3.5024613">
    <name>1 Avenue Pasteur</name>
    <cmt>Amenity::entertainment:public_bookcase</cmt>
    <desc>A l intérieur du cinéma Lumière</desc>
    <type>Boite à livre</type>
  </wpt>
  <wpt lat="48.4923815" lon="3.4971195">
    <name>Place de la Halle</name>
    <cmt>Amenity::entertainment:public_bookcase</cmt>
    <desc>à l intérieur de la Halle - accessible aux heures d&apos;ouverture du marché</desc>
    <type>Boite à livre</type>
  </wpt>
  <wpt lat="47.814416" lon="7.1735815">
    <name>Place des tilleuils</name>
    <cmt>Amenity::entertainment:public_bookcase</cmt>
    <desc>Dans une ancienne cabine téléphonique</desc>
    <type>Boite à livre</type>
  </wpt>
  <wpt lat="48.5784606" lon="6.5207688">
    <name>CD 31</name>
    <cmt>Amenity::entertainment:public_bookcase</cmt>
    <desc>Dans la Cafetéria de Cora</desc>
    <type>Boite à livre</type>
  </wpt>
  <wpt lat="47.7443359" lon="7.317701">
    <name>16 Rue Théo Fischer</name>
    <cmt>Amenity::entertainment:public_bookcase</cmt>
    <desc>Dans le quartier Daguerre, inaugurée le 7 Oct 2017 parc Braun, à l initiative des habitants !</desc>
    <type>Boite à livre</type>
  </wpt>
  <wpt lat="49.053490181991016" lon="4.008947610855103">
    <name>19, rue jules lobet</name>
    <cmt>Amenity::entertainment:public_bookcase</cmt>
    <desc>Uniquement pour le plaisir de lire</desc>
    <type>Boite à livre</type>
  </wpt>
  <wpt lat="48.00089214461477" lon="6.264894604682923">
    <name>Avenue André Demazure - Bains-les-Bains</name>
    <cmt>Amenity::entertainment:public_bookcase</cmt>
    <desc>Située à coté des anciens Bains Romains</desc>
    <type>Boite à livre</type>
  </wpt>
  <wpt lat="47.585285" lon="7.561233">
    <name>en face de la bibliothèque du Parnasse</name>
    <cmt>Amenity::entertainment:public_bookcase</cmt>
    <desc>J&apos;ai souvent apporté des livres dans la boîte à lire, pour soutenir cette belle idée. Mais dernièrement, j&apos;ai remarqué qu&apos;une personne les prenait pour les revendre, très certainement. Je trouve ça triste et démotivant.</desc>
    <type>Boite à livre</type>
  </wpt>
  <wpt lat="49.2393246" lon="4.0376308">
    <name>rue de la roseraie</name>
    <cmt>Amenity::entertainment:public_bookcase</cmt>
    <desc>au bord de la coulée verte. Il  en a 3 ou 4 au total.</desc>
    <type>Boite à livre</type>
  </wpt>
  <wpt lat="49.2542546" lon="4.0373068">
    <name>Square des cordeliers</name>
    <cmt>Amenity::entertainment:public_bookcase</cmt>
    <desc>Une boîte à livre verte à l entrée du square, juste à côté de l&apos;école Voltaire.</desc>
    <type>Boite à livre</type>
  </wpt>
  <wpt lat="48.4185022" lon="7.4956838">
    <name>Rue principale</name>
    <cmt>Amenity::entertainment:public_bookcase</cmt>
    <desc>A côté de l école primaire.</desc>
    <type>Boite à livre</type>
  </wpt>
  <wpt lat="49.8648525" lon="4.3693">
    <name>grand rue</name>
    <cmt>Amenity::entertainment:public_bookcase</cmt>
    <desc>aire de jeux</desc>
    <type>Boite à livre</type>
  </wpt>
  <wpt lat="48.825576" lon="7.4827585">
    <name>Place du château</name>
    <cmt>Amenity::entertainment:public_bookcase</cmt>
    <desc>En face de la mairie, place du château</desc>
    <type>Boite à livre</type>
  </wpt>
  <wpt lat="48.8324619" lon="7.5602786">
    <name>51 rue principale</name>
    <cmt>Amenity::entertainment:public_bookcase</cmt>
    <desc>Sous l abri bus</desc>
    <type>Boite à livre</type>
  </wpt>
  <wpt lat="48.8201311" lon="7.5594326">
    <name>54 rue principale</name>
    <cmt>Amenity::entertainment:public_bookcase</cmt>
    <desc>Derrière la mairie, sous un arbre</desc>
    <type>Boite à livre</type>
  </wpt>
  <wpt lat="48.829795" lon="7.958663">
    <name>Place de la mairie</name>
    <cmt>Amenity::entertainment:public_bookcase</cmt>
    <desc>Banc à livres</desc>
    <type>Boite à livre</type>
  </wpt>
  <wpt lat="49.3897636" lon="5.7614684">
    <name>Mercy le bas</name>
    <cmt>Amenity::entertainment:public_bookcase</cmt>
    <desc>Devant la mairie.</desc>
    <type>Boite à livre</type>
  </wpt>
  <wpt lat="47.8193686" lon="7.3818414">
    <name>Impasse de la mairie</name>
    <cmt>Amenity::entertainment:public_bookcase</cmt>
    <desc>À côté de la mairie. La boîte à lire est une cabine téléphonique.</desc>
    <type>Boite à livre</type>
  </wpt>
  <wpt lat="47.5874047" lon="7.5669936">
    <name>Rue de Huningue</name>
    <cmt>Amenity::entertainment:public_bookcase</cmt>
    <desc>A l&apos;entrée du Parc Trimbach</desc>
    <type>Boite à livre</type>
  </wpt>
  <wpt lat="47.574022" lon="7.5504459">
    <name>2 Rue Anne de Gohr</name>
    <cmt>Amenity::entertainment:public_bookcase</cmt>
    <desc>Près de l&apos;Ecole Baerenfels.</desc>
    <type>Boite à livre</type>
  </wpt>
  <wpt lat="48.76128" lon="5.593158">
    <name>Place Charles de Gaulle</name>
    <cmt>Amenity::entertainment:public_bookcase</cmt>
    <desc>Boite à lire près du conservatoire de Commercy</desc>
    <type>Boite à livre</type>
  </wpt>
  <wpt lat="48.6108962" lon="7.7460472">
    <name>13 rue de saint Dié</name>
    <cmt>Amenity::entertainment:public_bookcase</cmt>
    <desc>La cabane à livres.</desc>
    <type>Boite à livre</type>
  </wpt>
  <wpt lat="48.7963349" lon="6.099287">
    <name>Église de Marbache</name>
    <cmt>Amenity::entertainment:public_bookcase</cmt>
    <desc>Parking de l&apos;église.</desc>
    <type>Boite à livre</type>
  </wpt>
  <wpt lat="48.288035" lon="3.7078063">
    <name>Place Gambetta</name>
    <cmt>Amenity::entertainment:public_bookcase</cmt>
    <desc>4 boîtes à lire dans la commune de Pâlis.</desc>
    <type>Boite à livre</type>
  </wpt>
  <wpt lat="48.5925903" lon="3.5558559">
    <name>Rue du Perrey</name>
    <cmt>Amenity::entertainment:public_bookcase</cmt>
    <desc>Face à la bibliothèque.</desc>
    <type>Boite à livre</type>
  </wpt>
  <wpt lat="48.0732104" lon="4.4717014">
    <name>Place de la Mairie</name>
    <cmt>Amenity::entertainment:public_bookcase</cmt>
    <desc>2 boîtes dans le village : place de la Mairie et sous un abris bus.</desc>
    <type>Boite à livre</type>
  </wpt>
  <wpt lat="48.2981244" lon="4.0719116">
    <name>Rue du Général de Gaulle</name>
    <cmt>Amenity::entertainment:public_bookcase</cmt>
    <desc>Boîte à lire gourmande installée dans le marché couvert et dédié aux livres de cuisine.</desc>
    <type>Boite à livre</type>
  </wpt>
  <wpt lat="48.3021283" lon="4.0442247">
    <name>Rue du 25 août</name>
    <cmt>Amenity::entertainment:public_bookcase</cmt>
    <desc>Boîte à livres située dans le square d&apos;Urmitz</desc>
    <type>Boite à livre</type>
  </wpt>
  <wpt lat="48.303201" lon="4.3373573">
    <name>Plage de Géraudot</name>
    <cmt>Amenity::entertainment:public_bookcase</cmt>
    <desc>Boîte à livres située en face de la plage, près d&apos;un petit restaurant et d&apos;un camping.</desc>
    <type>Boite à livre</type>
  </wpt>
  <wpt lat="48.4074045" lon="6.8452647">
    <name>1 rue docteur raoult</name>
    <cmt>Amenity::entertainment:public_bookcase</cmt>
    <desc>Boîte en libre service. A côté de l école primaire du centre.</desc>
    <type>Boite à livre</type>
  </wpt>
  <wpt lat="47.7128749" lon="7.085554">
    <name>Rue de Bretten</name>
    <cmt>Amenity::entertainment:public_bookcase</cmt>
    <type>Boite à livre</type>
  </wpt>
  <wpt lat="48.09215520646915" lon="5.155999660491944">
    <cmt>Amenity::entertainment:public_bookcase</cmt>
    <desc>La boite se trouve pas très loin de l&apos;église.</desc>
    <type>Boite à livre</type>
  </wpt>
  <wpt lat="48.0913264" lon="5.1568523">
    <name>place du tilleul</name>
    <cmt>Amenity::entertainment:public_bookcase</cmt>
    <desc>A coté du pont, place du tilleul.</desc>
    <type>Boite à livre</type>
  </wpt>
  <wpt lat="48.7576889" lon="7.6420037">
    <name>Place Général de Gaulle</name>
    <cmt>Amenity::entertainment:public_bookcase</cmt>
    <desc>Boite installée depuis juin 2017.</desc>
    <type>Boite à livre</type>
  </wpt>
  <wpt lat="48.9530223" lon="4.3620039">
    <name>Petit jard</name>
    <cmt>Amenity::entertainment:public_bookcase</cmt>
    <desc>La boîte à livres se trouve dans le petit jard, allée principale.</desc>
    <type>Boite à livre</type>
  </wpt>
  <wpt lat="48.7362383" lon="7.4849501">
    <name>1 rue de l&apos;église</name>
    <cmt>Amenity::entertainment:public_bookcase</cmt>
    <desc>Super sympa et pleine de livres....</desc>
    <type>Boite à livre</type>
  </wpt>
  <wpt lat="49.8095843" lon="4.7968286">
    <name>Rue Jean Baptiste Clément</name>
    <cmt>Amenity::entertainment:public_bookcase</cmt>
    <desc>située dans un petit renfoncement d une maison de village, beau choix de livres : romans, histoire, enfants, cuisine</desc>
    <type>Boite à livre</type>
  </wpt>
  <wpt lat="48.5010706" lon="6.1144479">
    <name>Rue de la Plaine</name>
    <cmt>Amenity::entertainment:public_bookcase</cmt>
    <desc>Sous le préau, Monsieur Liseur s&apos;est attardé près de la boîte à livres et du vieux pressoir. Une table vous attend, venez lui tenir compagnie.</desc>
    <type>Boite à livre</type>
  </wpt>
  <wpt lat="48.584914" lon="7.739731">
    <name>Square Saint-Jean</name>
    <cmt>Amenity::entertainment:public_bookcase</cmt>
    <desc>La boîte à livres la plus proche de la gare.</desc>
    <type>Boite à livre</type>
  </wpt>
  <wpt lat="48.018096" lon="6.589541">
    <name>rue de la xavée</name>
    <cmt>Amenity::entertainment:public_bookcase</cmt>
    <desc>L&apos;étagère se trouve à l&apos;extérieur du bâtiment Le Volontaire, au centre-ville, côté rue de la Xavée.</desc>
    <type>Boite à livre</type>
  </wpt>
  <wpt lat="49.1052998" lon="6.9587125">
    <name>35 rue principale</name>
    <cmt>Amenity::entertainment:public_bookcase</cmt>
    <desc>Coté mairie.</desc>
    <type>Boite à livre</type>
  </wpt>
  <wpt lat="48.9343136" lon="7.038187">
    <name>rue altwiller</name>
    <cmt>Amenity::entertainment:public_bookcase</cmt>
    <desc>C est à Harskirchen 67260 devant la boulangerie La Huche à Pain, rue Altwiller</desc>
    <type>Boite à livre</type>
  </wpt>
  <wpt lat="49.3698822" lon="6.177538">
    <name>29 rue Pellerin</name>
    <cmt>Amenity::entertainment:public_bookcase</cmt>
    <desc>Dans l aire de jeu pour enfants. Petite cabane en bois.</desc>
    <type>Boite à livre</type>
  </wpt>
  <wpt lat="48.5784606" lon="6.5207688">
    <name>CD 31</name>
    <cmt>Amenity::entertainment:public_bookcase</cmt>
    <desc>A l&apos;entrée de la cafétéria en face du stand à crêpes.</desc>
    <type>Boite à livre</type>
  </wpt>
  <wpt lat="47.9857446" lon="7.2178699">
    <name>Rue du Bois</name>
    <cmt>Amenity::entertainment:public_bookcase</cmt>
    <type>Boite à livre</type>
  </wpt>
  <wpt lat="49.0758265" lon="6.2280643">
    <name>rue gargan</name>
    <cmt>Amenity::entertainment:public_bookcase</cmt>
    <desc>Boite à lire située sur la petite place en face du couvent.</desc>
    <type>Boite à livre</type>
  </wpt>
  <wpt lat="49.353888" lon="6.196676">
    <name>Rue De La République</name>
    <cmt>Amenity::entertainment:public_bookcase</cmt>
    <desc>Située à l entrée du parc en face du petit parking</desc>
    <type>Boite à livre</type>
  </wpt>
  <wpt lat="47.6590877" lon="7.0960085">
    <name>2 rue du stade</name>
    <cmt>Amenity::entertainment:public_bookcase</cmt>
    <desc>La boite l&apos;île de Cécile&quot; a été installée le 13 mai 2017 à l&apos;occasion de la première journée citoyenne à Traubach le BAs.</desc>
    <type>Boite à livre</type>
  </wpt>
  <wpt lat="49.2913226" lon="4.0264814">
    <name>Rue Paul Wenz</name>
    <cmt>Amenity::entertainment:public_bookcase</cmt>
    <desc>Boite à lire pour adultes et enfants</desc>
    <type>Boite à livre</type>
  </wpt>
  <wpt lat="47.983607" lon="7.398383">
    <name>rue des herbes</name>
    <cmt>Amenity::entertainment:public_bookcase</cmt>
    <desc>Livres pour enfants et adultes</desc>
    <type>Boite à livre</type>
  </wpt>
  <wpt lat="48.4199655" lon="7.6675177">
    <name>place du château de la Rebmatt</name>
    <cmt>Amenity::entertainment:public_bookcase</cmt>
    <desc>L&apos;arbre à livres se situe devant la médiathèque intercommunale Denise Rack-Salomon.</desc>
    <type>Boite à livre</type>
  </wpt>
  <wpt lat="48.6317608" lon="7.0740759">
    <name>rue de l&apos;école</name>
    <cmt>Amenity::entertainment:public_bookcase</cmt>
    <desc>La cabane à lire se situe en bas de la rue, dans l&apos;ancien abribus...</desc>
    <type>Boite à livre</type>
  </wpt>
  <wpt lat="49.2581329" lon="4.0257686">
    <name>Square Colbert</name>
    <cmt>Amenity::entertainment:public_bookcase</cmt>
    <desc>Dans le parc en face de la gare, du côté de la place d Erlon plutôt, une boîte à lire rouge!</desc>
    <type>Boite à livre</type>
  </wpt>
  <wpt lat="48.8221097" lon="7.4092076">
    <name>rue de Bouxwiller</name>
    <cmt>Amenity::entertainment:public_bookcase</cmt>
    <desc>Boite à lire au niveau de l&apos;arrêt de bus.</desc>
    <type>Boite à livre</type>
  </wpt>
  <wpt lat="48.871557" lon="7.480032">
    <name>Parc naturel régional des Vosges du Nord</name>
    <cmt>Amenity::entertainment:public_bookcase</cmt>
    <desc>Boite à lire au niveau de la gare, du côté quai.</desc>
    <type>Boite à livre</type>
  </wpt>
  <wpt lat="47.8653348" lon="7.3507532">
    <name>3 rue du moulin</name>
    <cmt>Amenity::entertainment:public_bookcase</cmt>
    <desc>Boîte à lire devant le salon de thé Thé O Café.</desc>
    <type>Boite à livre</type>
  </wpt>
  <wpt lat="49.1933914" lon="6.1328968">
    <name>6 Place Curie</name>
    <cmt>Amenity::entertainment:public_bookcase</cmt>
    <desc>Boîte à lire devant l&apos;école Jean Morette, Place Curie. Accessible à tous !</desc>
    <type>Boite à livre</type>
  </wpt>
  <wpt lat="48.687912" lon="6.1822293">
    <name>Rue des ponts</name>
    <cmt>Amenity::entertainment:public_bookcase</cmt>
    <desc>Nouvelle boite à lire réalisée par le bureau d&apos;architecture Studiolada, qui se situe devant une entrée du centre commerciale Saint-Jean. Très fournie en livres.</desc>
    <type>Boite à livre</type>
  </wpt>
  <wpt lat="48.7554755" lon="6.0848041">
    <name>91 route de pompey</name>
    <cmt>Amenity::entertainment:public_bookcase</cmt>
    <desc>Une boite a livre mis à disposition à tous qui se situe dans la propriété de la personne.</desc>
    <type>Boite à livre</type>
  </wpt>
  <wpt lat="47.948404" lon="5.0086551">
    <name>40 rue Anatole Gabeur</name>
    <cmt>Amenity::entertainment:public_bookcase</cmt>
    <desc>Situé au cœur du village dans l&apos;ancien Relais des Postes. En dessous de la Médiathèque.</desc>
    <type>Boite à livre</type>
  </wpt>
  <wpt lat="48.1727445" lon="7.0147646">
    <name>1 rue de la meurthe</name>
    <cmt>Amenity::entertainment:public_bookcase</cmt>
    <type>Boite à livre</type>
  </wpt>
  <wpt lat="49.3463781" lon="3.9831427">
    <name>25 rue de Verdun</name>
    <cmt>Amenity::entertainment:public_bookcase</cmt>
    <desc>Boîte à lire réalisée par les enfants de l accueil de loisirs et du périscolaire en lien avec le collectif citoyen &quot;Loivre en transition&quot; et la mairie.</desc>
    <type>Boite à livre</type>
  </wpt>
  <wpt lat="49.1178681" lon="6.1855754">
    <name>porte des allemands</name>
    <cmt>Amenity::entertainment:public_bookcase</cmt>
    <desc>Ville de Metz Dans le cadre de sa politique d accès à la culture en général, à la lecture en particulier, la Ville de Metz a mis en place un réseau de boîtes à livres</desc>
    <type>Boite à livre</type>
  </wpt>
  <wpt lat="48.516187" lon="7.706628">
    <name>promenade du Girlenhirsch</name>
    <cmt>Amenity::entertainment:public_bookcase</cmt>
    <desc>A l entrée du parc animalier de Friedel</desc>
    <type>Boite à livre</type>
  </wpt>
  <wpt lat="48.3637086" lon="6.86504">
    <name>4 Rue du Vivier</name>
    <cmt>Amenity::entertainment:public_bookcase</cmt>
    <desc>Sur le parking derrière la mairie.</desc>
    <type>Boite à livre</type>
  </wpt>
  <wpt lat="48.5818698" lon="7.7588521">
    <name>1 rue de l académie</name>
    <cmt>Amenity::entertainment:public_bookcase</cmt>
    <desc>Dans le jardin de la HEAR Strasbourg, une boite à lire plutôt imposante!</desc>
    <type>Boite à livre</type>
  </wpt>
  <wpt lat="49.6958723" lon="4.9301077">
    <name>10 place de la gare</name>
    <cmt>Amenity::entertainment:public_bookcase</cmt>
    <desc>Bibliothèque libre dans un bar, le BA KUNDA CAFE.</desc>
    <type>Boite à livre</type>
  </wpt>
  <wpt lat="48.7828114" lon="7.8633677">
    <name>1 Place de l&apos;Église</name>
    <cmt>Amenity::entertainment:public_bookcase</cmt>
    <desc>Cabane à livres installée dans la commune de Oberhoffen-sur-Moder.</desc>
    <type>Boite à livre</type>
  </wpt>
  <wpt lat="49.2557516" lon="6.3479317">
    <name>rue de Neudelange</name>
    <cmt>Amenity::entertainment:public_bookcase</cmt>
    <desc>Dans l&apos;aire de jeux, anciennes boites à lettres décorée par les enfants</desc>
    <type>Boite à livre</type>
  </wpt>
  <wpt lat="49.0271056" lon="4.4200155">
    <name>Rue de la mairie</name>
    <cmt>Amenity::entertainment:public_bookcase</cmt>
    <desc>Tous types de lecture, pour enfants, pour ados et adultes. Cette Boite à Lire comporte également des magazines et des livres de cuisine.</desc>
    <type>Boite à livre</type>
  </wpt>
  <wpt lat="48.2565631" lon="7.4541013">
    <name>rue Melsheim</name>
    <cmt>Amenity::entertainment:public_bookcase</cmt>
    <desc>Une etagere protegee par..un rideau de douche! En fonction depuis plusieurs annees.</desc>
    <type>Boite à livre</type>
  </wpt>
  <wpt lat="48.163583" lon="6.352203">
    <name>Lac de Bouzey</name>
    <cmt>Amenity::entertainment:public_bookcase</cmt>
    <desc>Maison de la bicyclette</desc>
    <type>Boite à livre</type>
  </wpt>
  <wpt lat="48.1726298" lon="6.8786807">
    <name>Place de la mairie</name>
    <cmt>Amenity::entertainment:public_bookcase</cmt>
    <desc>Au mur de la mairie, près des portes de la salle des fêtes. Sur la gauche, lorsqu&apos;on fait face au bâtiment.</desc>
    <type>Boite à livre</type>
  </wpt>
  <wpt lat="49.7018562" lon="4.991267">
    <name>Ruelle des prés</name>
    <cmt>Amenity::entertainment:public_bookcase</cmt>
    <desc>Boîte à livres et revues</desc>
    <type>Boite à livre</type>
  </wpt>
  <wpt lat="48.8722585" lon="7.4772308">
    <name>Gare d Ingwiller</name>
    <cmt>Amenity::entertainment:public_bookcase</cmt>
    <desc>La boite est située à côté du distributeur de billets SNCF, à la gare d Ingwiller</desc>
    <type>Boite à livre</type>
  </wpt>
  <wpt lat="48.0522977" lon="7.2031935">
    <name>1 Grand Rue</name>
    <cmt>Amenity::entertainment:public_bookcase</cmt>
    <desc>A la Mairie</desc>
    <type>Boite à livre</type>
  </wpt>
  <wpt lat="48.689062293050156" lon="6.181397438049317">
    <name>Rue des ponts</name>
    <cmt>Amenity::entertainment:public_bookcase</cmt>
    <desc>En face de l&apos;église Saint Sébastien.</desc>
    <type>Boite à livre</type>
  </wpt>
  <wpt lat="49.7018562" lon="4.991267">
    <name>Ruelle des prés</name>
    <cmt>Amenity::entertainment:public_bookcase</cmt>
    <desc>Belle boîte en bois adossée à un joli jardin de plantes aromatiques et médicinales.</desc>
    <type>Boite à livre</type>
  </wpt>
  <wpt lat="49.0909666" lon="6.144516">
    <name>Place de Coubertin</name>
    <cmt>Amenity::entertainment:public_bookcase</cmt>
    <desc>La boite à lire se situe devant l entrée de la piscine municipale. Une très bonne idée, non !</desc>
    <type>Boite à livre</type>
  </wpt>
  <wpt lat="49.270154" lon="4.0253774">
    <name>Place luton</name>
    <cmt>Amenity::entertainment:public_bookcase</cmt>
    <desc>Boite à lire rue Emile Zola, en plein milieu de la place Luton, sur le coté du terrain de pétanque.</desc>
    <type>Boite à livre</type>
  </wpt>
  <wpt lat="48.4951089" lon="7.4682058">
    <name>9 rue du Général de Brauer</name>
    <cmt>Amenity::entertainment:public_bookcase</cmt>
    <desc>Le panier se trouve dans l&apos;entrée de la Médiathèque de Rosheim. N&apos;est accessible qu&apos;aux horaires d&apos;ouverture de la Médiathèque.</desc>
    <type>Boite à livre</type>
  </wpt>
  <wpt lat="49.032129" lon="3.9571236">
    <name>8 rue de l&apos;ile de france</name>
    <cmt>Amenity::entertainment:public_bookcase</cmt>
    <desc>Boîte à lire dans le parc de l&apos;hôtel de ville en face du perron.</desc>
    <type>Boite à livre</type>
  </wpt>
  <wpt lat="48.5648305" lon="7.7670934">
    <name>41 rue de la Ziegelau</name>
    <cmt>Amenity::entertainment:public_bookcase</cmt>
    <desc>Intégrée dans la palissade devant l immeuble Ecol&apos;khoze.</desc>
    <type>Boite à livre</type>
  </wpt>
  <wpt lat="48.8137872" lon="7.7828441">
    <name>Place Désiré Brumbt</name>
    <cmt>Amenity::entertainment:public_bookcase</cmt>
    <desc>La boîte se situe près de la cage à oiseaux et de l aire de jeux dans le parc de la Gare</desc>
    <type>Boite à livre</type>
  </wpt>
  <wpt lat="48.8154829" lon="7.7863825">
    <name>Rue de la Vieille Ile</name>
    <cmt>Amenity::entertainment:public_bookcase</cmt>
    <desc>Elle se trouve près du parking</desc>
    <type>Boite à livre</type>
  </wpt>
  <wpt lat="48.3324023" lon="4.1259827">
    <name>45 rue de la République</name>
    <cmt>Amenity::entertainment:public_bookcase</cmt>
    <desc>Située sous l&apos;abribus  à côté de la maison de la presse.</desc>
    <type>Boite à livre</type>
  </wpt>
  <wpt lat="49.9301881" lon="4.6494783">
    <name>rue des cerisiers</name>
    <cmt>Amenity::entertainment:public_bookcase</cmt>
    <desc>Près de la crèche</desc>
    <type>Boite à livre</type>
  </wpt>
  <wpt lat="49.942761" lon="4.6374643">
    <name>rue victor hugo</name>
    <cmt>Amenity::entertainment:public_bookcase</cmt>
    <desc>A la mairie</desc>
    <type>Boite à livre</type>
  </wpt>
  <wpt lat="49.9371109" lon="4.6404389">
    <name>rue jean baptiste clément</name>
    <cmt>Amenity::entertainment:public_bookcase</cmt>
    <desc>Dans le parc municipal Rocheteau</desc>
    <type>Boite à livre</type>
  </wpt>
  <wpt lat="47.7446271" lon="7.3380148">
    <name>29 rue de la Sinne</name>
    <cmt>Amenity::entertainment:public_bookcase</cmt>
    <desc>La boîte  de couleur rose  se trouve face aux jeux pour enfants à l&apos;intérieur du parc Steinbach.</desc>
    <type>Boite à livre</type>
  </wpt>
  <wpt lat="48.5499234" lon="7.7199461">
    <name>Rue de l&apos;île des Pêcheurs</name>
    <cmt>Amenity::entertainment:public_bookcase</cmt>
    <desc>Près de la mairie.</desc>
    <type>Boite à livre</type>
  </wpt>